[{"zip":"01029","city":"East Otis","state":"MA","lat":42.1909,"long":-73.0517},{"zip":"01201","city":"Pittsfield","state":"MA","lat":42.4531,"long":-73.2471},{"zip":"01202","city":"Pittsfield","state":"MA","lat":42.3929,"long":-73.2285},{"zip":"01203","city":"Pittsfield","state":"MA","lat":42.3929,"long":-73.2285},{"zip":"01220","city":"Adams","state":"MA","lat":42.6223,"long":-73.1172},{"zip":"01222","city":"Ashley Falls","state":"MA","lat":42.0596,"long":-73.3202},{"zip":"01223","city":"Becket","state":"MA","lat":42.3594,"long":-73.1203},{"zip":"01224","city":"Berkshire","state":"MA","lat":42.5126,"long":-73.1929},{"zip":"01225","city":"Cheshire","state":"MA","lat":42.5611,"long":-73.158},{"zip":"01226","city":"Dalton","state":"MA","lat":42.475,"long":-73.1603},{"zip":"01227","city":"Dalton","state":"MA","lat":42.4737,"long":-73.1662},{"zip":"01229","city":"Glendale","state":"MA","lat":42.2793,"long":-73.3435},{"zip":"01230","city":"Great Barrington","state":"MA","lat":42.1959,"long":-73.3607},{"zip":"01235","city":"Hinsdale","state":"MA","lat":42.4298,"long":-73.0724},{"zip":"01236","city":"Housatonic","state":"MA","lat":42.2653,"long":-73.3745},{"zip":"01237","city":"Lanesborough","state":"MA","lat":42.5173,"long":-73.2282},{"zip":"01238","city":"Lee","state":"MA","lat":42.299,"long":-73.2317},{"zip":"01240","city":"Lenox","state":"MA","lat":42.3642,"long":-73.2713},{"zip":"01242","city":"Lenox Dale","state":"MA","lat":42.3386,"long":-73.2509},{"zip":"01244","city":"Mill River","state":"MA","lat":42.1228,"long":-73.254},{"zip":"01245","city":"Monterey","state":"MA","lat":42.1867,"long":-73.2065},{"zip":"01247","city":"North Adams","state":"MA","lat":42.6955,"long":-73.08},{"zip":"01252","city":"North Egremont","state":"MA","lat":42.1986,"long":-73.4462},{"zip":"01253","city":"Otis","state":"MA","lat":42.1931,"long":-73.0918},{"zip":"01254","city":"Richmond","state":"MA","lat":42.3784,"long":-73.3645},{"zip":"01255","city":"Sandisfield","state":"MA","lat":42.1094,"long":-73.1163},{"zip":"01256","city":"Savoy","state":"MA","lat":42.577,"long":-73.0233},{"zip":"01257","city":"Sheffield","state":"MA","lat":42.1001,"long":-73.3611},{"zip":"01258","city":"South Egremont","state":"MA","lat":42.1012,"long":-73.4566},{"zip":"01259","city":"Southfield","state":"MA","lat":42.078,"long":-73.2609},{"zip":"01260","city":"South Lee","state":"MA","lat":42.2779,"long":-73.2773},{"zip":"01262","city":"Stockbridge","state":"MA","lat":42.301,"long":-73.3223},{"zip":"01263","city":"Stockbridge","state":"MA","lat":42.3929,"long":-73.2285},{"zip":"01264","city":"Tyringham","state":"MA","lat":42.22,"long":-73.1979},{"zip":"01266","city":"West Stockbridge","state":"MA","lat":42.3348,"long":-73.3825},{"zip":"01267","city":"Williamstown","state":"MA","lat":42.7089,"long":-73.2036},{"zip":"01270","city":"Windsor","state":"MA","lat":42.515,"long":-73.0412},{"zip":"01343","city":"Drury","state":"MA","lat":42.6427,"long":-72.9862},{"zip":"01810","city":"Andover","state":"MA","lat":42.6496,"long":-71.1565},{"zip":"01812","city":"Andover","state":"MA","lat":42.6472,"long":-71.1842},{"zip":"01830","city":"Haverhill","state":"MA","lat":42.7856,"long":-71.0721},{"zip":"01831","city":"Haverhill","state":"MA","lat":42.7711,"long":-71.1221},{"zip":"01832","city":"Haverhill","state":"MA","lat":42.7792,"long":-71.1095},{"zip":"01833","city":"Georgetown","state":"MA","lat":42.7281,"long":-70.9822},{"zip":"01834","city":"Groveland","state":"MA","lat":42.753,"long":-71.027},{"zip":"01835","city":"Haverhill","state":"MA","lat":42.7528,"long":-71.0843},{"zip":"01840","city":"Lawrence","state":"MA","lat":42.708,"long":-71.1638},{"zip":"01841","city":"Lawrence","state":"MA","lat":42.7115,"long":-71.167},{"zip":"01842","city":"Lawrence","state":"MA","lat":42.707,"long":-71.1631},{"zip":"01843","city":"Lawrence","state":"MA","lat":42.6911,"long":-71.1605},{"zip":"01844","city":"Methuen","state":"MA","lat":42.728,"long":-71.181},{"zip":"01845","city":"North Andover","state":"MA","lat":42.6826,"long":-71.109},{"zip":"01860","city":"Merrimac","state":"MA","lat":42.8346,"long":-71.0047},{"zip":"01885","city":"West Boxford","state":"MA","lat":42.707,"long":-71.0639},{"zip":"01899","city":"Andover","state":"MA","lat":42.6584,"long":-71.137},{"zip":"01901","city":"Lynn","state":"MA","lat":42.4612,"long":-70.9467},{"zip":"01902","city":"Lynn","state":"MA","lat":42.4698,"long":-70.942},{"zip":"01903","city":"Lynn","state":"MA","lat":42.4668,"long":-70.9495},{"zip":"01904","city":"Lynn","state":"MA","lat":42.4889,"long":-70.9647},{"zip":"01905","city":"Lynn","state":"MA","lat":42.4694,"long":-70.9728},{"zip":"01906","city":"Saugus","state":"MA","lat":42.4633,"long":-71.0111},{"zip":"01907","city":"Swampscott","state":"MA","lat":42.4746,"long":-70.9098},{"zip":"01908","city":"Nahant","state":"MA","lat":42.4261,"long":-70.9277},{"zip":"01910","city":"Lynn","state":"MA","lat":42.4548,"long":-70.9747},{"zip":"01913","city":"Amesbury","state":"MA","lat":42.8559,"long":-70.9367},{"zip":"01915","city":"Beverly","state":"MA","lat":42.5608,"long":-70.8759},{"zip":"01921","city":"Boxford","state":"MA","lat":42.6797,"long":-71.0114},{"zip":"01922","city":"Byfield","state":"MA","lat":42.7568,"long":-70.9351},{"zip":"01923","city":"Danvers","state":"MA","lat":42.5694,"long":-70.9425},{"zip":"01929","city":"Essex","state":"MA","lat":42.6286,"long":-70.7828},{"zip":"01930","city":"Gloucester","state":"MA","lat":42.6208,"long":-70.6721},{"zip":"01931","city":"Gloucester","state":"MA","lat":42.6159,"long":-70.662},{"zip":"01936","city":"Hamilton","state":"MA","lat":42.6354,"long":-70.8791},{"zip":"01937","city":"Hathorne","state":"MA","lat":42.6354,"long":-70.8791},{"zip":"01938","city":"Ipswich","state":"MA","lat":42.6809,"long":-70.8494},{"zip":"01940","city":"Lynnfield","state":"MA","lat":42.5327,"long":-71.0339},{"zip":"01944","city":"Manchester","state":"MA","lat":42.5796,"long":-70.7674},{"zip":"01945","city":"Marblehead","state":"MA","lat":42.4984,"long":-70.8653},{"zip":"01949","city":"Middleton","state":"MA","lat":42.5942,"long":-71.013},{"zip":"01950","city":"Newburyport","state":"MA","lat":42.813,"long":-70.8847},{"zip":"01951","city":"Newbury","state":"MA","lat":42.7835,"long":-70.8474},{"zip":"01952","city":"Salisbury","state":"MA","lat":42.8507,"long":-70.8588},{"zip":"01960","city":"Peabody","state":"MA","lat":42.5326,"long":-70.9612},{"zip":"01961","city":"Peabody","state":"MA","lat":42.6354,"long":-70.8791},{"zip":"01965","city":"Prides Crossing","state":"MA","lat":42.5581,"long":-70.8257},{"zip":"01966","city":"Rockport","state":"MA","lat":42.658,"long":-70.6194},{"zip":"01969","city":"Rowley","state":"MA","lat":42.7138,"long":-70.907},{"zip":"01970","city":"Salem","state":"MA","lat":42.5151,"long":-70.9003},{"zip":"01971","city":"Salem","state":"MA","lat":42.6354,"long":-70.8791},{"zip":"01982","city":"South Hamilton","state":"MA","lat":42.6185,"long":-70.8561},{"zip":"01983","city":"Topsfield","state":"MA","lat":42.6415,"long":-70.9488},{"zip":"01984","city":"Wenham","state":"MA","lat":42.6017,"long":-70.8786},{"zip":"01985","city":"West Newbury","state":"MA","lat":42.7949,"long":-70.9778},{"zip":"01054","city":"Leverett","state":"MA","lat":42.4682,"long":-72.4993},{"zip":"01072","city":"Shutesbury","state":"MA","lat":42.482,"long":-72.4213},{"zip":"01093","city":"Whately","state":"MA","lat":42.4427,"long":-72.6525},{"zip":"01301","city":"Greenfield","state":"MA","lat":42.6013,"long":-72.6236},{"zip":"01302","city":"Greenfield","state":"MA","lat":42.5222,"long":-72.6242},{"zip":"01330","city":"Ashfield","state":"MA","lat":42.5232,"long":-72.811},{"zip":"01337","city":"Bernardston","state":"MA","lat":42.6952,"long":-72.5772},{"zip":"01338","city":"Buckland","state":"MA","lat":42.5736,"long":-72.8213},{"zip":"01339","city":"Charlemont","state":"MA","lat":42.608,"long":-72.8901},{"zip":"01340","city":"Colrain","state":"MA","lat":42.679,"long":-72.7265},{"zip":"01341","city":"Conway","state":"MA","lat":42.5138,"long":-72.7025},{"zip":"01342","city":"Deerfield","state":"MA","lat":42.5406,"long":-72.6072},{"zip":"01344","city":"Erving","state":"MA","lat":42.6076,"long":-72.4292},{"zip":"01346","city":"Heath","state":"MA","lat":42.6853,"long":-72.8391},{"zip":"01347","city":"Lake Pleasant","state":"MA","lat":42.5566,"long":-72.5181},{"zip":"01349","city":"Millers Falls","state":"MA","lat":42.582,"long":-72.4926},{"zip":"01350","city":"Monroe Bridge","state":"MA","lat":42.7215,"long":-72.9762},{"zip":"01351","city":"Montague","state":"MA","lat":42.5429,"long":-72.5328},{"zip":"01354","city":"Gill","state":"MA","lat":42.6404,"long":-72.4995},{"zip":"01355","city":"New Salem","state":"MA","lat":42.5146,"long":-72.3062},{"zip":"01360","city":"Northfield","state":"MA","lat":42.6887,"long":-72.451},{"zip":"01364","city":"Orange","state":"MA","lat":42.6129,"long":-72.2924},{"zip":"01367","city":"Rowe","state":"MA","lat":42.6953,"long":-72.9258},{"zip":"01370","city":"Shelburne Falls","state":"MA","lat":42.6022,"long":-72.7391},{"zip":"01373","city":"South Deerfield","state":"MA","lat":42.4756,"long":-72.6153},{"zip":"01375","city":"Sunderland","state":"MA","lat":42.4539,"long":-72.5676},{"zip":"01376","city":"Turners Falls","state":"MA","lat":42.5954,"long":-72.5557},{"zip":"01378","city":"Warwick","state":"MA","lat":42.6671,"long":-72.3397},{"zip":"01379","city":"Wendell","state":"MA","lat":42.5656,"long":-72.4009},{"zip":"01380","city":"Wendell Depot","state":"MA","lat":42.5534,"long":-72.3927},{"zip":"01001","city":"Agawam","state":"MA","lat":42.0702,"long":-72.6227},{"zip":"01008","city":"Blandford","state":"MA","lat":42.1829,"long":-72.9361},{"zip":"01009","city":"Bondsville","state":"MA","lat":42.2061,"long":-72.3405},{"zip":"01010","city":"Brimfield","state":"MA","lat":42.1165,"long":-72.1885},{"zip":"01011","city":"Chester","state":"MA","lat":42.2794,"long":-72.9888},{"zip":"01013","city":"Chicopee","state":"MA","lat":42.1487,"long":-72.6079},{"zip":"01014","city":"Chicopee","state":"MA","lat":42.1707,"long":-72.6048},{"zip":"01020","city":"Chicopee","state":"MA","lat":42.1764,"long":-72.5761},{"zip":"01021","city":"Chicopee","state":"MA","lat":42.1707,"long":-72.6048},{"zip":"01022","city":"Chicopee","state":"MA","lat":42.1934,"long":-72.5544},{"zip":"01028","city":"East Longmeadow","state":"MA","lat":42.0672,"long":-72.5056},{"zip":"01030","city":"Feeding Hills","state":"MA","lat":42.0718,"long":-72.6751},{"zip":"01034","city":"Granville","state":"MA","lat":42.1127,"long":-72.952},{"zip":"01036","city":"Hampden","state":"MA","lat":42.0648,"long":-72.4318},{"zip":"01040","city":"Holyoke","state":"MA","lat":42.202,"long":-72.6262},{"zip":"01041","city":"Holyoke","state":"MA","lat":42.2043,"long":-72.6162},{"zip":"01056","city":"Ludlow","state":"MA","lat":42.1728,"long":-72.471},{"zip":"01057","city":"Monson","state":"MA","lat":42.101,"long":-72.3196},{"zip":"01069","city":"Palmer","state":"MA","lat":42.1762,"long":-72.3288},{"zip":"01071","city":"Russell","state":"MA","lat":42.1471,"long":-72.8403},{"zip":"01077","city":"Southwick","state":"MA","lat":42.0511,"long":-72.7706},{"zip":"01079","city":"Thorndike","state":"MA","lat":42.1929,"long":-72.3296},{"zip":"01080","city":"Three Rivers","state":"MA","lat":42.1819,"long":-72.3624},{"zip":"01081","city":"Wales","state":"MA","lat":42.0627,"long":-72.2046},{"zip":"01085","city":"Westfield","state":"MA","lat":42.1251,"long":-72.7495},{"zip":"01086","city":"Westfield","state":"MA","lat":42.1734,"long":-72.848},{"zip":"01089","city":"West Springfield","state":"MA","lat":42.1151,"long":-72.6411},{"zip":"01090","city":"West Springfield","state":"MA","lat":42.1707,"long":-72.6048},{"zip":"01095","city":"Wilbraham","state":"MA","lat":42.1245,"long":-72.4464},{"zip":"01097","city":"Woronoco","state":"MA","lat":42.164,"long":-72.8295},{"zip":"01101","city":"Springfield","state":"MA","lat":42.1015,"long":-72.5898},{"zip":"01102","city":"Springfield","state":"MA","lat":42.1707,"long":-72.6048},{"zip":"01103","city":"Springfield","state":"MA","lat":42.1029,"long":-72.5887},{"zip":"01104","city":"Springfield","state":"MA","lat":42.1288,"long":-72.5778},{"zip":"01105","city":"Springfield","state":"MA","lat":42.0999,"long":-72.5783},{"zip":"01106","city":"Longmeadow","state":"MA","lat":42.0507,"long":-72.5676},{"zip":"01107","city":"Springfield","state":"MA","lat":42.1179,"long":-72.6065},{"zip":"01108","city":"Springfield","state":"MA","lat":42.0853,"long":-72.5584},{"zip":"01109","city":"Springfield","state":"MA","lat":42.1145,"long":-72.5543},{"zip":"01111","city":"Springfield","state":"MA","lat":42.1707,"long":-72.6048},{"zip":"01115","city":"Springfield","state":"MA","lat":42.1029,"long":-72.5916},{"zip":"01116","city":"Longmeadow","state":"MA","lat":42.1707,"long":-72.6048},{"zip":"01118","city":"Springfield","state":"MA","lat":42.0929,"long":-72.5274},{"zip":"01119","city":"Springfield","state":"MA","lat":42.1247,"long":-72.5121},{"zip":"01128","city":"Springfield","state":"MA","lat":42.0944,"long":-72.4889},{"zip":"01129","city":"Springfield","state":"MA","lat":42.1223,"long":-72.4876},{"zip":"01138","city":"Springfield","state":"MA","lat":42.1707,"long":-72.6048},{"zip":"01139","city":"Springfield","state":"MA","lat":42.1707,"long":-72.6048},{"zip":"01144","city":"Springfield","state":"MA","lat":42.1018,"long":-72.5915},{"zip":"01151","city":"Indian Orchard","state":"MA","lat":42.1532,"long":-72.505},{"zip":"01152","city":"Springfield","state":"MA","lat":42.1707,"long":-72.6048},{"zip":"01199","city":"Springfield","state":"MA","lat":42.1199,"long":-72.605},{"zip":"01521","city":"Holland","state":"MA","lat":42.0403,"long":-72.1544},{"zip":"01002","city":"Amherst","state":"MA","lat":42.3671,"long":-72.4646},{"zip":"01003","city":"Amherst","state":"MA","lat":42.3919,"long":-72.5248},{"zip":"01004","city":"Amherst","state":"MA","lat":42.3845,"long":-72.5132},{"zip":"01007","city":"Belchertown","state":"MA","lat":42.2751,"long":-72.411},{"zip":"01012","city":"Chesterfield","state":"MA","lat":42.3923,"long":-72.8256},{"zip":"01026","city":"Cummington","state":"MA","lat":42.4633,"long":-72.9202},{"zip":"01027","city":"Easthampton","state":"MA","lat":42.2668,"long":-72.669},{"zip":"01032","city":"Goshen","state":"MA","lat":42.4404,"long":-72.7995},{"zip":"01033","city":"Granby","state":"MA","lat":42.2557,"long":-72.52},{"zip":"01035","city":"Hadley","state":"MA","lat":42.3606,"long":-72.5715},{"zip":"01038","city":"Hatfield","state":"MA","lat":42.3844,"long":-72.6167},{"zip":"01039","city":"Haydenville","state":"MA","lat":42.3818,"long":-72.7032},{"zip":"01050","city":"Huntington","state":"MA","lat":42.2653,"long":-72.8733},{"zip":"01053","city":"Leeds","state":"MA","lat":42.3543,"long":-72.7034},{"zip":"01059","city":"North Amherst","state":"MA","lat":42.4104,"long":-72.5309},{"zip":"01060","city":"Northampton","state":"MA","lat":42.3223,"long":-72.6313},{"zip":"01061","city":"Northampton","state":"MA","lat":42.3696,"long":-72.636},{"zip":"01062","city":"Florence","state":"MA","lat":42.3219,"long":-72.6928},{"zip":"01063","city":"Northampton","state":"MA","lat":42.3179,"long":-72.6402},{"zip":"01066","city":"North Hatfield","state":"MA","lat":42.4067,"long":-72.6339},{"zip":"01070","city":"Plainfield","state":"MA","lat":42.5144,"long":-72.9183},{"zip":"01073","city":"Southampton","state":"MA","lat":42.2247,"long":-72.7194},{"zip":"01075","city":"South Hadley","state":"MA","lat":42.2375,"long":-72.5811},{"zip":"01082","city":"Ware","state":"MA","lat":42.2618,"long":-72.2583},{"zip":"01084","city":"West Chesterfield","state":"MA","lat":42.3903,"long":-72.8709},{"zip":"01088","city":"West Hatfield","state":"MA","lat":42.3906,"long":-72.6469},{"zip":"01096","city":"Williamsburg","state":"MA","lat":42.4085,"long":-72.778},{"zip":"01098","city":"Worthington","state":"MA","lat":42.3843,"long":-72.9314},{"zip":"01243","city":"Middlefield","state":"MA","lat":42.3561,"long":-73.0104},{"zip":"01431","city":"Ashby","state":"MA","lat":42.6745,"long":-71.8174},{"zip":"01432","city":"Ayer","state":"MA","lat":42.5591,"long":-71.5788},{"zip":"01450","city":"Groton","state":"MA","lat":42.6124,"long":-71.5584},{"zip":"01460","city":"Littleton","state":"MA","lat":42.5401,"long":-71.4877},{"zip":"01463","city":"Pepperell","state":"MA","lat":42.6689,"long":-71.5934},{"zip":"01464","city":"Shirley","state":"MA","lat":42.5734,"long":-71.6483},{"zip":"01469","city":"Townsend","state":"MA","lat":42.6525,"long":-71.6896},{"zip":"01470","city":"Groton","state":"MA","lat":42.6112,"long":-71.5745},{"zip":"01471","city":"Groton","state":"MA","lat":42.6112,"long":-71.5745},{"zip":"01472","city":"West Groton","state":"MA","lat":42.6043,"long":-71.6273},{"zip":"01474","city":"West Townsend","state":"MA","lat":42.6678,"long":-71.7522},{"zip":"01701","city":"Framingham","state":"MA","lat":42.3007,"long":-71.4255},{"zip":"01702","city":"Framingham","state":"MA","lat":42.2822,"long":-71.4339},{"zip":"01703","city":"Framingham","state":"MA","lat":42.4464,"long":-71.4594},{"zip":"01704","city":"Framingham","state":"MA","lat":42.4464,"long":-71.4594},{"zip":"01705","city":"Framingham","state":"MA","lat":42.4464,"long":-71.4594},{"zip":"01718","city":"Acton","state":"MA","lat":42.4851,"long":-71.4328},{"zip":"01719","city":"Boxborough","state":"MA","lat":42.4884,"long":-71.5178},{"zip":"01720","city":"Acton","state":"MA","lat":42.4751,"long":-71.4483},{"zip":"01721","city":"Ashland","state":"MA","lat":42.2539,"long":-71.4583},{"zip":"01730","city":"Bedford","state":"MA","lat":42.4843,"long":-71.2768},{"zip":"01731","city":"Hanscom Afb","state":"MA","lat":42.4567,"long":-71.2795},{"zip":"01741","city":"Carlisle","state":"MA","lat":42.5286,"long":-71.3519},{"zip":"01742","city":"Concord","state":"MA","lat":42.4567,"long":-71.3747},{"zip":"01746","city":"Holliston","state":"MA","lat":42.2026,"long":-71.4361},{"zip":"01748","city":"Hopkinton","state":"MA","lat":42.219,"long":-71.5302},{"zip":"01749","city":"Hudson","state":"MA","lat":42.3918,"long":-71.5609},{"zip":"01752","city":"Marlborough","state":"MA","lat":42.3509,"long":-71.5434},{"zip":"01754","city":"Maynard","state":"MA","lat":42.4321,"long":-71.455},{"zip":"01760","city":"Natick","state":"MA","lat":42.2875,"long":-71.3574},{"zip":"01770","city":"Sherborn","state":"MA","lat":42.2331,"long":-71.3787},{"zip":"01773","city":"Lincoln","state":"MA","lat":42.4217,"long":-71.3137},{"zip":"01775","city":"Stow","state":"MA","lat":42.4308,"long":-71.515},{"zip":"01776","city":"Sudbury","state":"MA","lat":42.3837,"long":-71.4282},{"zip":"01778","city":"Wayland","state":"MA","lat":42.3486,"long":-71.3588},{"zip":"01784","city":"Woodville","state":"MA","lat":42.2376,"long":-71.562},{"zip":"01801","city":"Woburn","state":"MA","lat":42.4829,"long":-71.1574},{"zip":"01803","city":"Burlington","state":"MA","lat":42.5089,"long":-71.2004},{"zip":"01805","city":"Burlington","state":"MA","lat":42.5048,"long":-71.1956},{"zip":"01813","city":"Woburn","state":"MA","lat":42.4793,"long":-71.1523},{"zip":"01815","city":"Woburn","state":"MA","lat":42.4793,"long":-71.1523},{"zip":"01821","city":"Billerica","state":"MA","lat":42.5519,"long":-71.2518},{"zip":"01822","city":"Billerica","state":"MA","lat":42.5584,"long":-71.2689},{"zip":"01824","city":"Chelmsford","state":"MA","lat":42.5911,"long":-71.3556},{"zip":"01826","city":"Dracut","state":"MA","lat":42.6764,"long":-71.3186},{"zip":"01827","city":"Dunstable","state":"MA","lat":42.6739,"long":-71.4952},{"zip":"01850","city":"Lowell","state":"MA","lat":42.656,"long":-71.3051},{"zip":"01851","city":"Lowell","state":"MA","lat":42.6315,"long":-71.3329},{"zip":"01852","city":"Lowell","state":"MA","lat":42.6344,"long":-71.2983},{"zip":"01853","city":"Lowell","state":"MA","lat":42.6334,"long":-71.3162},{"zip":"01854","city":"Lowell","state":"MA","lat":42.6493,"long":-71.3355},{"zip":"01862","city":"North Billerica","state":"MA","lat":42.5757,"long":-71.2902},{"zip":"01863","city":"North Chelmsford","state":"MA","lat":42.6347,"long":-71.3908},{"zip":"01864","city":"North Reading","state":"MA","lat":42.5819,"long":-71.0947},{"zip":"01865","city":"Nutting Lake","state":"MA","lat":42.5379,"long":-71.2689},{"zip":"01866","city":"Pinehurst","state":"MA","lat":42.5293,"long":-71.2281},{"zip":"01867","city":"Reading","state":"MA","lat":42.528,"long":-71.109},{"zip":"01876","city":"Tewksbury","state":"MA","lat":42.6028,"long":-71.2232},{"zip":"01879","city":"Tyngsboro","state":"MA","lat":42.6724,"long":-71.4158},{"zip":"01880","city":"Wakefield","state":"MA","lat":42.5009,"long":-71.0685},{"zip":"01886","city":"Westford","state":"MA","lat":42.5864,"long":-71.4401},{"zip":"01887","city":"Wilmington","state":"MA","lat":42.5581,"long":-71.1723},{"zip":"01888","city":"Woburn","state":"MA","lat":42.4793,"long":-71.1523},{"zip":"01889","city":"North Reading","state":"MA","lat":42.5716,"long":-71.1096},{"zip":"01890","city":"Winchester","state":"MA","lat":42.453,"long":-71.1441},{"zip":"01005","city":"Barre","state":"MA","lat":42.4097,"long":-72.1084},{"zip":"01031","city":"Gilbertville","state":"MA","lat":42.3322,"long":-72.1986},{"zip":"01037","city":"Hardwick","state":"MA","lat":42.3479,"long":-72.2253},{"zip":"01068","city":"Oakham","state":"MA","lat":42.348,"long":-72.0513},{"zip":"01074","city":"South Barre","state":"MA","lat":42.3854,"long":-72.0954},{"zip":"01083","city":"Warren","state":"MA","lat":42.204,"long":-72.1994},{"zip":"01092","city":"West Warren","state":"MA","lat":42.2029,"long":-72.229},{"zip":"01094","city":"Wheelwright","state":"MA","lat":42.3582,"long":-72.1408},{"zip":"01331","city":"Athol","state":"MA","lat":42.5959,"long":-72.2267},{"zip":"01366","city":"Petersham","state":"MA","lat":42.4898,"long":-72.1893},{"zip":"01368","city":"Royalston","state":"MA","lat":42.6722,"long":-72.1964},{"zip":"01420","city":"Fitchburg","state":"MA","lat":42.5796,"long":-71.8031},{"zip":"01430","city":"Ashburnham","state":"MA","lat":42.6496,"long":-71.9267},{"zip":"01434","city":"Devens","state":"MA","lat":42.5385,"long":-71.6115},{"zip":"01436","city":"Baldwinville","state":"MA","lat":42.5936,"long":-72.0646},{"zip":"01438","city":"East Templeton","state":"MA","lat":42.5631,"long":-72.037},{"zip":"01440","city":"Gardner","state":"MA","lat":42.574,"long":-71.9898},{"zip":"01441","city":"Westminster","state":"MA","lat":42.5459,"long":-71.9106},{"zip":"01451","city":"Harvard","state":"MA","lat":42.4986,"long":-71.5753},{"zip":"01452","city":"Hubbardston","state":"MA","lat":42.4865,"long":-72.0012},{"zip":"01453","city":"Leominster","state":"MA","lat":42.5274,"long":-71.7563},{"zip":"01462","city":"Lunenburg","state":"MA","lat":42.5884,"long":-71.7266},{"zip":"01467","city":"Still River","state":"MA","lat":42.4871,"long":-71.6131},{"zip":"01468","city":"Templeton","state":"MA","lat":42.546,"long":-72.065},{"zip":"01473","city":"Westminster","state":"MA","lat":42.5483,"long":-71.9096},{"zip":"01475","city":"Winchendon","state":"MA","lat":42.6789,"long":-72.0475},{"zip":"01501","city":"Auburn","state":"MA","lat":42.2055,"long":-71.8391},{"zip":"01503","city":"Berlin","state":"MA","lat":42.3844,"long":-71.6356},{"zip":"01504","city":"Blackstone","state":"MA","lat":42.0287,"long":-71.5269},{"zip":"01505","city":"Boylston","state":"MA","lat":42.3377,"long":-71.731},{"zip":"01506","city":"Brookfield","state":"MA","lat":42.1991,"long":-72.0989},{"zip":"01507","city":"Charlton","state":"MA","lat":42.1379,"long":-71.9664},{"zip":"01508","city":"Charlton City","state":"MA","lat":42.1459,"long":-71.9884},{"zip":"01509","city":"Charlton Depot","state":"MA","lat":42.1731,"long":-71.9787},{"zip":"01510","city":"Clinton","state":"MA","lat":42.4181,"long":-71.6828},{"zip":"01515","city":"East Brookfield","state":"MA","lat":42.2193,"long":-72.0481},{"zip":"01516","city":"Douglas","state":"MA","lat":42.0528,"long":-71.7509},{"zip":"01518","city":"Fiskdale","state":"MA","lat":42.1228,"long":-72.1178},{"zip":"01519","city":"Grafton","state":"MA","lat":42.2004,"long":-71.6868},{"zip":"01520","city":"Holden","state":"MA","lat":42.342,"long":-71.8414},{"zip":"01522","city":"Jefferson","state":"MA","lat":42.3755,"long":-71.8706},{"zip":"01523","city":"Lancaster","state":"MA","lat":42.451,"long":-71.6868},{"zip":"01524","city":"Leicester","state":"MA","lat":42.237,"long":-71.9188},{"zip":"01525","city":"Linwood","state":"MA","lat":42.0973,"long":-71.6448},{"zip":"01526","city":"Manchaug","state":"MA","lat":42.0945,"long":-71.7476},{"zip":"01527","city":"Millbury","state":"MA","lat":42.1968,"long":-71.7644},{"zip":"01529","city":"Millville","state":"MA","lat":42.0331,"long":-71.5798},{"zip":"01531","city":"New Braintree","state":"MA","lat":42.3198,"long":-72.1306},{"zip":"01532","city":"Northborough","state":"MA","lat":42.3182,"long":-71.6464},{"zip":"01534","city":"Northbridge","state":"MA","lat":42.1494,"long":-71.6564},{"zip":"01535","city":"North Brookfield","state":"MA","lat":42.2665,"long":-72.0821},{"zip":"01536","city":"North Grafton","state":"MA","lat":42.2297,"long":-71.7037},{"zip":"01537","city":"North Oxford","state":"MA","lat":42.1655,"long":-71.886},{"zip":"01538","city":"North Uxbridge","state":"MA","lat":42.0876,"long":-71.6412},{"zip":"01540","city":"Oxford","state":"MA","lat":42.1129,"long":-71.8687},{"zip":"01541","city":"Princeton","state":"MA","lat":42.4508,"long":-71.8762},{"zip":"01542","city":"Rochdale","state":"MA","lat":42.1997,"long":-71.9069},{"zip":"01543","city":"Rutland","state":"MA","lat":42.3762,"long":-71.949},{"zip":"01545","city":"Shrewsbury","state":"MA","lat":42.2848,"long":-71.7205},{"zip":"01546","city":"Shrewsbury","state":"MA","lat":42.3648,"long":-71.8969},{"zip":"01550","city":"Southbridge","state":"MA","lat":42.075,"long":-72.0353},{"zip":"01560","city":"South Grafton","state":"MA","lat":42.176,"long":-71.6927},{"zip":"01561","city":"South Lancaster","state":"MA","lat":42.4435,"long":-71.6861},{"zip":"01562","city":"Spencer","state":"MA","lat":42.2441,"long":-71.9906},{"zip":"01564","city":"Sterling","state":"MA","lat":42.4354,"long":-71.7752},{"zip":"01566","city":"Sturbridge","state":"MA","lat":42.1126,"long":-72.0842},{"zip":"01568","city":"Upton","state":"MA","lat":42.1756,"long":-71.6032},{"zip":"01569","city":"Uxbridge","state":"MA","lat":42.0744,"long":-71.6329},{"zip":"01570","city":"Webster","state":"MA","lat":42.0521,"long":-71.8486},{"zip":"01571","city":"Dudley","state":"MA","lat":42.0489,"long":-71.8932},{"zip":"01581","city":"Westborough","state":"MA","lat":42.2679,"long":-71.6176},{"zip":"01583","city":"West Boylston","state":"MA","lat":42.3584,"long":-71.7838},{"zip":"01585","city":"West Brookfield","state":"MA","lat":42.2441,"long":-72.1511},{"zip":"01586","city":"West Millbury","state":"MA","lat":42.1712,"long":-71.8037},{"zip":"01588","city":"Whitinsville","state":"MA","lat":42.1153,"long":-71.6644},{"zip":"01590","city":"Sutton","state":"MA","lat":42.1266,"long":-71.7552},{"zip":"01601","city":"Worcester","state":"MA","lat":42.2626,"long":-71.8023},{"zip":"01602","city":"Worcester","state":"MA","lat":42.2703,"long":-71.8417},{"zip":"01603","city":"Worcester","state":"MA","lat":42.245,"long":-71.838},{"zip":"01604","city":"Worcester","state":"MA","lat":42.2541,"long":-71.7746},{"zip":"01605","city":"Worcester","state":"MA","lat":42.2894,"long":-71.7888},{"zip":"01606","city":"Worcester","state":"MA","lat":42.311,"long":-71.7958},{"zip":"01607","city":"Worcester","state":"MA","lat":42.2303,"long":-71.7938},{"zip":"01608","city":"Worcester","state":"MA","lat":42.2624,"long":-71.8003},{"zip":"01609","city":"Worcester","state":"MA","lat":42.2826,"long":-71.8277},{"zip":"01610","city":"Worcester","state":"MA","lat":42.2492,"long":-71.8108},{"zip":"01611","city":"Cherry Valley","state":"MA","lat":42.2373,"long":-71.875},{"zip":"01612","city":"Paxton","state":"MA","lat":42.3066,"long":-71.9202},{"zip":"01613","city":"Worcester","state":"MA","lat":42.2933,"long":-71.802},{"zip":"01614","city":"Worcester","state":"MA","lat":42.2626,"long":-71.8023},{"zip":"01615","city":"Worcester","state":"MA","lat":42.2626,"long":-71.8023},{"zip":"01653","city":"Worcester","state":"MA","lat":42.3648,"long":-71.8969},{"zip":"01655","city":"Worcester","state":"MA","lat":42.3648,"long":-71.8969},{"zip":"01740","city":"Bolton","state":"MA","lat":42.4365,"long":-71.6076},{"zip":"01745","city":"Fayville","state":"MA","lat":42.2934,"long":-71.5028},{"zip":"01747","city":"Hopedale","state":"MA","lat":42.1268,"long":-71.5376},{"zip":"01756","city":"Mendon","state":"MA","lat":42.0967,"long":-71.5499},{"zip":"01757","city":"Milford","state":"MA","lat":42.1511,"long":-71.5274},{"zip":"01772","city":"Southborough","state":"MA","lat":42.2939,"long":-71.532}]
