[{"zip":"01001","city":"Agawam","state":"MA","lat":42.0702,"long":-72.6227},{"zip":"01008","city":"Blandford","state":"MA","lat":42.1829,"long":-72.9361},{"zip":"01009","city":"Bondsville","state":"MA","lat":42.2061,"long":-72.3405},{"zip":"01002","city":"Amherst","state":"MA","lat":42.3671,"long":-72.4646},{"zip":"01003","city":"Amherst","state":"MA","lat":42.3919,"long":-72.5248},{"zip":"01004","city":"Amherst","state":"MA","lat":42.3845,"long":-72.5132},{"zip":"01007","city":"Belchertown","state":"MA","lat":42.2751,"long":-72.411},{"zip":"01005","city":"Barre","state":"MA","lat":42.4097,"long":-72.1084}]
