[{"zip":"01080","city":"Three Rivers","state":"MA","lat":42.1819,"long":-72.3624},{"zip":"01081","city":"Wales","state":"MA","lat":42.0627,"long":-72.2046},{"zip":"01085","city":"Westfield","state":"MA","lat":42.1251,"long":-72.7495},{"zip":"01086","city":"Westfield","state":"MA","lat":42.1734,"long":-72.848},{"zip":"01089","city":"West Springfield","state":"MA","lat":42.1151,"long":-72.6411},{"zip":"01082","city":"Ware","state":"MA","lat":42.2618,"long":-72.2583},{"zip":"01084","city":"West Chesterfield","state":"MA","lat":42.3903,"long":-72.8709},{"zip":"01088","city":"West Hatfield","state":"MA","lat":42.3906,"long":-72.6469},{"zip":"01083","city":"Warren","state":"MA","lat":42.204,"long":-72.1994}]
