[{"zip":"01220","city":"Adams","state":"MA","lat":42.6223,"long":-73.1172},{"zip":"01222","city":"Ashley Falls","state":"MA","lat":42.0596,"long":-73.3202},{"zip":"01223","city":"Becket","state":"MA","lat":42.3594,"long":-73.1203},{"zip":"01224","city":"Berkshire","state":"MA","lat":42.5126,"long":-73.1929},{"zip":"01225","city":"Cheshire","state":"MA","lat":42.5611,"long":-73.158},{"zip":"01226","city":"Dalton","state":"MA","lat":42.475,"long":-73.1603},{"zip":"01227","city":"Dalton","state":"MA","lat":42.4737,"long":-73.1662},{"zip":"01229","city":"Glendale","state":"MA","lat":42.2793,"long":-73.3435}]
