[{"zip":"01581","city":"Westborough","state":"MA","lat":42.2679,"long":-71.6176},{"zip":"01583","city":"West Boylston","state":"MA","lat":42.3584,"long":-71.7838},{"zip":"01585","city":"West Brookfield","state":"MA","lat":42.2441,"long":-72.1511},{"zip":"01586","city":"West Millbury","state":"MA","lat":42.1712,"long":-71.8037},{"zip":"01588","city":"Whitinsville","state":"MA","lat":42.1153,"long":-71.6644}]
