[{"zip":"01885","city":"West Boxford","state":"MA","lat":42.707,"long":-71.0639},{"zip":"01880","city":"Wakefield","state":"MA","lat":42.5009,"long":-71.0685},{"zip":"01886","city":"Westford","state":"MA","lat":42.5864,"long":-71.4401},{"zip":"01887","city":"Wilmington","state":"MA","lat":42.5581,"long":-71.1723},{"zip":"01888","city":"Woburn","state":"MA","lat":42.4793,"long":-71.1523},{"zip":"01889","city":"North Reading","state":"MA","lat":42.5716,"long":-71.1096}]
