[{"zip":"02052","city":"Medfield","state":"MA","lat":42.1845,"long":-71.3048},{"zip":"02053","city":"Medway","state":"MA","lat":42.1514,"long":-71.4217},{"zip":"02054","city":"Millis","state":"MA","lat":42.1669,"long":-71.3607},{"zip":"02056","city":"Norfolk","state":"MA","lat":42.1177,"long":-71.3269},{"zip":"02050","city":"Marshfield","state":"MA","lat":42.1062,"long":-70.6993},{"zip":"02051","city":"Marshfield Hills","state":"MA","lat":42.1512,"long":-70.7341},{"zip":"02055","city":"Minot","state":"MA","lat":42.2404,"long":-70.762},{"zip":"02059","city":"North Marshfield","state":"MA","lat":42.1432,"long":-70.7703}]
