[{"zip":"02120","city":"Roxbury Crossing","state":"MA","lat":42.3307,"long":-71.0912},{"zip":"02121","city":"Dorchester","state":"MA","lat":42.2973,"long":-71.0745},{"zip":"02122","city":"Dorchester","state":"MA","lat":42.2973,"long":-71.0745},{"zip":"02123","city":"Boston","state":"MA","lat":42.3389,"long":-70.9196},{"zip":"02124","city":"Dorchester Center","state":"MA","lat":42.2918,"long":-71.0717},{"zip":"02125","city":"Dorchester","state":"MA","lat":42.2973,"long":-71.0745},{"zip":"02126","city":"Mattapan","state":"MA","lat":42.2739,"long":-71.0939},{"zip":"02127","city":"Boston","state":"MA","lat":42.3347,"long":-71.0375},{"zip":"02128","city":"Boston","state":"MA","lat":42.3642,"long":-71.0257},{"zip":"02129","city":"Charlestown","state":"MA","lat":42.3778,"long":-71.0627}]
