[{"zip":"02343","city":"Holbrook","state":"MA","lat":42.1464,"long":-71.0083},{"zip":"02340","city":"Hanover","state":"MA","lat":42.1137,"long":-70.8161},{"zip":"02341","city":"Hanson","state":"MA","lat":42.0616,"long":-70.8651},{"zip":"02344","city":"Middleboro","state":"MA","lat":41.8932,"long":-70.9112},{"zip":"02345","city":"Manomet","state":"MA","lat":41.8882,"long":-70.581},{"zip":"02346","city":"Middleboro","state":"MA","lat":41.8884,"long":-70.893},{"zip":"02347","city":"Lakeville","state":"MA","lat":41.8374,"long":-70.9582},{"zip":"02348","city":"Lakeville","state":"MA","lat":41.8459,"long":-70.9495},{"zip":"02349","city":"Middleboro","state":"MA","lat":41.8932,"long":-70.9112}]
