[{"zip":"02650","city":"North Chatham","state":"MA","lat":41.703,"long":-69.9666},{"zip":"02651","city":"North Eastham","state":"MA","lat":41.8243,"long":-69.9818},{"zip":"02652","city":"North Truro","state":"MA","lat":42.0338,"long":-70.0875},{"zip":"02653","city":"Orleans","state":"MA","lat":41.7792,"long":-69.9822},{"zip":"02655","city":"Osterville","state":"MA","lat":41.63,"long":-70.3837},{"zip":"02657","city":"Provincetown","state":"MA","lat":42.0534,"long":-70.1865},{"zip":"02659","city":"South Chatham","state":"MA","lat":41.6801,"long":-70.0241}]
