[{"zip":"02835","city":"Jamestown","state":"RI","lat":41.5164,"long":-71.3761},{"zip":"02837","city":"Little Compton","state":"RI","lat":41.522,"long":-71.1612},{"zip":"02830","city":"Harrisville","state":"RI","lat":41.9764,"long":-71.6534},{"zip":"02831","city":"Hope","state":"RI","lat":41.7516,"long":-71.5612},{"zip":"02838","city":"Manville","state":"RI","lat":41.9689,"long":-71.4741},{"zip":"02839","city":"Mapleville","state":"RI","lat":41.9417,"long":-71.6376},{"zip":"02832","city":"Hope Valley","state":"RI","lat":41.5096,"long":-71.7339},{"zip":"02833","city":"Hopkinton","state":"RI","lat":41.4751,"long":-71.7726},{"zip":"02836","city":"Kenyon","state":"RI","lat":41.4474,"long":-71.6204}]
