[{"zip":"02893","city":"West Warwick","state":"RI","lat":41.7004,"long":-71.5183},{"zip":"02895","city":"Woonsocket","state":"RI","lat":41.9846,"long":-71.5194},{"zip":"02896","city":"North Smithfield","state":"RI","lat":41.9724,"long":-71.5508},{"zip":"02891","city":"Westerly","state":"RI","lat":41.3691,"long":-71.8126},{"zip":"02892","city":"West Kingston","state":"RI","lat":41.5058,"long":-71.6211},{"zip":"02894","city":"Wood River Junction","state":"RI","lat":41.45,"long":-71.7074},{"zip":"02898","city":"Wyoming","state":"RI","lat":41.5041,"long":-71.663}]
