[{"zip":"03070","city":"New Boston","state":"NH","lat":42.9722,"long":-71.6864},{"zip":"03071","city":"New Ipswich","state":"NH","lat":42.7511,"long":-71.8703},{"zip":"03076","city":"Pelham","state":"NH","lat":42.7288,"long":-71.3046},{"zip":"03073","city":"North Salem","state":"NH","lat":42.837,"long":-71.2206},{"zip":"03077","city":"Raymond","state":"NH","lat":43.0325,"long":-71.1912},{"zip":"03079","city":"Salem","state":"NH","lat":42.7846,"long":-71.2176}]
