[{"zip":"03246","city":"Laconia","state":"NH","lat":43.5727,"long":-71.4781},{"zip":"03247","city":"Laconia","state":"NH","lat":43.589,"long":-71.4455},{"zip":"03249","city":"Gilford","state":"NH","lat":43.5475,"long":-71.4072},{"zip":"03240","city":"Grafton","state":"NH","lat":43.5727,"long":-71.9634},{"zip":"03241","city":"Hebron","state":"NH","lat":43.7186,"long":-71.827},{"zip":"03245","city":"Holderness","state":"NH","lat":43.7378,"long":-71.6044},{"zip":"03244","city":"Hillsborough","state":"NH","lat":43.1141,"long":-71.8992},{"zip":"03242","city":"Henniker","state":"NH","lat":43.1791,"long":-71.8159},{"zip":"03243","city":"Hill","state":"NH","lat":43.5274,"long":-71.7292}]
