[{"zip":"03252","city":"Lochmere","state":"NH","lat":43.4686,"long":-71.5371},{"zip":"03253","city":"Meredith","state":"NH","lat":43.6311,"long":-71.4997},{"zip":"03256","city":"New Hampton","state":"NH","lat":43.6184,"long":-71.6435},{"zip":"03254","city":"Moultonborough","state":"NH","lat":43.7281,"long":-71.3922},{"zip":"03259","city":"North Sandwich","state":"NH","lat":43.8452,"long":-71.385},{"zip":"03251","city":"Lincoln","state":"NH","lat":44.0582,"long":-71.6727},{"zip":"03258","city":"Chichester","state":"NH","lat":43.244,"long":-71.4105},{"zip":"03255","city":"Newbury","state":"NH","lat":43.3217,"long":-72.0118},{"zip":"03257","city":"New London","state":"NH","lat":43.4145,"long":-71.9857}]
