[{"zip":"03581","city":"Gorham","state":"NH","lat":44.4048,"long":-71.1548},{"zip":"03582","city":"Groveton","state":"NH","lat":44.5984,"long":-71.5064},{"zip":"03583","city":"Jefferson","state":"NH","lat":44.3999,"long":-71.4518},{"zip":"03584","city":"Lancaster","state":"NH","lat":44.4921,"long":-71.5591},{"zip":"03588","city":"Milan","state":"NH","lat":44.587,"long":-71.181},{"zip":"03589","city":"Mount Washington","state":"NH","lat":44.6956,"long":-71.3874},{"zip":"03580","city":"Franconia","state":"NH","lat":44.2053,"long":-71.7518},{"zip":"03585","city":"Lisbon","state":"NH","lat":44.2148,"long":-71.8966},{"zip":"03586","city":"Sugar Hill","state":"NH","lat":44.2203,"long":-71.7964}]
