[{"zip":"03602","city":"Alstead","state":"NH","lat":43.1265,"long":-72.3281},{"zip":"03604","city":"Drewsville","state":"NH","lat":43.1281,"long":-72.392},{"zip":"03608","city":"Walpole","state":"NH","lat":43.0765,"long":-72.4155},{"zip":"03609","city":"North Walpole","state":"NH","lat":43.1428,"long":-72.4483},{"zip":"03601","city":"Acworth","state":"NH","lat":43.196,"long":-72.3001},{"zip":"03603","city":"Charlestown","state":"NH","lat":43.2573,"long":-72.4064},{"zip":"03605","city":"Lempster","state":"NH","lat":43.2136,"long":-72.1968},{"zip":"03607","city":"South Acworth","state":"NH","lat":43.1956,"long":-72.2686}]
