[{"zip":"03780","city":"Pike","state":"NH","lat":44.0255,"long":-72.0096},{"zip":"03784","city":"West Lebanon","state":"NH","lat":43.644,"long":-72.3007},{"zip":"03785","city":"Woodsville","state":"NH","lat":44.1385,"long":-71.9892},{"zip":"03781","city":"Plainfield","state":"NH","lat":43.5519,"long":-72.2704},{"zip":"03782","city":"Sunapee","state":"NH","lat":43.3868,"long":-72.095}]
