[{"zip":"03826","city":"East Hampstead","state":"NH","lat":42.8877,"long":-71.128},{"zip":"03827","city":"East Kingston","state":"NH","lat":42.907,"long":-70.9876},{"zip":"03820","city":"Dover","state":"NH","lat":43.1888,"long":-70.8868},{"zip":"03821","city":"Dover","state":"NH","lat":43.1979,"long":-70.8737},{"zip":"03822","city":"Dover","state":"NH","lat":43.1979,"long":-70.8737},{"zip":"03823","city":"Madbury","state":"NH","lat":43.1729,"long":-70.9412},{"zip":"03824","city":"Durham","state":"NH","lat":43.1174,"long":-70.9197},{"zip":"03825","city":"Barrington","state":"NH","lat":43.2027,"long":-71.0377}]
