[{"zip":"03872","city":"Sanbornville","state":"NH","lat":43.5513,"long":-71.02},{"zip":"03875","city":"Silver Lake","state":"NH","lat":43.879,"long":-71.1905},{"zip":"03870","city":"Rye","state":"NH","lat":43.0095,"long":-70.7652},{"zip":"03871","city":"Rye Beach","state":"NH","lat":42.9806,"long":-70.7719},{"zip":"03873","city":"Sandown","state":"NH","lat":42.9308,"long":-71.1861},{"zip":"03874","city":"Seabrook","state":"NH","lat":42.8854,"long":-70.8646},{"zip":"03878","city":"Somersworth","state":"NH","lat":43.2525,"long":-70.8756}]
