[{"zip":"04263","city":"Leeds","state":"ME","lat":44.2834,"long":-70.1253},{"zip":"04266","city":"North Turner","state":"ME","lat":44.358,"long":-70.2558},{"zip":"04260","city":"New Gloucester","state":"ME","lat":43.9608,"long":-70.2974},{"zip":"04262","city":"North Jay","state":"ME","lat":44.5473,"long":-70.2381},{"zip":"04265","city":"North Monmouth","state":"ME","lat":44.2753,"long":-70.0367},{"zip":"04261","city":"Newry","state":"ME","lat":44.6895,"long":-71.0112},{"zip":"04267","city":"North Waterford","state":"ME","lat":44.2317,"long":-70.7687},{"zip":"04268","city":"Norway","state":"ME","lat":44.2127,"long":-70.5601}]
