[{"zip":"04420","city":"Castine","state":"ME","lat":44.413,"long":-68.798},{"zip":"04421","city":"Castine","state":"ME","lat":44.4156,"long":-68.7929},{"zip":"04422","city":"Charleston","state":"ME","lat":45.067,"long":-69.0869},{"zip":"04427","city":"Corinth","state":"ME","lat":44.9805,"long":-69.0109},{"zip":"04428","city":"Eddington","state":"ME","lat":44.7917,"long":-68.5777},{"zip":"04429","city":"Holden","state":"ME","lat":44.7208,"long":-68.6165},{"zip":"04426","city":"Dover Foxcroft","state":"ME","lat":45.1877,"long":-69.2045},{"zip":"04424","city":"Danforth","state":"ME","lat":45.6687,"long":-67.8688}]
