[{"zip":"04551","city":"Bremen","state":"ME","lat":44.0104,"long":-69.4402},{"zip":"04553","city":"Newcastle","state":"ME","lat":44.0499,"long":-69.5331},{"zip":"04554","city":"New Harbor","state":"ME","lat":43.8605,"long":-69.5079},{"zip":"04555","city":"Nobleboro","state":"ME","lat":44.0943,"long":-69.4828},{"zip":"04556","city":"Edgecomb","state":"ME","lat":43.9792,"long":-69.6197},{"zip":"04558","city":"Pemaquid","state":"ME","lat":43.8924,"long":-69.5289}]
