[{"zip":"04563","city":"Cushing","state":"ME","lat":43.9867,"long":-69.2721},{"zip":"04564","city":"Round Pond","state":"ME","lat":43.925,"long":-69.4662},{"zip":"04568","city":"South Bristol","state":"ME","lat":43.8677,"long":-69.5614},{"zip":"04562","city":"Phippsburg","state":"ME","lat":43.7688,"long":-69.815},{"zip":"04565","city":"Sebasco Estates","state":"ME","lat":43.7733,"long":-69.8635}]
