[{"zip":"04730","city":"Houlton","state":"ME","lat":46.1189,"long":-67.863},{"zip":"04732","city":"Ashland","state":"ME","lat":46.6184,"long":-68.3876},{"zip":"04733","city":"Benedicta","state":"ME","lat":45.8125,"long":-68.4089},{"zip":"04734","city":"Blaine","state":"ME","lat":46.5048,"long":-67.8686},{"zip":"04735","city":"Bridgewater","state":"ME","lat":46.4222,"long":-67.8415},{"zip":"04736","city":"Caribou","state":"ME","lat":46.8706,"long":-68.0204},{"zip":"04737","city":"Clayton Lake","state":"ME","lat":46.6109,"long":-69.5223},{"zip":"04738","city":"Crouseville","state":"ME","lat":46.755,"long":-68.0964},{"zip":"04739","city":"Eagle Lake","state":"ME","lat":47.01,"long":-68.691}]
