[{"zip":"04926","city":"China Village","state":"ME","lat":44.8526,"long":-69.502},{"zip":"04927","city":"Clinton","state":"ME","lat":44.644,"long":-69.5284},{"zip":"04928","city":"Corinna","state":"ME","lat":44.926,"long":-69.2323},{"zip":"04920","city":"Bingham","state":"ME","lat":45.0682,"long":-69.8857},{"zip":"04923","city":"Cambridge","state":"ME","lat":45.0513,"long":-69.4419},{"zip":"04924","city":"Canaan","state":"ME","lat":44.745,"long":-69.5498},{"zip":"04925","city":"Caratunk","state":"ME","lat":45.241,"long":-69.9386},{"zip":"04929","city":"Detroit","state":"ME","lat":44.7615,"long":-69.3227},{"zip":"04921","city":"Brooks","state":"ME","lat":44.5678,"long":-69.1404},{"zip":"04922","city":"Burnham","state":"ME","lat":44.6848,"long":-69.38}]
