[{"zip":"05042","city":"East Ryegate","state":"VT","lat":44.2275,"long":-72.0996},{"zip":"05046","city":"Groton","state":"VT","lat":44.2204,"long":-72.2175},{"zip":"05040","city":"East Corinth","state":"VT","lat":44.0619,"long":-72.2151},{"zip":"05041","city":"East Randolph","state":"VT","lat":43.9553,"long":-72.5487},{"zip":"05043","city":"East Thetford","state":"VT","lat":43.8073,"long":-72.2147},{"zip":"05045","city":"Fairlee","state":"VT","lat":43.901,"long":-72.1902},{"zip":"05047","city":"Hartford","state":"VT","lat":43.6721,"long":-72.3555},{"zip":"05048","city":"Hartland","state":"VT","lat":43.5708,"long":-72.4131},{"zip":"05049","city":"Hartland Four Corners","state":"VT","lat":43.5465,"long":-72.4245}]
