[{"zip":"05070","city":"South Strafford","state":"VT","lat":43.8282,"long":-72.37},{"zip":"05072","city":"Strafford","state":"VT","lat":43.8723,"long":-72.3636},{"zip":"05074","city":"Thetford","state":"VT","lat":43.996,"long":-72.4114},{"zip":"05075","city":"Thetford Center","state":"VT","lat":43.8149,"long":-72.2662},{"zip":"05076","city":"Topsham","state":"VT","lat":43.7982,"long":-72.4008},{"zip":"05077","city":"Tunbridge","state":"VT","lat":43.9169,"long":-72.4786},{"zip":"05079","city":"Vershire","state":"VT","lat":43.9618,"long":-72.319},{"zip":"05071","city":"South Woodstock","state":"VT","lat":43.5601,"long":-72.5384},{"zip":"05073","city":"Taftsville","state":"VT","lat":43.6309,"long":-72.4891}]
