[{"zip":"05469","city":"Monkton","state":"VT","lat":44.2404,"long":-73.1347},{"zip":"05461","city":"Hinesburg","state":"VT","lat":44.3346,"long":-73.098},{"zip":"05462","city":"Huntington","state":"VT","lat":44.3227,"long":-72.9964},{"zip":"05465","city":"Jericho","state":"VT","lat":44.459,"long":-72.9552},{"zip":"05466","city":"Jonesville","state":"VT","lat":44.3839,"long":-72.9376},{"zip":"05468","city":"Milton","state":"VT","lat":44.6483,"long":-73.1317},{"zip":"05460","city":"Highgate Springs","state":"VT","lat":44.9748,"long":-73.1052},{"zip":"05463","city":"Isle La Motte","state":"VT","lat":44.8781,"long":-73.3386},{"zip":"05464","city":"Jeffersonville","state":"VT","lat":44.6388,"long":-72.822}]
