[{"zip":"05760","city":"Orwell","state":"VT","lat":43.7837,"long":-73.2949},{"zip":"05766","city":"Ripton","state":"VT","lat":43.9929,"long":-73.0187},{"zip":"05769","city":"Salisbury","state":"VT","lat":43.9017,"long":-73.1008},{"zip":"05768","city":"Rupert","state":"VT","lat":43.2598,"long":-73.2229},{"zip":"05761","city":"Pawlet","state":"VT","lat":43.3587,"long":-73.1444},{"zip":"05762","city":"Pittsfield","state":"VT","lat":43.7723,"long":-72.8129},{"zip":"05763","city":"Pittsford","state":"VT","lat":43.7152,"long":-73.0135},{"zip":"05764","city":"Poultney","state":"VT","lat":43.5332,"long":-73.2253},{"zip":"05765","city":"Proctor","state":"VT","lat":43.658,"long":-73.0348},{"zip":"05767","city":"Rochester","state":"VT","lat":43.8804,"long":-72.8159}]
