[{"zip":"05770","city":"Shoreham","state":"VT","lat":43.8862,"long":-73.3054},{"zip":"05778","city":"Whiting","state":"VT","lat":43.894,"long":-73.203},{"zip":"05776","city":"West Rupert","state":"VT","lat":43.2636,"long":-73.1905},{"zip":"05773","city":"Wallingford","state":"VT","lat":43.4573,"long":-72.9877},{"zip":"05774","city":"Wells","state":"VT","lat":43.4305,"long":-73.2027},{"zip":"05775","city":"West Pawlet","state":"VT","lat":43.3667,"long":-73.2313},{"zip":"05777","city":"West Rutland","state":"VT","lat":43.5781,"long":-73.0424},{"zip":"05772","city":"Stockbridge","state":"VT","lat":43.7738,"long":-72.7814}]
