[{"zip":"05871","city":"West Burke","state":"VT","lat":44.6636,"long":-71.9572},{"zip":"05873","city":"West Danville","state":"VT","lat":44.4465,"long":-72.2198},{"zip":"05872","city":"West Charleston","state":"VT","lat":44.8729,"long":-72.0521},{"zip":"05874","city":"Westfield","state":"VT","lat":44.8825,"long":-72.4396},{"zip":"05875","city":"Barton","state":"VT","lat":44.7481,"long":-72.1762}]
