[{"zip":"06030","city":"Farmington","state":"CT","lat":41.7918,"long":-72.7188},{"zip":"06032","city":"Farmington","state":"CT","lat":41.7284,"long":-72.8415},{"zip":"06033","city":"Glastonbury","state":"CT","lat":41.7073,"long":-72.5727},{"zip":"06034","city":"Farmington","state":"CT","lat":41.7918,"long":-72.7188},{"zip":"06035","city":"Granby","state":"CT","lat":41.9602,"long":-72.7994},{"zip":"06037","city":"Berlin","state":"CT","lat":41.6215,"long":-72.7457},{"zip":"06031","city":"Falls Village","state":"CT","lat":41.9559,"long":-73.3632},{"zip":"06039","city":"Lakeville","state":"CT","lat":41.9516,"long":-73.4377}]
