[{"zip":"06090","city":"West Granby","state":"CT","lat":41.9556,"long":-72.862},{"zip":"06091","city":"West Hartland","state":"CT","lat":42.0076,"long":-72.9707},{"zip":"06092","city":"West Simsbury","state":"CT","lat":41.8718,"long":-72.8577},{"zip":"06093","city":"West Suffield","state":"CT","lat":42.0115,"long":-72.7362},{"zip":"06095","city":"Windsor","state":"CT","lat":41.8561,"long":-72.6639},{"zip":"06096","city":"Windsor Locks","state":"CT","lat":41.9261,"long":-72.6458},{"zip":"06094","city":"Winchester Center","state":"CT","lat":41.8963,"long":-73.1463},{"zip":"06098","city":"Winsted","state":"CT","lat":41.9252,"long":-73.0663}]
