[{"zip":"06784","city":"Sherman","state":"CT","lat":41.5714,"long":-73.4947},{"zip":"06781","city":"Pequabuck","state":"CT","lat":41.6699,"long":-72.9915},{"zip":"06782","city":"Plymouth","state":"CT","lat":41.6611,"long":-73.0449},{"zip":"06783","city":"Roxbury","state":"CT","lat":41.5509,"long":-73.2993},{"zip":"06785","city":"South Kent","state":"CT","lat":41.6951,"long":-73.469},{"zip":"06786","city":"Terryville","state":"CT","lat":41.6762,"long":-73.0092},{"zip":"06787","city":"Thomaston","state":"CT","lat":41.6786,"long":-73.0886}]
