[{"zip":"06870","city":"Old Greenwich","state":"CT","lat":41.0354,"long":-73.5673},{"zip":"06875","city":"Redding Center","state":"CT","lat":41.3089,"long":-73.3637},{"zip":"06876","city":"Redding Ridge","state":"CT","lat":41.314,"long":-73.3504},{"zip":"06877","city":"Ridgefield","state":"CT","lat":41.2977,"long":-73.4973},{"zip":"06878","city":"Riverside","state":"CT","lat":41.038,"long":-73.5811},{"zip":"06879","city":"Ridgefield","state":"CT","lat":41.2815,"long":-73.4982}]
