[{"zip":"07031","city":"North Arlington","state":"NJ","lat":40.7898,"long":-74.1343},{"zip":"07039","city":"Livingston","state":"NJ","lat":40.7896,"long":-74.3202},{"zip":"07030","city":"Hoboken","state":"NJ","lat":40.7445,"long":-74.0329},{"zip":"07032","city":"Kearny","state":"NJ","lat":40.7647,"long":-74.1471},{"zip":"07034","city":"Lake Hiawatha","state":"NJ","lat":40.8825,"long":-74.383},{"zip":"07035","city":"Lincoln Park","state":"NJ","lat":40.9208,"long":-74.2995},{"zip":"07033","city":"Kenilworth","state":"NJ","lat":40.6759,"long":-74.2944},{"zip":"07036","city":"Linden","state":"NJ","lat":40.6354,"long":-74.2556}]
