[{"zip":"07601","city":"Hackensack","state":"NJ","lat":40.8882,"long":-74.0503},{"zip":"07602","city":"Hackensack","state":"NJ","lat":40.8859,"long":-74.0435},{"zip":"07603","city":"Bogota","state":"NJ","lat":40.8744,"long":-74.0281},{"zip":"07604","city":"Hasbrouck Heights","state":"NJ","lat":40.8623,"long":-74.0756},{"zip":"07605","city":"Leonia","state":"NJ","lat":40.8629,"long":-73.9879},{"zip":"07606","city":"South Hackensack","state":"NJ","lat":40.8634,"long":-74.0456},{"zip":"07607","city":"Maywood","state":"NJ","lat":40.9024,"long":-74.0629},{"zip":"07608","city":"Teterboro","state":"NJ","lat":40.864,"long":-74.0556}]
