[{"zip":"07760","city":"Rumson","state":"NJ","lat":40.3707,"long":-74.0084},{"zip":"07762","city":"Spring Lake","state":"NJ","lat":40.1542,"long":-74.0379},{"zip":"07763","city":"Tennent","state":"NJ","lat":40.2796,"long":-74.3343},{"zip":"07764","city":"West Long Branch","state":"NJ","lat":40.2878,"long":-74.0162},{"zip":"07765","city":"Wickatunk","state":"NJ","lat":40.3501,"long":-74.2479}]
