[{"zip":"07870","city":"Schooleys Mountain","state":"NJ","lat":40.8104,"long":-74.8193},{"zip":"07876","city":"Succasunna","state":"NJ","lat":40.8539,"long":-74.6536},{"zip":"07878","city":"Mount Tabor","state":"NJ","lat":40.8711,"long":-74.4777},{"zip":"07871","city":"Sparta","state":"NJ","lat":41.0277,"long":-74.6407},{"zip":"07874","city":"Stanhope","state":"NJ","lat":40.9217,"long":-74.7004},{"zip":"07875","city":"Stillwater","state":"NJ","lat":41.0439,"long":-74.872},{"zip":"07877","city":"Swartswood","state":"NJ","lat":41.1029,"long":-74.8508},{"zip":"07879","city":"Tranquility","state":"NJ","lat":40.9559,"long":-74.7881}]
