[{"zip":"07979","city":"Pottersville","state":"NJ","lat":40.7026,"long":-74.7276},{"zip":"07970","city":"Mount Freedom","state":"NJ","lat":40.8055,"long":-74.5738},{"zip":"07976","city":"New Vernon","state":"NJ","lat":40.7347,"long":-74.4845},{"zip":"07977","city":"Peapack","state":"NJ","lat":40.7079,"long":-74.6541},{"zip":"07978","city":"Pluckemin","state":"NJ","lat":40.6425,"long":-74.6396},{"zip":"07974","city":"New Providence","state":"NJ","lat":40.7004,"long":-74.4023}]
