[{"zip":"08088","city":"Vincentown","state":"NJ","lat":39.8604,"long":-74.6693},{"zip":"08081","city":"Sicklerville","state":"NJ","lat":39.7354,"long":-74.9864},{"zip":"08083","city":"Somerdale","state":"NJ","lat":39.84,"long":-75.0309},{"zip":"08084","city":"Stratford","state":"NJ","lat":39.8288,"long":-75.0147},{"zip":"08089","city":"Waterford Works","state":"NJ","lat":39.7215,"long":-74.8609},{"zip":"08080","city":"Sewell","state":"NJ","lat":39.7473,"long":-75.0899},{"zip":"08085","city":"Swedesboro","state":"NJ","lat":39.7529,"long":-75.3362},{"zip":"08086","city":"Thorofare","state":"NJ","lat":39.8457,"long":-75.1943},{"zip":"08087","city":"Tuckerton","state":"NJ","lat":39.5881,"long":-74.3646}]
