[{"zip":"08201","city":"Absecon","state":"NJ","lat":39.4218,"long":-74.4949},{"zip":"08203","city":"Brigantine","state":"NJ","lat":39.4101,"long":-74.3646},{"zip":"08205","city":"Absecon","state":"NJ","lat":39.4745,"long":-74.4575},{"zip":"08213","city":"Cologne","state":"NJ","lat":39.5092,"long":-74.6086},{"zip":"08215","city":"Egg Harbor City","state":"NJ","lat":39.5331,"long":-74.6177},{"zip":"08217","city":"Elwood","state":"NJ","lat":39.5737,"long":-74.72},{"zip":"08220","city":"Leeds Point","state":"NJ","lat":39.4921,"long":-74.429},{"zip":"08221","city":"Linwood","state":"NJ","lat":39.3469,"long":-74.5807},{"zip":"08225","city":"Northfield","state":"NJ","lat":39.3703,"long":-74.5552},{"zip":"08231","city":"Oceanville","state":"NJ","lat":39.4712,"long":-74.4604},{"zip":"08232","city":"Pleasantville","state":"NJ","lat":39.3876,"long":-74.5149},{"zip":"08234","city":"Egg Harbor Township","state":"NJ","lat":39.3741,"long":-74.6118},{"zip":"08240","city":"Pomona","state":"NJ","lat":39.4877,"long":-74.5543},{"zip":"08241","city":"Port Republic","state":"NJ","lat":39.5272,"long":-74.4903},{"zip":"08244","city":"Somers Point","state":"NJ","lat":39.3223,"long":-74.6008},{"zip":"08224","city":"New Gretna","state":"NJ","lat":39.5923,"long":-74.451},{"zip":"08202","city":"Avalon","state":"NJ","lat":39.0951,"long":-74.7262},{"zip":"08204","city":"Cape May","state":"NJ","lat":38.9711,"long":-74.9214},{"zip":"08210","city":"Cape May Court House","state":"NJ","lat":39.1378,"long":-74.7806},{"zip":"08212","city":"Cape May Point","state":"NJ","lat":38.9372,"long":-74.9654},{"zip":"08214","city":"Dennisville","state":"NJ","lat":39.1932,"long":-74.8252},{"zip":"08218","city":"Goshen","state":"NJ","lat":39.1415,"long":-74.8529},{"zip":"08219","city":"Green Creek","state":"NJ","lat":39.0462,"long":-74.9013},{"zip":"08223","city":"Marmora","state":"NJ","lat":39.2586,"long":-74.6593},{"zip":"08226","city":"Ocean City","state":"NJ","lat":39.2709,"long":-74.5875},{"zip":"08230","city":"Ocean View","state":"NJ","lat":39.2154,"long":-74.7075},{"zip":"08242","city":"Rio Grande","state":"NJ","lat":39.0196,"long":-74.8756},{"zip":"08243","city":"Sea Isle City","state":"NJ","lat":39.154,"long":-74.7005},{"zip":"08245","city":"South Dennis","state":"NJ","lat":39.1,"long":-74.8487},{"zip":"08246","city":"South Seaville","state":"NJ","lat":39.0565,"long":-74.8166},{"zip":"08247","city":"Stone Harbor","state":"NJ","lat":39.0533,"long":-74.762},{"zip":"08248","city":"Strathmere","state":"NJ","lat":39.1992,"long":-74.6554},{"zip":"08250","city":"Tuckahoe","state":"NJ","lat":39.2901,"long":-74.7538},{"zip":"08251","city":"Villas","state":"NJ","lat":39.0219,"long":-74.9354},{"zip":"08252","city":"Whitesboro","state":"NJ","lat":39.0421,"long":-74.8618},{"zip":"08260","city":"Wildwood","state":"NJ","lat":38.9949,"long":-74.838},{"zip":"08270","city":"Woodbine","state":"NJ","lat":39.2716,"long":-74.7968}]
