[{"zip":"08340","city":"Milmay","state":"NJ","lat":39.4451,"long":-74.8667},{"zip":"08341","city":"Minotola","state":"NJ","lat":39.5155,"long":-74.9467},{"zip":"08342","city":"Mizpah","state":"NJ","lat":39.5021,"long":-74.8335},{"zip":"08346","city":"Newtonville","state":"NJ","lat":39.5645,"long":-74.859},{"zip":"08345","city":"Newport","state":"NJ","lat":39.2832,"long":-75.1716},{"zip":"08348","city":"Port Elizabeth","state":"NJ","lat":39.3131,"long":-74.9807},{"zip":"08349","city":"Port Norris","state":"NJ","lat":39.2563,"long":-75.0506},{"zip":"08343","city":"Monroeville","state":"NJ","lat":39.6442,"long":-75.1568},{"zip":"08344","city":"Newfield","state":"NJ","lat":39.5553,"long":-75.0276},{"zip":"08347","city":"Norma","state":"NJ","lat":39.4998,"long":-75.082}]
