[{"zip":"08511","city":"Cookstown","state":"NJ","lat":40.0481,"long":-74.5595},{"zip":"08515","city":"Chesterfield","state":"NJ","lat":40.1151,"long":-74.6393},{"zip":"08518","city":"Florence","state":"NJ","lat":40.118,"long":-74.8055},{"zip":"08512","city":"Cranbury","state":"NJ","lat":40.3039,"long":-74.5065},{"zip":"08510","city":"Millstone Township","state":"NJ","lat":40.147,"long":-74.609},{"zip":"08514","city":"Cream Ridge","state":"NJ","lat":40.1399,"long":-74.465}]
