[{"zip":"08833","city":"Lebanon","state":"NJ","lat":40.6466,"long":-74.829},{"zip":"08834","city":"Little York","state":"NJ","lat":40.5637,"long":-74.9494},{"zip":"08830","city":"Iselin","state":"NJ","lat":40.5716,"long":-74.3167},{"zip":"08831","city":"Monroe Township","state":"NJ","lat":40.5723,"long":-74.5855},{"zip":"08832","city":"Keasbey","state":"NJ","lat":40.5192,"long":-74.3021},{"zip":"08837","city":"Edison","state":"NJ","lat":40.5325,"long":-74.3375},{"zip":"08835","city":"Manville","state":"NJ","lat":40.5399,"long":-74.5934},{"zip":"08836","city":"Martinsville","state":"NJ","lat":40.6,"long":-74.5572}]
