[{"zip":"08870","city":"Readington","state":"NJ","lat":40.5687,"long":-74.7377},{"zip":"08871","city":"Sayreville","state":"NJ","lat":40.43,"long":-74.4173},{"zip":"08872","city":"Sayreville","state":"NJ","lat":40.46,"long":-74.3478},{"zip":"08879","city":"South Amboy","state":"NJ","lat":40.464,"long":-74.2742},{"zip":"08873","city":"Somerset","state":"NJ","lat":40.5007,"long":-74.5013},{"zip":"08875","city":"Somerset","state":"NJ","lat":40.4976,"long":-74.4885},{"zip":"08876","city":"Somerville","state":"NJ","lat":40.588,"long":-74.6874}]
