[{"zip":"10509","city":"Brewster","state":"NY","lat":41.4097,"long":-73.5992},{"zip":"10501","city":"Amawalk","state":"NY","lat":41.2946,"long":-73.7611},{"zip":"10502","city":"Ardsley","state":"NY","lat":41.0113,"long":-73.8413},{"zip":"10503","city":"Ardsley On Hudson","state":"NY","lat":41.0259,"long":-73.8718},{"zip":"10504","city":"Armonk","state":"NY","lat":41.136,"long":-73.7009},{"zip":"10505","city":"Baldwin Place","state":"NY","lat":41.3421,"long":-73.7454},{"zip":"10506","city":"Bedford","state":"NY","lat":41.1909,"long":-73.6355},{"zip":"10507","city":"Bedford Hills","state":"NY","lat":41.2344,"long":-73.6915}]
