[{"zip":"10537","city":"Lake Peekskill","state":"NY","lat":41.3374,"long":-73.8838},{"zip":"10530","city":"Hartsdale","state":"NY","lat":41.0197,"long":-73.8074},{"zip":"10532","city":"Hawthorne","state":"NY","lat":41.1073,"long":-73.796},{"zip":"10533","city":"Irvington","state":"NY","lat":41.0381,"long":-73.8597},{"zip":"10535","city":"Jefferson Valley","state":"NY","lat":41.3385,"long":-73.7947},{"zip":"10536","city":"Katonah","state":"NY","lat":41.2709,"long":-73.6841},{"zip":"10538","city":"Larchmont","state":"NY","lat":40.9351,"long":-73.7571}]
