[{"zip":"10950","city":"Monroe","state":"NY","lat":41.3286,"long":-74.1885},{"zip":"10953","city":"Mountainville","state":"NY","lat":41.4009,"long":-74.0785},{"zip":"10958","city":"New Hampton","state":"NY","lat":41.3627,"long":-74.4435},{"zip":"10959","city":"New Milford","state":"NY","lat":41.2345,"long":-74.4138},{"zip":"10952","city":"Monsey","state":"NY","lat":41.1163,"long":-74.0736},{"zip":"10954","city":"Nanuet","state":"NY","lat":41.0977,"long":-74.0109},{"zip":"10956","city":"New City","state":"NY","lat":41.1472,"long":-73.9962}]
