[{"zip":"11542","city":"Glen Cove","state":"NY","lat":40.865,"long":-73.6277},{"zip":"11545","city":"Glen Head","state":"NY","lat":40.8281,"long":-73.6076},{"zip":"11547","city":"Glenwood Landing","state":"NY","lat":40.7548,"long":-73.6018},{"zip":"11548","city":"Greenvale","state":"NY","lat":40.8125,"long":-73.6261},{"zip":"11549","city":"Hempstead","state":"NY","lat":40.7172,"long":-73.6027}]
