[{"zip":"11550","city":"Hempstead","state":"NY","lat":40.7049,"long":-73.6176},{"zip":"11551","city":"Hempstead","state":"NY","lat":40.7062,"long":-73.6187},{"zip":"11552","city":"West Hempstead","state":"NY","lat":40.6929,"long":-73.6539},{"zip":"11553","city":"Uniondale","state":"NY","lat":40.702,"long":-73.592},{"zip":"11554","city":"East Meadow","state":"NY","lat":40.7149,"long":-73.5561},{"zip":"11555","city":"Uniondale","state":"NY","lat":40.7004,"long":-73.5929},{"zip":"11556","city":"Uniondale","state":"NY","lat":40.7548,"long":-73.6018},{"zip":"11557","city":"Hewlett","state":"NY","lat":40.6404,"long":-73.6957},{"zip":"11558","city":"Island Park","state":"NY","lat":40.604,"long":-73.6554},{"zip":"11559","city":"Lawrence","state":"NY","lat":40.614,"long":-73.733}]
