[{"zip":"11791","city":"Syosset","state":"NY","lat":40.8146,"long":-73.5024},{"zip":"11793","city":"Wantagh","state":"NY","lat":40.685,"long":-73.5103},{"zip":"11797","city":"Woodbury","state":"NY","lat":40.8154,"long":-73.4716},{"zip":"11790","city":"Stony Brook","state":"NY","lat":40.9068,"long":-73.1277},{"zip":"11792","city":"Wading River","state":"NY","lat":40.952,"long":-72.8348},{"zip":"11794","city":"Stony Brook","state":"NY","lat":40.9257,"long":-73.1409},{"zip":"11795","city":"West Islip","state":"NY","lat":40.7117,"long":-73.3007},{"zip":"11796","city":"West Sayville","state":"NY","lat":40.732,"long":-73.1},{"zip":"11798","city":"Wyandanch","state":"NY","lat":40.7523,"long":-73.3761}]
