[{"zip":"11901","city":"Riverhead","state":"NY","lat":40.9262,"long":-72.652},{"zip":"11930","city":"Amagansett","state":"NY","lat":40.9895,"long":-72.0959},{"zip":"11931","city":"Aquebogue","state":"NY","lat":40.9223,"long":-72.6371},{"zip":"11932","city":"Bridgehampton","state":"NY","lat":40.9339,"long":-72.3077},{"zip":"11933","city":"Calverton","state":"NY","lat":40.9297,"long":-72.7423},{"zip":"11934","city":"Center Moriches","state":"NY","lat":40.7997,"long":-72.797},{"zip":"11935","city":"Cutchogue","state":"NY","lat":41.0139,"long":-72.4803},{"zip":"11937","city":"East Hampton","state":"NY","lat":40.993,"long":-72.179},{"zip":"11939","city":"East Marion","state":"NY","lat":41.1264,"long":-72.3419},{"zip":"11940","city":"East Moriches","state":"NY","lat":40.809,"long":-72.7538},{"zip":"11941","city":"Eastport","state":"NY","lat":40.8297,"long":-72.7283},{"zip":"11942","city":"East Quogue","state":"NY","lat":40.8428,"long":-72.5813},{"zip":"11944","city":"Greenport","state":"NY","lat":41.1039,"long":-72.3674},{"zip":"11946","city":"Hampton Bays","state":"NY","lat":40.8726,"long":-72.5202},{"zip":"11947","city":"Jamesport","state":"NY","lat":40.9223,"long":-72.6371},{"zip":"11948","city":"Laurel","state":"NY","lat":40.9674,"long":-72.554},{"zip":"11949","city":"Manorville","state":"NY","lat":40.8421,"long":-72.8002},{"zip":"11950","city":"Mastic","state":"NY","lat":40.8064,"long":-72.8566},{"zip":"11951","city":"Mastic Beach","state":"NY","lat":40.7657,"long":-72.8537},{"zip":"11952","city":"Mattituck","state":"NY","lat":40.9943,"long":-72.5363},{"zip":"11953","city":"Middle Island","state":"NY","lat":40.8782,"long":-72.9525},{"zip":"11954","city":"Montauk","state":"NY","lat":41.0459,"long":-71.944},{"zip":"11955","city":"Moriches","state":"NY","lat":40.8095,"long":-72.8229},{"zip":"11956","city":"New Suffolk","state":"NY","lat":40.9915,"long":-72.4759},{"zip":"11957","city":"Orient","state":"NY","lat":41.1437,"long":-72.2879},{"zip":"11958","city":"Peconic","state":"NY","lat":41.0392,"long":-72.4666},{"zip":"11959","city":"Quogue","state":"NY","lat":40.8226,"long":-72.6012},{"zip":"11960","city":"Remsenburg","state":"NY","lat":40.8086,"long":-72.7064},{"zip":"11961","city":"Ridge","state":"NY","lat":40.9018,"long":-72.8881},{"zip":"11962","city":"Sagaponack","state":"NY","lat":40.9305,"long":-72.2707},{"zip":"11963","city":"Sag Harbor","state":"NY","lat":40.982,"long":-72.3067},{"zip":"11964","city":"Shelter Island","state":"NY","lat":41.064,"long":-72.3366},{"zip":"11965","city":"Shelter Island Heights","state":"NY","lat":41.084,"long":-72.3559},{"zip":"11967","city":"Shirley","state":"NY","lat":40.8015,"long":-72.8676},{"zip":"11968","city":"Southampton","state":"NY","lat":40.9043,"long":-72.4103},{"zip":"11969","city":"Southampton","state":"NY","lat":40.8843,"long":-72.3895},{"zip":"11970","city":"South Jamesport","state":"NY","lat":40.9365,"long":-72.5773},{"zip":"11971","city":"Southold","state":"NY","lat":41.0555,"long":-72.429},{"zip":"11972","city":"Speonk","state":"NY","lat":40.8195,"long":-72.7054},{"zip":"11973","city":"Upton","state":"NY","lat":40.8678,"long":-72.8822},{"zip":"11975","city":"Wainscott","state":"NY","lat":40.9396,"long":-72.2425},{"zip":"11976","city":"Water Mill","state":"NY","lat":40.9209,"long":-72.3491},{"zip":"11977","city":"Westhampton","state":"NY","lat":40.818,"long":-72.6699},{"zip":"11978","city":"Westhampton Beach","state":"NY","lat":40.8295,"long":-72.6473},{"zip":"11980","city":"Yaphank","state":"NY","lat":40.837,"long":-72.9174}]
