[{"zip":"11950","city":"Mastic","state":"NY","lat":40.8064,"long":-72.8566},{"zip":"11951","city":"Mastic Beach","state":"NY","lat":40.7657,"long":-72.8537},{"zip":"11952","city":"Mattituck","state":"NY","lat":40.9943,"long":-72.5363},{"zip":"11953","city":"Middle Island","state":"NY","lat":40.8782,"long":-72.9525},{"zip":"11954","city":"Montauk","state":"NY","lat":41.0459,"long":-71.944},{"zip":"11955","city":"Moriches","state":"NY","lat":40.8095,"long":-72.8229},{"zip":"11956","city":"New Suffolk","state":"NY","lat":40.9915,"long":-72.4759},{"zip":"11957","city":"Orient","state":"NY","lat":41.1437,"long":-72.2879},{"zip":"11958","city":"Peconic","state":"NY","lat":41.0392,"long":-72.4666},{"zip":"11959","city":"Quogue","state":"NY","lat":40.8226,"long":-72.6012}]
