[{"zip":"11970","city":"South Jamesport","state":"NY","lat":40.9365,"long":-72.5773},{"zip":"11971","city":"Southold","state":"NY","lat":41.0555,"long":-72.429},{"zip":"11972","city":"Speonk","state":"NY","lat":40.8195,"long":-72.7054},{"zip":"11973","city":"Upton","state":"NY","lat":40.8678,"long":-72.8822},{"zip":"11975","city":"Wainscott","state":"NY","lat":40.9396,"long":-72.2425},{"zip":"11976","city":"Water Mill","state":"NY","lat":40.9209,"long":-72.3491},{"zip":"11977","city":"Westhampton","state":"NY","lat":40.818,"long":-72.6699},{"zip":"11978","city":"Westhampton Beach","state":"NY","lat":40.8295,"long":-72.6473}]
