[{"zip":"12017","city":"Austerlitz","state":"NY","lat":42.3223,"long":-73.455},{"zip":"12015","city":"Athens","state":"NY","lat":42.2736,"long":-73.8152},{"zip":"12010","city":"Amsterdam","state":"NY","lat":42.9387,"long":-74.1882},{"zip":"12016","city":"Auriesville","state":"NY","lat":42.9295,"long":-74.3165},{"zip":"12018","city":"Averill Park","state":"NY","lat":42.6365,"long":-73.5504},{"zip":"12019","city":"Ballston Lake","state":"NY","lat":42.9192,"long":-73.8552}]
