[{"zip":"12120","city":"Medusa","state":"NY","lat":42.4515,"long":-74.1315},{"zip":"12128","city":"Newtonville","state":"NY","lat":42.725,"long":-73.7643},{"zip":"12125","city":"New Lebanon","state":"NY","lat":42.4759,"long":-73.3773},{"zip":"12124","city":"New Baltimore","state":"NY","lat":42.4442,"long":-73.7882},{"zip":"12121","city":"Melrose","state":"NY","lat":42.8412,"long":-73.6077},{"zip":"12123","city":"Nassau","state":"NY","lat":42.5271,"long":-73.6118},{"zip":"12122","city":"Middleburgh","state":"NY","lat":42.5637,"long":-74.3292}]
