[{"zip":"12130","city":"Niverville","state":"NY","lat":42.44,"long":-73.6663},{"zip":"12132","city":"North Chatham","state":"NY","lat":42.4705,"long":-73.63},{"zip":"12136","city":"Old Chatham","state":"NY","lat":42.4357,"long":-73.5545},{"zip":"12134","city":"Northville","state":"NY","lat":43.2662,"long":-74.2288},{"zip":"12139","city":"Piseco","state":"NY","lat":43.4481,"long":-74.5263},{"zip":"12133","city":"North Hoosick","state":"NY","lat":42.9261,"long":-73.3464},{"zip":"12138","city":"Petersburg","state":"NY","lat":42.7495,"long":-73.3401},{"zip":"12137","city":"Pattersonville","state":"NY","lat":42.8499,"long":-74.1231},{"zip":"12131","city":"North Blenheim","state":"NY","lat":42.4899,"long":-74.4282}]
