[{"zip":"12513","city":"Claverack","state":"NY","lat":42.2251,"long":-73.7346},{"zip":"12516","city":"Copake","state":"NY","lat":42.1113,"long":-73.5526},{"zip":"12517","city":"Copake Falls","state":"NY","lat":42.1367,"long":-73.5108},{"zip":"12510","city":"Billings","state":"NY","lat":41.6712,"long":-73.7632},{"zip":"12511","city":"Castle Point","state":"NY","lat":41.5462,"long":-73.9596},{"zip":"12512","city":"Chelsea","state":"NY","lat":41.5528,"long":-73.9682},{"zip":"12514","city":"Clinton Corners","state":"NY","lat":41.8693,"long":-73.7659},{"zip":"12518","city":"Cornwall","state":"NY","lat":41.4162,"long":-74.0395},{"zip":"12515","city":"Clintondale","state":"NY","lat":41.6749,"long":-74.0557}]
