[{"zip":"12851","city":"Minerva","state":"NY","lat":43.7811,"long":-73.9835},{"zip":"12852","city":"Newcomb","state":"NY","lat":43.946,"long":-74.1299},{"zip":"12855","city":"North Hudson","state":"NY","lat":43.9869,"long":-73.7121},{"zip":"12857","city":"Olmstedville","state":"NY","lat":43.7799,"long":-73.9335},{"zip":"12858","city":"Paradox","state":"NY","lat":43.8914,"long":-73.645},{"zip":"12870","city":"Schroon Lake","state":"NY","lat":43.8412,"long":-73.7674},{"zip":"12872","city":"Severance","state":"NY","lat":43.8759,"long":-73.7304},{"zip":"12879","city":"Newcomb","state":"NY","lat":43.9697,"long":-74.1662},{"zip":"12883","city":"Ticonderoga","state":"NY","lat":43.8463,"long":-73.4426},{"zip":"12812","city":"Blue Mountain Lake","state":"NY","lat":43.8553,"long":-74.4435},{"zip":"12842","city":"Indian Lake","state":"NY","lat":43.7606,"long":-74.2766},{"zip":"12847","city":"Long Lake","state":"NY","lat":43.9477,"long":-74.4662},{"zip":"12864","city":"Sabael","state":"NY","lat":43.6676,"long":-74.4569},{"zip":"12803","city":"South Glens Falls","state":"NY","lat":43.2836,"long":-73.6294},{"zip":"12822","city":"Corinth","state":"NY","lat":43.2426,"long":-73.8369},{"zip":"12831","city":"Gansevoort","state":"NY","lat":43.1803,"long":-73.7053},{"zip":"12833","city":"Greenfield Center","state":"NY","lat":43.1401,"long":-73.8398},{"zip":"12835","city":"Hadley","state":"NY","lat":43.3173,"long":-73.8482},{"zip":"12850","city":"Middle Grove","state":"NY","lat":43.0975,"long":-74.0167},{"zip":"12859","city":"Porter Corners","state":"NY","lat":43.1724,"long":-73.8839},{"zip":"12863","city":"Rock City Falls","state":"NY","lat":43.0662,"long":-73.9215},{"zip":"12866","city":"Saratoga Springs","state":"NY","lat":43.0708,"long":-73.7408},{"zip":"12871","city":"Schuylerville","state":"NY","lat":43.0878,"long":-73.6007},{"zip":"12884","city":"Victory Mills","state":"NY","lat":43.0884,"long":-73.5917},{"zip":"12801","city":"Glens Falls","state":"NY","lat":43.3115,"long":-73.6448},{"zip":"12804","city":"Queensbury","state":"NY","lat":43.329,"long":-73.6818},{"zip":"12808","city":"Adirondack","state":"NY","lat":43.7165,"long":-73.7825},{"zip":"12810","city":"Athol","state":"NY","lat":43.4839,"long":-73.8817},{"zip":"12811","city":"Bakers Mills","state":"NY","lat":43.6148,"long":-74.0249},{"zip":"12814","city":"Bolton Landing","state":"NY","lat":43.5766,"long":-73.6714},{"zip":"12815","city":"Brant Lake","state":"NY","lat":43.6989,"long":-73.7205},{"zip":"12817","city":"Chestertown","state":"NY","lat":43.6451,"long":-73.8066},{"zip":"12820","city":"Cleverdale","state":"NY","lat":43.4718,"long":-73.6393},{"zip":"12824","city":"Diamond Point","state":"NY","lat":43.5156,"long":-73.7001},{"zip":"12836","city":"Hague","state":"NY","lat":43.7463,"long":-73.5282},{"zip":"12843","city":"Johnsburg","state":"NY","lat":43.586,"long":-73.9165},{"zip":"12844","city":"Kattskill Bay","state":"NY","lat":43.4754,"long":-73.6272},{"zip":"12845","city":"Lake George","state":"NY","lat":43.4167,"long":-73.6975},{"zip":"12846","city":"Lake Luzerne","state":"NY","lat":43.3165,"long":-73.8228},{"zip":"12853","city":"North Creek","state":"NY","lat":43.6978,"long":-73.986},{"zip":"12856","city":"North River","state":"NY","lat":43.7237,"long":-74.0873},{"zip":"12860","city":"Pottersville","state":"NY","lat":43.7312,"long":-73.8193},{"zip":"12862","city":"Riparius","state":"NY","lat":43.6754,"long":-73.9325},{"zip":"12874","city":"Silver Bay","state":"NY","lat":43.6978,"long":-73.5071},{"zip":"12878","city":"Stony Creek","state":"NY","lat":43.4214,"long":-73.9495},{"zip":"12885","city":"Warrensburg","state":"NY","lat":43.5003,"long":-73.792},{"zip":"12886","city":"Wevertown","state":"NY","lat":43.6313,"long":-73.9364},{"zip":"12809","city":"Argyle","state":"NY","lat":43.2381,"long":-73.4641},{"zip":"12816","city":"Cambridge","state":"NY","lat":43.0466,"long":-73.3814},{"zip":"12819","city":"Clemons","state":"NY","lat":43.6435,"long":-73.4326},{"zip":"12821","city":"Comstock","state":"NY","lat":43.4614,"long":-73.4033},{"zip":"12823","city":"Cossayuna","state":"NY","lat":43.1837,"long":-73.4268},{"zip":"12827","city":"Fort Ann","state":"NY","lat":43.4285,"long":-73.4784},{"zip":"12828","city":"Fort Edward","state":"NY","lat":43.2653,"long":-73.5822},{"zip":"12832","city":"Granville","state":"NY","lat":43.3776,"long":-73.2978},{"zip":"12834","city":"Greenwich","state":"NY","lat":43.0947,"long":-73.503},{"zip":"12837","city":"Hampton","state":"NY","lat":43.5248,"long":-73.2518},{"zip":"12838","city":"Hartford","state":"NY","lat":43.3493,"long":-73.4049},{"zip":"12839","city":"Hudson Falls","state":"NY","lat":43.3149,"long":-73.5746},{"zip":"12841","city":"Huletts Landing","state":"NY","lat":43.6392,"long":-73.5071},{"zip":"12848","city":"Middle Falls","state":"NY","lat":43.1001,"long":-73.5246},{"zip":"12849","city":"Middle Granville","state":"NY","lat":43.4508,"long":-73.3031},{"zip":"12854","city":"North Granville","state":"NY","lat":43.4525,"long":-73.341},{"zip":"12861","city":"Putnam Station","state":"NY","lat":43.756,"long":-73.4123},{"zip":"12865","city":"Salem","state":"NY","lat":43.1828,"long":-73.3327},{"zip":"12873","city":"Shushan","state":"NY","lat":43.1106,"long":-73.3231},{"zip":"12887","city":"Whitehall","state":"NY","lat":43.5531,"long":-73.3864}]
