[{"zip":"12831","city":"Gansevoort","state":"NY","lat":43.1803,"long":-73.7053},{"zip":"12833","city":"Greenfield Center","state":"NY","lat":43.1401,"long":-73.8398},{"zip":"12835","city":"Hadley","state":"NY","lat":43.3173,"long":-73.8482},{"zip":"12836","city":"Hague","state":"NY","lat":43.7463,"long":-73.5282},{"zip":"12832","city":"Granville","state":"NY","lat":43.3776,"long":-73.2978},{"zip":"12834","city":"Greenwich","state":"NY","lat":43.0947,"long":-73.503},{"zip":"12837","city":"Hampton","state":"NY","lat":43.5248,"long":-73.2518},{"zip":"12838","city":"Hartford","state":"NY","lat":43.3493,"long":-73.4049},{"zip":"12839","city":"Hudson Falls","state":"NY","lat":43.3149,"long":-73.5746}]
