[{"zip":"12842","city":"Indian Lake","state":"NY","lat":43.7606,"long":-74.2766},{"zip":"12847","city":"Long Lake","state":"NY","lat":43.9477,"long":-74.4662},{"zip":"12843","city":"Johnsburg","state":"NY","lat":43.586,"long":-73.9165},{"zip":"12844","city":"Kattskill Bay","state":"NY","lat":43.4754,"long":-73.6272},{"zip":"12845","city":"Lake George","state":"NY","lat":43.4167,"long":-73.6975},{"zip":"12846","city":"Lake Luzerne","state":"NY","lat":43.3165,"long":-73.8228},{"zip":"12841","city":"Huletts Landing","state":"NY","lat":43.6392,"long":-73.5071},{"zip":"12848","city":"Middle Falls","state":"NY","lat":43.1001,"long":-73.5246},{"zip":"12849","city":"Middle Granville","state":"NY","lat":43.4508,"long":-73.3031}]
