[{"zip":"12962","city":"Morrisonville","state":"NY","lat":44.6894,"long":-73.5772},{"zip":"12960","city":"Moriah","state":"NY","lat":44.0438,"long":-73.5079},{"zip":"12961","city":"Moriah Center","state":"NY","lat":44.0612,"long":-73.5098},{"zip":"12964","city":"New Russia","state":"NY","lat":44.1595,"long":-73.6059},{"zip":"12966","city":"North Bangor","state":"NY","lat":44.8532,"long":-74.4191},{"zip":"12969","city":"Owls Head","state":"NY","lat":44.7308,"long":-74.1342},{"zip":"12965","city":"Nicholville","state":"NY","lat":44.703,"long":-74.6805},{"zip":"12967","city":"North Lawrence","state":"NY","lat":44.775,"long":-74.6653}]
