[{"zip":"12992","city":"West Chazy","state":"NY","lat":44.797,"long":-73.5112},{"zip":"12993","city":"Westport","state":"NY","lat":44.205,"long":-73.4702},{"zip":"12996","city":"Willsboro","state":"NY","lat":44.3604,"long":-73.3963},{"zip":"12997","city":"Wilmington","state":"NY","lat":44.3755,"long":-73.8431},{"zip":"12998","city":"Witherbee","state":"NY","lat":44.0827,"long":-73.5306},{"zip":"12995","city":"Whippleville","state":"NY","lat":44.8057,"long":-74.2523}]
