[{"zip":"13071","city":"Genoa","state":"NY","lat":42.6746,"long":-76.5418},{"zip":"13077","city":"Homer","state":"NY","lat":42.6726,"long":-76.1878},{"zip":"13072","city":"Georgetown","state":"NY","lat":42.7631,"long":-75.7443},{"zip":"13078","city":"Jamesville","state":"NY","lat":42.983,"long":-76.0766},{"zip":"13074","city":"Hannibal","state":"NY","lat":43.3111,"long":-76.546},{"zip":"13076","city":"Hastings","state":"NY","lat":43.3527,"long":-76.1477},{"zip":"13073","city":"Groton","state":"NY","lat":42.5855,"long":-76.3633}]
