[{"zip":"13312","city":"Brantingham","state":"NY","lat":43.6887,"long":-75.2921},{"zip":"13310","city":"Bouckville","state":"NY","lat":42.894,"long":-75.5678},{"zip":"13314","city":"Brookfield","state":"NY","lat":42.8128,"long":-75.3177},{"zip":"13317","city":"Canajoharie","state":"NY","lat":42.8671,"long":-74.5956},{"zip":"13313","city":"Bridgewater","state":"NY","lat":42.8792,"long":-75.2672},{"zip":"13316","city":"Camden","state":"NY","lat":43.3392,"long":-75.7543},{"zip":"13318","city":"Cassville","state":"NY","lat":42.9069,"long":-75.2607},{"zip":"13319","city":"Chadwicks","state":"NY","lat":43.0226,"long":-75.2656},{"zip":"13315","city":"Burlington Flats","state":"NY","lat":42.7516,"long":-75.169}]
