[{"zip":"13470","city":"Stratford","state":"NY","lat":43.1791,"long":-74.6768},{"zip":"13472","city":"Thendara","state":"NY","lat":43.7001,"long":-75.0018},{"zip":"13475","city":"Van Hornesville","state":"NY","lat":42.8951,"long":-74.8276},{"zip":"13473","city":"Turin","state":"NY","lat":43.6441,"long":-75.4132},{"zip":"13471","city":"Taberg","state":"NY","lat":43.3366,"long":-75.6027},{"zip":"13476","city":"Vernon","state":"NY","lat":43.0945,"long":-75.5627},{"zip":"13477","city":"Vernon Center","state":"NY","lat":43.0443,"long":-75.521},{"zip":"13478","city":"Verona","state":"NY","lat":43.1473,"long":-75.5724},{"zip":"13479","city":"Washington Mills","state":"NY","lat":43.0538,"long":-75.2716}]
