[{"zip":"13491","city":"West Winfield","state":"NY","lat":42.8826,"long":-75.1835},{"zip":"13490","city":"Westmoreland","state":"NY","lat":43.1017,"long":-75.4533},{"zip":"13492","city":"Whitesboro","state":"NY","lat":43.1158,"long":-75.3095},{"zip":"13494","city":"Woodgate","state":"NY","lat":43.5249,"long":-75.1428},{"zip":"13495","city":"Yorkville","state":"NY","lat":43.1116,"long":-75.2756},{"zip":"13493","city":"Williamstown","state":"NY","lat":43.4106,"long":-75.9044}]
