[{"zip":"13601","city":"Watertown","state":"NY","lat":43.9743,"long":-75.9122},{"zip":"13602","city":"Fort Drum","state":"NY","lat":44.0354,"long":-75.754},{"zip":"13603","city":"Watertown","state":"NY","lat":43.9087,"long":-75.8967},{"zip":"13605","city":"Adams","state":"NY","lat":43.8062,"long":-76.049},{"zip":"13606","city":"Adams Center","state":"NY","lat":43.8631,"long":-76.0041},{"zip":"13607","city":"Alexandria Bay","state":"NY","lat":44.3359,"long":-75.9177},{"zip":"13608","city":"Antwerp","state":"NY","lat":44.2358,"long":-75.6005}]
