[{"zip":"13744","city":"Castle Creek","state":"NY","lat":42.2568,"long":-75.9087},{"zip":"13745","city":"Chenango Bridge","state":"NY","lat":42.1738,"long":-75.8728},{"zip":"13746","city":"Chenango Forks","state":"NY","lat":42.2778,"long":-75.8462},{"zip":"13748","city":"Conklin","state":"NY","lat":42.0454,"long":-75.8076},{"zip":"13749","city":"Corbettsville","state":"NY","lat":42.0156,"long":-75.7905},{"zip":"13740","city":"Bovina Center","state":"NY","lat":42.2709,"long":-74.7661},{"zip":"13747","city":"Colliersville","state":"NY","lat":42.5051,"long":-74.9821},{"zip":"13743","city":"Candor","state":"NY","lat":42.2063,"long":-76.3322}]
