[{"zip":"13862","city":"Whitney Point","state":"NY","lat":42.3384,"long":-75.9522},{"zip":"13865","city":"Windsor","state":"NY","lat":42.0759,"long":-75.6405},{"zip":"13863","city":"Willet","state":"NY","lat":42.452,"long":-75.9014},{"zip":"13860","city":"West Davenport","state":"NY","lat":42.4459,"long":-74.9632},{"zip":"13861","city":"West Oneonta","state":"NY","lat":42.5011,"long":-75.1409},{"zip":"13864","city":"Willseyville","state":"NY","lat":42.3029,"long":-76.3897}]
