[{"zip":"14029","city":"Centerville","state":"NY","lat":42.4743,"long":-78.2474},{"zip":"14025","city":"Boston","state":"NY","lat":42.6314,"long":-78.7391},{"zip":"14026","city":"Bowmansville","state":"NY","lat":42.941,"long":-78.688},{"zip":"14027","city":"Brant","state":"NY","lat":42.5707,"long":-79.0308},{"zip":"14020","city":"Batavia","state":"NY","lat":43.0003,"long":-78.1929},{"zip":"14021","city":"Batavia","state":"NY","lat":42.9981,"long":-78.1848},{"zip":"14028","city":"Burt","state":"NY","lat":43.3221,"long":-78.7141},{"zip":"14024","city":"Bliss","state":"NY","lat":42.5799,"long":-78.2581}]
