[{"zip":"14416","city":"Bergen","state":"NY","lat":43.0869,"long":-77.9603},{"zip":"14414","city":"Avon","state":"NY","lat":42.903,"long":-77.7274},{"zip":"14410","city":"Adams Basin","state":"NY","lat":43.1953,"long":-77.8559},{"zip":"14411","city":"Albion","state":"NY","lat":43.2398,"long":-78.2068},{"zip":"14413","city":"Alton","state":"NY","lat":43.2227,"long":-76.9821},{"zip":"14415","city":"Bellona","state":"NY","lat":42.7554,"long":-77.0217},{"zip":"14418","city":"Branchport","state":"NY","lat":42.6065,"long":-77.2052}]
