[{"zip":"14422","city":"Byron","state":"NY","lat":43.0738,"long":-78.0629},{"zip":"14423","city":"Caledonia","state":"NY","lat":42.9567,"long":-77.8493},{"zip":"14420","city":"Brockport","state":"NY","lat":43.2128,"long":-77.9368},{"zip":"14428","city":"Churchville","state":"NY","lat":43.0749,"long":-77.835},{"zip":"14424","city":"Canandaigua","state":"NY","lat":42.8689,"long":-77.2846},{"zip":"14425","city":"Farmington","state":"NY","lat":42.958,"long":-77.3083},{"zip":"14429","city":"Clarendon","state":"NY","lat":43.1934,"long":-78.0647},{"zip":"14427","city":"Castile","state":"NY","lat":42.6359,"long":-78.0547}]
