[{"zip":"14510","city":"Mount Morris","state":"NY","lat":42.6835,"long":-77.8664},{"zip":"14517","city":"Nunda","state":"NY","lat":42.5867,"long":-77.918},{"zip":"14511","city":"Mumford","state":"NY","lat":42.9928,"long":-77.8603},{"zip":"14514","city":"North Chili","state":"NY","lat":43.1186,"long":-77.8005},{"zip":"14515","city":"North Greece","state":"NY","lat":43.2578,"long":-77.7351},{"zip":"14512","city":"Naples","state":"NY","lat":42.6404,"long":-77.3901},{"zip":"14518","city":"Oaks Corners","state":"NY","lat":42.9319,"long":-77.0118},{"zip":"14513","city":"Newark","state":"NY","lat":43.0519,"long":-77.0946},{"zip":"14516","city":"North Rose","state":"NY","lat":43.1964,"long":-76.9152},{"zip":"14519","city":"Ontario","state":"NY","lat":43.2291,"long":-77.3088}]
