[{"zip":"14557","city":"South Byron","state":"NY","lat":43.0416,"long":-78.0573},{"zip":"14556","city":"Sonyea","state":"NY","lat":42.679,"long":-77.8272},{"zip":"14558","city":"South Lima","state":"NY","lat":42.8554,"long":-77.6876},{"zip":"14559","city":"Spencerport","state":"NY","lat":43.1895,"long":-77.8043},{"zip":"14551","city":"Sodus","state":"NY","lat":43.2217,"long":-77.0514},{"zip":"14555","city":"Sodus Point","state":"NY","lat":43.2546,"long":-76.9835},{"zip":"14550","city":"Silver Springs","state":"NY","lat":42.6742,"long":-78.0845}]
