[{"zip":"14721","city":"Ceres","state":"NY","lat":42.0137,"long":-78.2648},{"zip":"14727","city":"Cuba","state":"NY","lat":42.1882,"long":-78.2751},{"zip":"14726","city":"Conewango Valley","state":"NY","lat":42.2625,"long":-79.022},{"zip":"14729","city":"East Otto","state":"NY","lat":42.3971,"long":-78.7432},{"zip":"14720","city":"Celoron","state":"NY","lat":42.1095,"long":-79.2831},{"zip":"14722","city":"Chautauqua","state":"NY","lat":42.2098,"long":-79.4667},{"zip":"14723","city":"Cherry Creek","state":"NY","lat":42.3127,"long":-79.1203},{"zip":"14724","city":"Clymer","state":"NY","lat":42.0557,"long":-79.6685},{"zip":"14728","city":"Dewittville","state":"NY","lat":42.2394,"long":-79.4193}]
