[{"zip":"14744","city":"Houghton","state":"NY","lat":42.4228,"long":-78.2063},{"zip":"14745","city":"Hume","state":"NY","lat":42.4777,"long":-78.1403},{"zip":"14741","city":"Great Valley","state":"NY","lat":42.2083,"long":-78.6208},{"zip":"14743","city":"Hinsdale","state":"NY","lat":42.1979,"long":-78.4159},{"zip":"14748","city":"Kill Buck","state":"NY","lat":42.145,"long":-78.6466},{"zip":"14740","city":"Gerry","state":"NY","lat":42.2147,"long":-79.1649},{"zip":"14742","city":"Greenhurst","state":"NY","lat":42.1205,"long":-79.3096},{"zip":"14747","city":"Kennedy","state":"NY","lat":42.1508,"long":-79.0964}]
