[{"zip":"14802","city":"Alfred","state":"NY","lat":42.2534,"long":-77.7893},{"zip":"14803","city":"Alfred Station","state":"NY","lat":42.2558,"long":-77.7781},{"zip":"14804","city":"Almond","state":"NY","lat":42.316,"long":-77.778},{"zip":"14806","city":"Andover","state":"NY","lat":42.1575,"long":-77.792},{"zip":"14805","city":"Alpine","state":"NY","lat":42.351,"long":-76.7348},{"zip":"14801","city":"Addison","state":"NY","lat":42.0983,"long":-77.266},{"zip":"14807","city":"Arkport","state":"NY","lat":42.4225,"long":-77.6918},{"zip":"14808","city":"Atlanta","state":"NY","lat":42.5596,"long":-77.4669},{"zip":"14809","city":"Avoca","state":"NY","lat":42.3679,"long":-77.4641}]
