[{"zip":"14855","city":"Jasper","state":"NY","lat":42.129,"long":-77.4999},{"zip":"14856","city":"Kanona","state":"NY","lat":42.3742,"long":-77.3648},{"zip":"14858","city":"Lindley","state":"NY","lat":42.0284,"long":-77.1397},{"zip":"14859","city":"Lockwood","state":"NY","lat":42.1149,"long":-76.5366},{"zip":"14850","city":"Ithaca","state":"NY","lat":42.4406,"long":-76.4966},{"zip":"14851","city":"Ithaca","state":"NY","lat":42.4607,"long":-76.5054},{"zip":"14852","city":"Ithaca","state":"NY","lat":42.4451,"long":-76.4672},{"zip":"14853","city":"Ithaca","state":"NY","lat":42.4474,"long":-76.4837},{"zip":"14854","city":"Jacksonville","state":"NY","lat":42.5084,"long":-76.6149},{"zip":"14857","city":"Lakemont","state":"NY","lat":42.5126,"long":-76.927}]
