[{"zip":"15006","city":"Bairdford","state":"PA","lat":40.6312,"long":-79.8814},{"zip":"15007","city":"Bakerstown","state":"PA","lat":40.6478,"long":-79.931},{"zip":"15001","city":"Aliquippa","state":"PA","lat":40.5921,"long":-80.3197},{"zip":"15003","city":"Ambridge","state":"PA","lat":40.6005,"long":-80.2105},{"zip":"15005","city":"Baden","state":"PA","lat":40.6416,"long":-80.1985},{"zip":"15009","city":"Beaver","state":"PA","lat":40.6972,"long":-80.3365},{"zip":"15004","city":"Atlasburg","state":"PA","lat":40.3413,"long":-80.3822}]
