[{"zip":"15044","city":"Gibsonia","state":"PA","lat":40.6252,"long":-79.9443},{"zip":"15045","city":"Glassport","state":"PA","lat":40.326,"long":-79.8883},{"zip":"15046","city":"Crescent","state":"PA","lat":40.5563,"long":-80.2286},{"zip":"15047","city":"Greenock","state":"PA","lat":40.4344,"long":-80.0248},{"zip":"15049","city":"Harwick","state":"PA","lat":40.5574,"long":-79.8051},{"zip":"15042","city":"Freedom","state":"PA","lat":40.683,"long":-80.2147},{"zip":"15043","city":"Georgetown","state":"PA","lat":40.5743,"long":-80.49}]
