[{"zip":"15064","city":"Morgan","state":"PA","lat":40.3542,"long":-80.1398},{"zip":"15065","city":"Natrona Heights","state":"PA","lat":40.6421,"long":-79.7273},{"zip":"15061","city":"Monaca","state":"PA","lat":40.6718,"long":-80.2917},{"zip":"15066","city":"New Brighton","state":"PA","lat":40.7393,"long":-80.2972},{"zip":"15060","city":"Midway","state":"PA","lat":40.368,"long":-80.2921},{"zip":"15063","city":"Monongahela","state":"PA","lat":40.1937,"long":-79.9241},{"zip":"15067","city":"New Eagle","state":"PA","lat":40.2066,"long":-79.9534},{"zip":"15062","city":"Monessen","state":"PA","lat":40.1524,"long":-79.8835},{"zip":"15068","city":"New Kensington","state":"PA","lat":40.5616,"long":-79.7129},{"zip":"15069","city":"New Kensington","state":"PA","lat":40.5698,"long":-79.7648}]
