[{"zip":"15082","city":"Sturgeon","state":"PA","lat":40.3863,"long":-80.2083},{"zip":"15084","city":"Tarentum","state":"PA","lat":40.6187,"long":-79.7852},{"zip":"15086","city":"Warrendale","state":"PA","lat":40.6534,"long":-80.0795},{"zip":"15088","city":"West Elizabeth","state":"PA","lat":40.2716,"long":-79.8966},{"zip":"15081","city":"South Heights","state":"PA","lat":40.5763,"long":-80.2383},{"zip":"15083","city":"Sutersville","state":"PA","lat":40.2382,"long":-79.7922},{"zip":"15085","city":"Trafford","state":"PA","lat":40.3857,"long":-79.7223},{"zip":"15087","city":"Webster","state":"PA","lat":40.1851,"long":-79.8487},{"zip":"15089","city":"West Newton","state":"PA","lat":40.2075,"long":-79.758}]
