[{"zip":"15310","city":"Aleppo","state":"PA","lat":39.8246,"long":-80.4579},{"zip":"15315","city":"Bobtown","state":"PA","lat":39.7612,"long":-79.9814},{"zip":"15316","city":"Brave","state":"PA","lat":39.7245,"long":-80.2537},{"zip":"15311","city":"Amity","state":"PA","lat":40.0498,"long":-80.1681},{"zip":"15312","city":"Avella","state":"PA","lat":40.2734,"long":-80.4565},{"zip":"15313","city":"Beallsville","state":"PA","lat":40.0655,"long":-80.0221},{"zip":"15314","city":"Bentleyville","state":"PA","lat":40.1187,"long":-80.007},{"zip":"15317","city":"Canonsburg","state":"PA","lat":40.2706,"long":-80.1668}]
