[{"zip":"15410","city":"Adah","state":"PA","lat":39.8965,"long":-79.922},{"zip":"15413","city":"Allison","state":"PA","lat":39.9868,"long":-79.8637},{"zip":"15415","city":"Brier Hill","state":"PA","lat":39.9808,"long":-79.8504},{"zip":"15416","city":"Brownfield","state":"PA","lat":39.857,"long":-79.712},{"zip":"15417","city":"Brownsville","state":"PA","lat":40.0237,"long":-79.8839},{"zip":"15411","city":"Addison","state":"PA","lat":39.7476,"long":-79.3454},{"zip":"15412","city":"Allenport","state":"PA","lat":40.0959,"long":-79.8499},{"zip":"15419","city":"California","state":"PA","lat":40.0625,"long":-79.8953}]
