[{"zip":"15470","city":"Ohiopyle","state":"PA","lat":39.8507,"long":-79.523},{"zip":"15472","city":"Oliver","state":"PA","lat":39.9183,"long":-79.7158},{"zip":"15473","city":"Perryopolis","state":"PA","lat":40.0646,"long":-79.7756},{"zip":"15474","city":"Point Marion","state":"PA","lat":39.7351,"long":-79.899},{"zip":"15475","city":"Republic","state":"PA","lat":39.9626,"long":-79.8767},{"zip":"15476","city":"Ronco","state":"PA","lat":39.8697,"long":-79.9206},{"zip":"15478","city":"Smithfield","state":"PA","lat":39.7923,"long":-79.8127},{"zip":"15477","city":"Roscoe","state":"PA","lat":40.0787,"long":-79.8656},{"zip":"15479","city":"Smithton","state":"PA","lat":40.1553,"long":-79.7381}]
