[{"zip":"15640","city":"Hutchinson","state":"PA","lat":40.2251,"long":-79.7328},{"zip":"15641","city":"Hyde Park","state":"PA","lat":40.6311,"long":-79.5899},{"zip":"15642","city":"Irwin","state":"PA","lat":40.3191,"long":-79.7205},{"zip":"15644","city":"Jeannette","state":"PA","lat":40.3295,"long":-79.6144},{"zip":"15646","city":"Jones Mills","state":"PA","lat":40.0889,"long":-79.3427},{"zip":"15647","city":"Larimer","state":"PA","lat":40.3453,"long":-79.7264}]
