[{"zip":"15736","city":"Elderton","state":"PA","lat":40.6922,"long":-79.3422},{"zip":"15737","city":"Elmora","state":"PA","lat":40.6076,"long":-78.7524},{"zip":"15738","city":"Emeigh","state":"PA","lat":40.6948,"long":-78.787},{"zip":"15731","city":"Coral","state":"PA","lat":40.4992,"long":-79.1739},{"zip":"15732","city":"Creekside","state":"PA","lat":40.7199,"long":-79.2014},{"zip":"15734","city":"Dixonville","state":"PA","lat":40.7165,"long":-79.007},{"zip":"15739","city":"Ernest","state":"PA","lat":40.678,"long":-79.1657},{"zip":"15730","city":"Coolspring","state":"PA","lat":40.9671,"long":-78.9256},{"zip":"15733","city":"De Lancey","state":"PA","lat":41.1411,"long":-78.9629}]
