[{"zip":"15774","city":"Shelocta","state":"PA","lat":40.6388,"long":-79.3191},{"zip":"15773","city":"Saint Benedict","state":"PA","lat":40.6298,"long":-78.7329},{"zip":"15775","city":"Spangler","state":"PA","lat":40.6351,"long":-78.7692},{"zip":"15771","city":"Rochester Mills","state":"PA","lat":40.8308,"long":-78.9892},{"zip":"15772","city":"Rossiter","state":"PA","lat":40.8846,"long":-78.9414},{"zip":"15777","city":"Starford","state":"PA","lat":40.7027,"long":-78.9588},{"zip":"15770","city":"Ringgold","state":"PA","lat":40.9997,"long":-79.1766},{"zip":"15776","city":"Sprankle Mills","state":"PA","lat":41.0133,"long":-79.114},{"zip":"15778","city":"Timblin","state":"PA","lat":40.9684,"long":-79.2014},{"zip":"15779","city":"Torrance","state":"PA","lat":40.3992,"long":-79.2177}]
