[{"zip":"15821","city":"Benezett","state":"PA","lat":41.3253,"long":-78.3576},{"zip":"15822","city":"Brandy Camp","state":"PA","lat":41.3209,"long":-78.6875},{"zip":"15823","city":"Brockport","state":"PA","lat":41.2822,"long":-78.7128},{"zip":"15827","city":"Byrnedale","state":"PA","lat":41.2865,"long":-78.5051},{"zip":"15828","city":"Clarington","state":"PA","lat":41.3233,"long":-79.1466},{"zip":"15824","city":"Brockway","state":"PA","lat":41.2406,"long":-78.8116},{"zip":"15825","city":"Brookville","state":"PA","lat":41.1627,"long":-79.0816},{"zip":"15829","city":"Corsica","state":"PA","lat":41.1762,"long":-79.1976}]
