[{"zip":"15921","city":"Beaverdale","state":"PA","lat":40.3173,"long":-78.7009},{"zip":"15922","city":"Belsano","state":"PA","lat":40.5176,"long":-78.8767},{"zip":"15925","city":"Cassandra","state":"PA","lat":40.4085,"long":-78.6407},{"zip":"15927","city":"Colver","state":"PA","lat":40.5383,"long":-78.7865},{"zip":"15920","city":"Armagh","state":"PA","lat":40.4603,"long":-79.0097},{"zip":"15929","city":"Dilltown","state":"PA","lat":40.4625,"long":-79.0128},{"zip":"15924","city":"Cairnbrook","state":"PA","lat":40.1149,"long":-78.7851},{"zip":"15926","city":"Central City","state":"PA","lat":40.0913,"long":-78.8448},{"zip":"15928","city":"Davidsville","state":"PA","lat":40.2245,"long":-78.9363},{"zip":"15923","city":"Bolivar","state":"PA","lat":40.3673,"long":-79.1605}]
