[{"zip":"16030","city":"Eau Claire","state":"PA","lat":41.1348,"long":-79.7981},{"zip":"16033","city":"Evans City","state":"PA","lat":40.7808,"long":-80.0592},{"zip":"16034","city":"Fenelton","state":"PA","lat":40.8555,"long":-79.7372},{"zip":"16035","city":"Forestville","state":"PA","lat":41.1068,"long":-80.007},{"zip":"16037","city":"Harmony","state":"PA","lat":40.8496,"long":-80.1381},{"zip":"16038","city":"Harrisville","state":"PA","lat":41.1631,"long":-79.9796},{"zip":"16039","city":"Herman","state":"PA","lat":40.8301,"long":-79.8112},{"zip":"16036","city":"Foxburg","state":"PA","lat":41.1431,"long":-79.6798}]
