[{"zip":"16136","city":"Koppel","state":"PA","lat":40.8348,"long":-80.328},{"zip":"16131","city":"Hartstown","state":"PA","lat":41.5509,"long":-80.3813},{"zip":"16132","city":"Hillsville","state":"PA","lat":41.0113,"long":-80.4975},{"zip":"16130","city":"Hadley","state":"PA","lat":41.4432,"long":-80.2153},{"zip":"16133","city":"Jackson Center","state":"PA","lat":41.2801,"long":-80.1037},{"zip":"16134","city":"Jamestown","state":"PA","lat":41.4566,"long":-80.4492},{"zip":"16137","city":"Mercer","state":"PA","lat":41.2325,"long":-80.234}]
