[{"zip":"16314","city":"Cochranton","state":"PA","lat":41.5205,"long":-80.0573},{"zip":"16316","city":"Conneaut Lake","state":"PA","lat":41.6189,"long":-80.3086},{"zip":"16311","city":"Carlton","state":"PA","lat":41.4815,"long":-80.0203},{"zip":"16317","city":"Cooperstown","state":"PA","lat":41.498,"long":-79.8757},{"zip":"16319","city":"Cranberry","state":"PA","lat":41.3197,"long":-79.6317},{"zip":"16312","city":"Chandlers Valley","state":"PA","lat":41.9358,"long":-79.3097},{"zip":"16313","city":"Clarendon","state":"PA","lat":41.7302,"long":-79.1719}]
