[{"zip":"16432","city":"Riceville","state":"PA","lat":41.7776,"long":-79.8028},{"zip":"16433","city":"Saegertown","state":"PA","lat":41.7268,"long":-80.1479},{"zip":"16434","city":"Spartansburg","state":"PA","lat":41.7936,"long":-79.6849},{"zip":"16435","city":"Springboro","state":"PA","lat":41.8113,"long":-80.3753},{"zip":"16430","city":"North Springfield","state":"PA","lat":41.9999,"long":-80.4258},{"zip":"16438","city":"Union City","state":"PA","lat":41.8939,"long":-79.8455},{"zip":"16436","city":"Spring Creek","state":"PA","lat":41.92,"long":-79.4482}]
