[{"zip":"16440","city":"Venango","state":"PA","lat":41.764,"long":-80.0982},{"zip":"16441","city":"Waterford","state":"PA","lat":41.9603,"long":-79.9996},{"zip":"16442","city":"Wattsburg","state":"PA","lat":42.0391,"long":-79.8363},{"zip":"16443","city":"West Springfield","state":"PA","lat":41.9465,"long":-80.465},{"zip":"16444","city":"Edinboro","state":"PA","lat":41.8707,"long":-80.1218}]
