[{"zip":"16617","city":"Bellwood","state":"PA","lat":40.6039,"long":-78.3372},{"zip":"16613","city":"Ashville","state":"PA","lat":40.5513,"long":-78.5346},{"zip":"16619","city":"Blandburg","state":"PA","lat":40.6847,"long":-78.4137},{"zip":"16616","city":"Beccaria","state":"PA","lat":40.7683,"long":-78.4455},{"zip":"16611","city":"Alexandria","state":"PA","lat":40.5485,"long":-78.0951}]
