[{"zip":"16625","city":"Claysburg","state":"PA","lat":40.2821,"long":-78.5083},{"zip":"16624","city":"Chest Springs","state":"PA","lat":40.5702,"long":-78.5991},{"zip":"16629","city":"Coupon","state":"PA","lat":40.5218,"long":-78.5263},{"zip":"16620","city":"Brisbin","state":"PA","lat":40.8387,"long":-78.3526},{"zip":"16627","city":"Coalport","state":"PA","lat":40.7503,"long":-78.5352},{"zip":"16621","city":"Broad Top","state":"PA","lat":40.2019,"long":-78.1406},{"zip":"16622","city":"Calvin","state":"PA","lat":40.4025,"long":-77.967},{"zip":"16623","city":"Cassville","state":"PA","lat":40.294,"long":-78.0272}]
