[{"zip":"16648","city":"Hollidaysburg","state":"PA","lat":40.4387,"long":-78.3686},{"zip":"16640","city":"Flinton","state":"PA","lat":40.6876,"long":-78.5523},{"zip":"16641","city":"Gallitzin","state":"PA","lat":40.4823,"long":-78.5517},{"zip":"16644","city":"Glasgow","state":"PA","lat":40.7178,"long":-78.4637},{"zip":"16646","city":"Hastings","state":"PA","lat":40.6659,"long":-78.7029},{"zip":"16645","city":"Glen Hope","state":"PA","lat":40.7984,"long":-78.4999},{"zip":"16647","city":"Hesston","state":"PA","lat":40.4121,"long":-78.1281}]
