[{"zip":"16650","city":"Hopewell","state":"PA","lat":40.1192,"long":-78.3129},{"zip":"16655","city":"Imler","state":"PA","lat":40.2067,"long":-78.5228},{"zip":"16659","city":"Loysburg","state":"PA","lat":40.1609,"long":-78.375},{"zip":"16651","city":"Houtzdale","state":"PA","lat":40.8305,"long":-78.3618},{"zip":"16656","city":"Irvona","state":"PA","lat":40.8017,"long":-78.5602},{"zip":"16652","city":"Huntingdon","state":"PA","lat":40.5023,"long":-78.005},{"zip":"16654","city":"Huntingdon","state":"PA","lat":40.4848,"long":-78.0103},{"zip":"16657","city":"James Creek","state":"PA","lat":40.3567,"long":-78.1887}]
