[{"zip":"16682","city":"Sproul","state":"PA","lat":40.2711,"long":-78.4588},{"zip":"16684","city":"Tipton","state":"PA","lat":40.6367,"long":-78.3036},{"zip":"16686","city":"Tyrone","state":"PA","lat":40.6619,"long":-78.2419},{"zip":"16680","city":"Smithmill","state":"PA","lat":40.7507,"long":-78.4012},{"zip":"16681","city":"Smokerun","state":"PA","lat":40.9891,"long":-78.4224},{"zip":"16689","city":"Waterfall","state":"PA","lat":40.1276,"long":-78.0628},{"zip":"16683","city":"Spruce Creek","state":"PA","lat":40.6218,"long":-78.1361},{"zip":"16685","city":"Todd","state":"PA","lat":40.271,"long":-78.0772}]
