[{"zip":"16832","city":"Coburn","state":"PA","lat":40.8383,"long":-77.4509},{"zip":"16835","city":"Fleming","state":"PA","lat":40.9046,"long":-77.8752},{"zip":"16830","city":"Clearfield","state":"PA","lat":41.021,"long":-78.4435},{"zip":"16833","city":"Curwensville","state":"PA","lat":40.966,"long":-78.5272},{"zip":"16834","city":"Drifting","state":"PA","lat":41.0242,"long":-78.1083},{"zip":"16836","city":"Frenchville","state":"PA","lat":41.1038,"long":-78.2345},{"zip":"16837","city":"Glen Richey","state":"PA","lat":40.9458,"long":-78.475},{"zip":"16838","city":"Grampian","state":"PA","lat":40.9818,"long":-78.5949},{"zip":"16839","city":"Grassflat","state":"PA","lat":41.0036,"long":-78.1104}]
