[{"zip":"17011","city":"Camp Hill","state":"PA","lat":40.2352,"long":-76.9291},{"zip":"17012","city":"Camp Hill","state":"PA","lat":40.2398,"long":-76.92},{"zip":"17013","city":"Carlisle","state":"PA","lat":40.2417,"long":-77.1983},{"zip":"17018","city":"Dauphin","state":"PA","lat":40.3846,"long":-76.9283},{"zip":"17014","city":"Cocolamus","state":"PA","lat":40.6479,"long":-77.2125},{"zip":"17010","city":"Campbelltown","state":"PA","lat":40.2776,"long":-76.5852},{"zip":"17016","city":"Cornwall","state":"PA","lat":40.2755,"long":-76.4053},{"zip":"17017","city":"Dalmatia","state":"PA","lat":40.6483,"long":-76.8797},{"zip":"17015","city":"Carlisle","state":"PA","lat":40.1772,"long":-77.2312},{"zip":"17019","city":"Dillsburg","state":"PA","lat":40.0964,"long":-77.0339}]
