[{"zip":"17043","city":"Lemoyne","state":"PA","lat":40.2469,"long":-76.9001},{"zip":"17048","city":"Lykens","state":"PA","lat":40.5909,"long":-76.7074},{"zip":"17049","city":"Mc Alisterville","state":"PA","lat":40.6469,"long":-77.2602},{"zip":"17041","city":"Lawn","state":"PA","lat":40.2236,"long":-76.538},{"zip":"17042","city":"Lebanon","state":"PA","lat":40.3316,"long":-76.3976},{"zip":"17046","city":"Lebanon","state":"PA","lat":40.3812,"long":-76.4368},{"zip":"17044","city":"Lewistown","state":"PA","lat":40.5994,"long":-77.5756},{"zip":"17040","city":"Landisburg","state":"PA","lat":40.3326,"long":-77.3191},{"zip":"17045","city":"Liverpool","state":"PA","lat":40.5753,"long":-77.0083},{"zip":"17047","city":"Loysville","state":"PA","lat":40.3658,"long":-77.4138}]
