[{"zip":"17211","city":"Artemas","state":"PA","lat":39.7575,"long":-78.4031},{"zip":"17210","city":"Amberson","state":"PA","lat":40.1717,"long":-77.6614},{"zip":"17214","city":"Blue Ridge Summit","state":"PA","lat":39.7399,"long":-77.4707},{"zip":"17217","city":"Concord","state":"PA","lat":40.2252,"long":-77.725},{"zip":"17219","city":"Doylesburg","state":"PA","lat":40.2184,"long":-77.6797},{"zip":"17212","city":"Big Cove Tannery","state":"PA","lat":39.8127,"long":-78.0645},{"zip":"17215","city":"Burnt Cabins","state":"PA","lat":40.0753,"long":-77.9017},{"zip":"17213","city":"Blairs Mills","state":"PA","lat":40.2548,"long":-77.7695}]
