[{"zip":"17520","city":"East Petersburg","state":"PA","lat":40.1008,"long":-76.3512},{"zip":"17521","city":"Elm","state":"PA","lat":40.2044,"long":-76.3464},{"zip":"17522","city":"Ephrata","state":"PA","lat":40.1756,"long":-76.1821},{"zip":"17527","city":"Gap","state":"PA","lat":40.002,"long":-75.9978},{"zip":"17528","city":"Goodville","state":"PA","lat":40.1257,"long":-76.0033},{"zip":"17529","city":"Gordonville","state":"PA","lat":40.0353,"long":-76.1106}]
