[{"zip":"17560","city":"New Providence","state":"PA","lat":39.9098,"long":-76.2243},{"zip":"17562","city":"Paradise","state":"PA","lat":39.9852,"long":-76.1081},{"zip":"17563","city":"Peach Bottom","state":"PA","lat":39.7705,"long":-76.1791},{"zip":"17564","city":"Penryn","state":"PA","lat":40.0185,"long":-76.2976},{"zip":"17565","city":"Pequea","state":"PA","lat":39.9058,"long":-76.3209},{"zip":"17566","city":"Quarryville","state":"PA","lat":39.8949,"long":-76.1465},{"zip":"17567","city":"Reamstown","state":"PA","lat":40.2099,"long":-76.1164},{"zip":"17568","city":"Refton","state":"PA","lat":39.9469,"long":-76.2322},{"zip":"17569","city":"Reinholds","state":"PA","lat":40.2688,"long":-76.1013}]
