[{"zip":"17580","city":"Talmage","state":"PA","lat":40.1168,"long":-76.2131},{"zip":"17581","city":"Terre Hill","state":"PA","lat":40.1585,"long":-76.0511},{"zip":"17582","city":"Washington Boro","state":"PA","lat":39.9881,"long":-76.4402},{"zip":"17583","city":"West Willow","state":"PA","lat":39.9723,"long":-76.2873},{"zip":"17584","city":"Willow Street","state":"PA","lat":39.967,"long":-76.2752},{"zip":"17585","city":"Witmer","state":"PA","lat":40.0484,"long":-76.2114}]
