[{"zip":"17778","city":"Westport","state":"PA","lat":41.2745,"long":-77.9315},{"zip":"17779","city":"Woolrich","state":"PA","lat":41.1948,"long":-77.3764},{"zip":"17771","city":"Trout Run","state":"PA","lat":41.4125,"long":-77.0098},{"zip":"17774","city":"Unityville","state":"PA","lat":41.2436,"long":-76.5183},{"zip":"17776","city":"Waterville","state":"PA","lat":41.3114,"long":-77.3604},{"zip":"17772","city":"Turbotville","state":"PA","lat":41.1119,"long":-76.7425},{"zip":"17777","city":"Watsontown","state":"PA","lat":41.102,"long":-76.8532}]
