[{"zip":"17951","city":"Mar Lin","state":"PA","lat":40.683,"long":-76.2387},{"zip":"17952","city":"Mary D","state":"PA","lat":40.7473,"long":-76.0628},{"zip":"17953","city":"Middleport","state":"PA","lat":40.7331,"long":-76.0858},{"zip":"17954","city":"Minersville","state":"PA","lat":40.6904,"long":-76.2597},{"zip":"17957","city":"Muir","state":"PA","lat":40.5926,"long":-76.5161},{"zip":"17959","city":"New Philadelphia","state":"PA","lat":40.7195,"long":-76.1158}]
