[{"zip":"18056","city":"Hereford","state":"PA","lat":40.4491,"long":-75.5491},{"zip":"18051","city":"Fogelsville","state":"PA","lat":40.593,"long":-75.6568},{"zip":"18052","city":"Whitehall","state":"PA","lat":40.6567,"long":-75.5041},{"zip":"18053","city":"Germansville","state":"PA","lat":40.7118,"long":-75.7147},{"zip":"18059","city":"Laurys Station","state":"PA","lat":40.7177,"long":-75.5335},{"zip":"18058","city":"Kunkletown","state":"PA","lat":40.8999,"long":-75.476},{"zip":"18054","city":"Green Lane","state":"PA","lat":40.3534,"long":-75.4351},{"zip":"18055","city":"Hellertown","state":"PA","lat":40.5817,"long":-75.3255}]
