[{"zip":"18320","city":"Analomink","state":"PA","lat":41.0712,"long":-75.2364},{"zip":"18321","city":"Bartonsville","state":"PA","lat":41.008,"long":-75.2967},{"zip":"18322","city":"Brodheadsville","state":"PA","lat":40.9309,"long":-75.4104},{"zip":"18323","city":"Buck Hill Falls","state":"PA","lat":41.0338,"long":-75.308},{"zip":"18325","city":"Canadensis","state":"PA","lat":41.2338,"long":-75.2573},{"zip":"18326","city":"Cresco","state":"PA","lat":41.154,"long":-75.2805},{"zip":"18327","city":"Delaware Water Gap","state":"PA","lat":40.9793,"long":-75.143},{"zip":"18324","city":"Bushkill","state":"PA","lat":41.1285,"long":-75.0132},{"zip":"18328","city":"Dingmans Ferry","state":"PA","lat":41.24,"long":-74.938}]
