[{"zip":"18341","city":"Minisink Hills","state":"PA","lat":41.0004,"long":-75.1371},{"zip":"18342","city":"Mountainhome","state":"PA","lat":41.1458,"long":-75.2941},{"zip":"18344","city":"Mount Pocono","state":"PA","lat":41.1216,"long":-75.3529},{"zip":"18346","city":"Pocono Summit","state":"PA","lat":41.1353,"long":-75.4079},{"zip":"18347","city":"Pocono Lake","state":"PA","lat":41.1187,"long":-75.5559},{"zip":"18348","city":"Pocono Lake Preserve","state":"PA","lat":41.0338,"long":-75.308},{"zip":"18349","city":"Pocono Manor","state":"PA","lat":41.1001,"long":-75.3588},{"zip":"18343","city":"Mount Bethel","state":"PA","lat":40.9008,"long":-75.1115},{"zip":"18340","city":"Millrift","state":"PA","lat":41.4093,"long":-74.7432}]
