[{"zip":"18420","city":"Fleetville","state":"PA","lat":41.5981,"long":-75.7146},{"zip":"18425","city":"Greeley","state":"PA","lat":41.4372,"long":-75.0125},{"zip":"18426","city":"Greentown","state":"PA","lat":41.3321,"long":-75.2819},{"zip":"18421","city":"Forest City","state":"PA","lat":41.6515,"long":-75.4666},{"zip":"18424","city":"Gouldsboro","state":"PA","lat":41.2448,"long":-75.5037},{"zip":"18427","city":"Hamlin","state":"PA","lat":41.4047,"long":-75.4069},{"zip":"18428","city":"Hawley","state":"PA","lat":41.4787,"long":-75.1978}]
