[{"zip":"18466","city":"Tobyhanna","state":"PA","lat":41.1836,"long":-75.3918},{"zip":"18464","city":"Tafton","state":"PA","lat":41.4045,"long":-75.183},{"zip":"18465","city":"Thompson","state":"PA","lat":41.834,"long":-75.5342},{"zip":"18460","city":"South Sterling","state":"PA","lat":41.2592,"long":-75.3731},{"zip":"18461","city":"Starlight","state":"PA","lat":41.9251,"long":-75.3212},{"zip":"18462","city":"Starrucca","state":"PA","lat":41.8907,"long":-75.449},{"zip":"18463","city":"Sterling","state":"PA","lat":41.377,"long":-75.316},{"zip":"18469","city":"Tyler Hill","state":"PA","lat":41.7011,"long":-75.1422}]
