[{"zip":"18829","city":"Le Raysville","state":"PA","lat":41.8434,"long":-76.1796},{"zip":"18820","city":"Gibson","state":"PA","lat":41.8034,"long":-75.6441},{"zip":"18821","city":"Great Bend","state":"PA","lat":41.9717,"long":-75.7432},{"zip":"18822","city":"Hallstead","state":"PA","lat":41.9598,"long":-75.7826},{"zip":"18823","city":"Harford","state":"PA","lat":41.7761,"long":-75.6935},{"zip":"18824","city":"Hop Bottom","state":"PA","lat":41.6932,"long":-75.7897},{"zip":"18825","city":"Jackson","state":"PA","lat":41.8203,"long":-75.8046},{"zip":"18826","city":"Kingsley","state":"PA","lat":41.7659,"long":-75.7831},{"zip":"18827","city":"Lanesboro","state":"PA","lat":41.957,"long":-75.5849},{"zip":"18828","city":"Lawton","state":"PA","lat":41.7573,"long":-76.0912}]
