[{"zip":"19067","city":"Morrisville","state":"PA","lat":40.2084,"long":-74.8291},{"zip":"19060","city":"Garnet Valley","state":"PA","lat":39.852,"long":-75.5007},{"zip":"19061","city":"Marcus Hook","state":"PA","lat":39.8295,"long":-75.4354},{"zip":"19063","city":"Media","state":"PA","lat":39.9188,"long":-75.3991},{"zip":"19064","city":"Springfield","state":"PA","lat":39.9296,"long":-75.3338},{"zip":"19065","city":"Media","state":"PA","lat":39.9211,"long":-75.3861},{"zip":"19066","city":"Merion Station","state":"PA","lat":40.003,"long":-75.2503}]
