[{"zip":"19310","city":"Atglen","state":"PA","lat":39.9458,"long":-75.9703},{"zip":"19311","city":"Avondale","state":"PA","lat":39.8219,"long":-75.7687},{"zip":"19312","city":"Berwyn","state":"PA","lat":40.0412,"long":-75.4475},{"zip":"19316","city":"Brandamore","state":"PA","lat":40.055,"long":-75.8378},{"zip":"19318","city":"Chatham","state":"PA","lat":39.8524,"long":-75.8118},{"zip":"19317","city":"Chadds Ford","state":"PA","lat":39.8648,"long":-75.5885},{"zip":"19319","city":"Cheyney","state":"PA","lat":39.9209,"long":-75.5222}]
