[{"zip":"19503","city":"Bally","state":"PA","lat":40.405,"long":-75.5769},{"zip":"19504","city":"Barto","state":"PA","lat":40.3815,"long":-75.5749},{"zip":"19505","city":"Bechtelsville","state":"PA","lat":40.3795,"long":-75.6257},{"zip":"19506","city":"Bernville","state":"PA","lat":40.4551,"long":-76.1247},{"zip":"19507","city":"Bethel","state":"PA","lat":40.4808,"long":-76.2742},{"zip":"19508","city":"Birdsboro","state":"PA","lat":40.2563,"long":-75.8344},{"zip":"19501","city":"Adamstown","state":"PA","lat":40.2423,"long":-76.0577}]
