[{"zip":"19522","city":"Fleetwood","state":"PA","lat":40.4473,"long":-75.8185},{"zip":"19523","city":"Geigertown","state":"PA","lat":40.1897,"long":-75.8881},{"zip":"19526","city":"Hamburg","state":"PA","lat":40.5488,"long":-75.9874},{"zip":"19529","city":"Kempton","state":"PA","lat":40.6328,"long":-75.8513},{"zip":"19520","city":"Elverson","state":"PA","lat":40.1568,"long":-75.7866},{"zip":"19525","city":"Gilbertsville","state":"PA","lat":40.3059,"long":-75.5953}]
