[{"zip":"19530","city":"Kutztown","state":"PA","lat":40.5214,"long":-75.7774},{"zip":"19533","city":"Leesport","state":"PA","lat":40.4152,"long":-75.9944},{"zip":"19534","city":"Lenhartsville","state":"PA","lat":40.5736,"long":-75.865},{"zip":"19535","city":"Limekiln","state":"PA","lat":40.3356,"long":-75.801},{"zip":"19536","city":"Lyon Station","state":"PA","lat":40.5218,"long":-75.7419},{"zip":"19538","city":"Maxatawny","state":"PA","lat":40.5698,"long":-75.7409},{"zip":"19539","city":"Mertztown","state":"PA","lat":40.4992,"long":-75.6872}]
