[{"zip":"19934","city":"Camden Wyoming","state":"DE","lat":39.0991,"long":-75.5966},{"zip":"19936","city":"Cheswold","state":"DE","lat":39.2184,"long":-75.5848},{"zip":"19938","city":"Clayton","state":"DE","lat":39.2564,"long":-75.6904},{"zip":"19930","city":"Bethany Beach","state":"DE","lat":38.531,"long":-75.0674},{"zip":"19931","city":"Bethel","state":"DE","lat":38.5685,"long":-75.6243},{"zip":"19933","city":"Bridgeville","state":"DE","lat":38.7366,"long":-75.6088},{"zip":"19939","city":"Dagsboro","state":"DE","lat":38.5596,"long":-75.2113}]
