[{"zip":"20629","city":"Dowell","state":"MD","lat":38.3364,"long":-76.4524},{"zip":"20625","city":"Cobb Island","state":"MD","lat":38.262,"long":-76.8502},{"zip":"20623","city":"Cheltenham","state":"MD","lat":38.7531,"long":-76.8369},{"zip":"20620","city":"Callaway","state":"MD","lat":38.2275,"long":-76.521},{"zip":"20621","city":"Chaptico","state":"MD","lat":38.351,"long":-76.7833},{"zip":"20622","city":"Charlotte Hall","state":"MD","lat":38.475,"long":-76.8038},{"zip":"20624","city":"Clements","state":"MD","lat":38.3407,"long":-76.7264},{"zip":"20626","city":"Coltons Point","state":"MD","lat":38.237,"long":-76.7646},{"zip":"20627","city":"Compton","state":"MD","lat":38.2768,"long":-76.704},{"zip":"20628","city":"Dameron","state":"MD","lat":38.1533,"long":-76.3575}]
