[{"zip":"20764","city":"Shady Side","state":"MD","lat":38.8368,"long":-76.5109},{"zip":"20765","city":"Galesville","state":"MD","lat":38.8446,"long":-76.5456},{"zip":"20763","city":"Savage","state":"MD","lat":39.138,"long":-76.8218},{"zip":"20762","city":"Andrews Air Force Base","state":"MD","lat":38.8062,"long":-76.8756},{"zip":"20768","city":"Greenbelt","state":"MD","lat":39.0046,"long":-76.8755},{"zip":"20769","city":"Glenn Dale","state":"MD","lat":38.9766,"long":-76.8053}]
