[{"zip":"21082","city":"Hydes","state":"MD","lat":39.474,"long":-76.4695},{"zip":"21087","city":"Kingsville","state":"MD","lat":39.4558,"long":-76.4147},{"zip":"21088","city":"Lineboro","state":"MD","lat":39.7187,"long":-76.8439},{"zip":"21084","city":"Jarrettsville","state":"MD","lat":39.6162,"long":-76.4684},{"zip":"21085","city":"Joppa","state":"MD","lat":39.4242,"long":-76.3541}]
