[{"zip":"21530","city":"Flintstone","state":"MD","lat":39.6993,"long":-78.5739},{"zip":"21532","city":"Frostburg","state":"MD","lat":39.6494,"long":-78.9306},{"zip":"21539","city":"Lonaconing","state":"MD","lat":39.5757,"long":-78.9915},{"zip":"21531","city":"Friendsville","state":"MD","lat":39.6665,"long":-79.4219},{"zip":"21536","city":"Grantsville","state":"MD","lat":39.6551,"long":-79.1241},{"zip":"21538","city":"Kitzmiller","state":"MD","lat":39.4169,"long":-79.2222}]
