[{"zip":"21757","city":"Keymar","state":"MD","lat":39.5656,"long":-77.2817},{"zip":"21754","city":"Ijamsville","state":"MD","lat":39.3267,"long":-77.2964},{"zip":"21755","city":"Jefferson","state":"MD","lat":39.3653,"long":-77.5441},{"zip":"21758","city":"Knoxville","state":"MD","lat":39.3479,"long":-77.6513},{"zip":"21759","city":"Ladiesburg","state":"MD","lat":39.5694,"long":-77.2905},{"zip":"21750","city":"Hancock","state":"MD","lat":39.6991,"long":-78.1762},{"zip":"21756","city":"Keedysville","state":"MD","lat":39.4563,"long":-77.6944}]
