[{"zip":"21791","city":"Union Bridge","state":"MD","lat":39.5799,"long":-77.1319},{"zip":"21797","city":"Woodbine","state":"MD","lat":39.3464,"long":-77.0647},{"zip":"21790","city":"Tuscarora","state":"MD","lat":39.2667,"long":-77.5101},{"zip":"21792","city":"Unionville","state":"MD","lat":39.4748,"long":-77.1855},{"zip":"21793","city":"Walkersville","state":"MD","lat":39.4787,"long":-77.3484},{"zip":"21798","city":"Woodsboro","state":"MD","lat":39.5311,"long":-77.2972},{"zip":"21794","city":"West Friendship","state":"MD","lat":39.2934,"long":-76.966},{"zip":"21795","city":"Williamsport","state":"MD","lat":39.593,"long":-77.8087}]
