[{"zip":"22535","city":"Port Royal","state":"VA","lat":38.1621,"long":-77.1837},{"zip":"22538","city":"Rappahannock Academy","state":"VA","lat":38.2079,"long":-77.2502},{"zip":"22530","city":"Ophelia","state":"VA","lat":37.9094,"long":-76.2934},{"zip":"22539","city":"Reedville","state":"VA","lat":37.857,"long":-76.2829},{"zip":"22534","city":"Partlow","state":"VA","lat":38.0641,"long":-77.6586}]
