[{"zip":"22931","city":"Covesville","state":"VA","lat":37.908,"long":-78.7127},{"zip":"22932","city":"Crozet","state":"VA","lat":38.1296,"long":-78.7106},{"zip":"22936","city":"Earlysville","state":"VA","lat":38.1578,"long":-78.4919},{"zip":"22937","city":"Esmont","state":"VA","lat":37.8125,"long":-78.6106},{"zip":"22939","city":"Fishersville","state":"VA","lat":38.0964,"long":-78.9929},{"zip":"22935","city":"Dyke","state":"VA","lat":38.2705,"long":-78.5578},{"zip":"22938","city":"Faber","state":"VA","lat":37.8475,"long":-78.7565}]
