[{"zip":"22940","city":"Free Union","state":"VA","lat":38.1944,"long":-78.5849},{"zip":"22943","city":"Greenwood","state":"VA","lat":38.0415,"long":-78.7833},{"zip":"22945","city":"Ivy","state":"VA","lat":38.0654,"long":-78.5958},{"zip":"22946","city":"Keene","state":"VA","lat":37.856,"long":-78.5699},{"zip":"22947","city":"Keswick","state":"VA","lat":38.0531,"long":-78.3396},{"zip":"22948","city":"Locust Dale","state":"VA","lat":38.3572,"long":-78.1229},{"zip":"22949","city":"Lovingston","state":"VA","lat":37.7924,"long":-78.8684},{"zip":"22942","city":"Gordonsville","state":"VA","lat":38.1759,"long":-78.1815}]
