[{"zip":"23027","city":"Cartersville","state":"VA","lat":37.6479,"long":-78.1389},{"zip":"23022","city":"Bremo Bluff","state":"VA","lat":37.7453,"long":-78.2672},{"zip":"23023","city":"Bruington","state":"VA","lat":37.7801,"long":-76.9402},{"zip":"23024","city":"Bumpass","state":"VA","lat":37.8984,"long":-77.7966},{"zip":"23021","city":"Bohannon","state":"VA","lat":37.3905,"long":-76.3614},{"zip":"23025","city":"Cardinal","state":"VA","lat":37.4128,"long":-76.3616}]
