[{"zip":"23083","city":"Jetersville","state":"VA","lat":37.3176,"long":-78.104},{"zip":"23084","city":"Kents Store","state":"VA","lat":37.8942,"long":-78.1208},{"zip":"23081","city":"Jamestown","state":"VA","lat":37.2235,"long":-76.7833},{"zip":"23085","city":"King And Queen Court House","state":"VA","lat":37.6699,"long":-76.8775},{"zip":"23086","city":"King William","state":"VA","lat":37.7202,"long":-77.0998},{"zip":"23089","city":"Lanexa","state":"VA","lat":37.4194,"long":-76.9027}]
