[{"zip":"23831","city":"Chester","state":"VA","lat":37.3429,"long":-77.4156},{"zip":"23832","city":"Chesterfield","state":"VA","lat":37.3923,"long":-77.5668},{"zip":"23836","city":"Chester","state":"VA","lat":37.3475,"long":-77.3386},{"zip":"23838","city":"Chesterfield","state":"VA","lat":37.3333,"long":-77.6343},{"zip":"23830","city":"Carson","state":"VA","lat":37.0393,"long":-77.4351},{"zip":"23833","city":"Church Road","state":"VA","lat":37.195,"long":-77.6646},{"zip":"23837","city":"Courtland","state":"VA","lat":36.7225,"long":-77.0783},{"zip":"23839","city":"Dendron","state":"VA","lat":37.0981,"long":-76.8966},{"zip":"23834","city":"Colonial Heights","state":"VA","lat":37.27,"long":-77.4038}]
