[{"zip":"23920","city":"Brodnax","state":"VA","lat":36.7319,"long":-77.9898},{"zip":"23921","city":"Buckingham","state":"VA","lat":37.5833,"long":-78.5985},{"zip":"23923","city":"Charlotte Court House","state":"VA","lat":37.0879,"long":-78.6378},{"zip":"23924","city":"Chase City","state":"VA","lat":36.8053,"long":-78.4553},{"zip":"23927","city":"Clarksville","state":"VA","lat":36.624,"long":-78.5569},{"zip":"23922","city":"Burkeville","state":"VA","lat":37.1952,"long":-78.1961}]
