[{"zip":"24083","city":"Daleville","state":"VA","lat":37.4125,"long":-79.9211},{"zip":"24085","city":"Eagle Rock","state":"VA","lat":37.6667,"long":-79.8172},{"zip":"24088","city":"Ferrum","state":"VA","lat":36.9168,"long":-80.0349},{"zip":"24086","city":"Eggleston","state":"VA","lat":37.2743,"long":-80.6343},{"zip":"24089","city":"Fieldale","state":"VA","lat":36.7064,"long":-79.9652},{"zip":"24082","city":"Critz","state":"VA","lat":36.6211,"long":-80.1298},{"zip":"24084","city":"Dublin","state":"VA","lat":37.1057,"long":-80.6853},{"zip":"24087","city":"Elliston","state":"VA","lat":37.2165,"long":-80.2325}]
