[{"zip":"24220","city":"Birchleaf","state":"VA","lat":37.1394,"long":-82.2433},{"zip":"24226","city":"Clinchco","state":"VA","lat":37.1406,"long":-82.3425},{"zip":"24228","city":"Clintwood","state":"VA","lat":37.1592,"long":-82.4453},{"zip":"24221","city":"Blackwater","state":"VA","lat":36.639,"long":-82.9866},{"zip":"24224","city":"Castlewood","state":"VA","lat":36.8764,"long":-82.2876},{"zip":"24225","city":"Cleveland","state":"VA","lat":36.9502,"long":-82.1318}]
