[{"zip":"24474","city":"Selma","state":"VA","lat":37.8062,"long":-79.8404},{"zip":"24476","city":"Steeles Tavern","state":"VA","lat":37.9705,"long":-79.2233},{"zip":"24477","city":"Stuarts Draft","state":"VA","lat":38.0144,"long":-79.0298},{"zip":"24479","city":"Swoope","state":"VA","lat":38.1591,"long":-79.1873},{"zip":"24472","city":"Raphine","state":"VA","lat":37.9374,"long":-79.2219},{"zip":"24473","city":"Rockbridge Baths","state":"VA","lat":37.8965,"long":-79.3874},{"zip":"24471","city":"Port Republic","state":"VA","lat":38.3226,"long":-78.7886}]
