[{"zip":"24521","city":"Amherst","state":"VA","lat":37.6027,"long":-79.0506},{"zip":"24522","city":"Appomattox","state":"VA","lat":37.353,"long":-78.8224},{"zip":"24526","city":"Big Island","state":"VA","lat":37.5306,"long":-79.3827},{"zip":"24528","city":"Brookneal","state":"VA","lat":37.0827,"long":-78.9227},{"zip":"24520","city":"Alton","state":"VA","lat":36.5894,"long":-79.0202},{"zip":"24529","city":"Buffalo Junction","state":"VA","lat":36.6168,"long":-78.6093},{"zip":"24527","city":"Blairs","state":"VA","lat":36.6799,"long":-79.3731},{"zip":"24523","city":"Bedford","state":"VA","lat":37.3153,"long":-79.5331}]
