[{"zip":"24811","city":"Avondale","state":"WV","lat":37.4126,"long":-81.7843},{"zip":"24813","city":"Bartley","state":"WV","lat":37.3407,"long":-81.7376},{"zip":"24815","city":"Berwind","state":"WV","lat":37.2687,"long":-81.6668},{"zip":"24816","city":"Big Sandy","state":"WV","lat":37.4643,"long":-81.6982},{"zip":"24817","city":"Bradshaw","state":"WV","lat":37.3518,"long":-81.7987},{"zip":"24818","city":"Brenton","state":"WV","lat":37.5988,"long":-81.6264}]
