[{"zip":"24861","city":"Maybeury","state":"WV","lat":37.3709,"long":-81.3665},{"zip":"24862","city":"Mohawk","state":"WV","lat":37.5048,"long":-81.9151},{"zip":"24866","city":"Newhall","state":"WV","lat":37.2637,"long":-81.6187},{"zip":"24868","city":"Northfork","state":"WV","lat":37.4194,"long":-81.4058},{"zip":"24860","city":"Matheny","state":"WV","lat":37.6624,"long":-81.607},{"zip":"24867","city":"New Richmond","state":"WV","lat":37.5701,"long":-81.4887},{"zip":"24869","city":"North Spring","state":"WV","lat":37.5682,"long":-81.8254}]
