[{"zip":"25030","city":"Bomont","state":"WV","lat":38.4498,"long":-81.2323},{"zip":"25031","city":"Boomer","state":"WV","lat":38.1519,"long":-81.2656},{"zip":"25036","city":"Cannelton","state":"WV","lat":38.1943,"long":-81.2959},{"zip":"25035","city":"Cabin Creek","state":"WV","lat":38.193,"long":-81.4984},{"zip":"25039","city":"Cedar Grove","state":"WV","lat":38.2212,"long":-81.4279},{"zip":"25033","city":"Buffalo","state":"WV","lat":38.6092,"long":-81.95}]
