[{"zip":"25142","city":"Nellis","state":"WV","lat":38.153,"long":-81.7321},{"zip":"25148","city":"Orgas","state":"WV","lat":38.0492,"long":-81.5688},{"zip":"25149","city":"Ottawa","state":"WV","lat":37.9971,"long":-81.717},{"zip":"25141","city":"Nebo","state":"WV","lat":38.6271,"long":-81.0257},{"zip":"25143","city":"Nitro","state":"WV","lat":38.4193,"long":-81.8293},{"zip":"25140","city":"Naoma","state":"WV","lat":37.8676,"long":-81.4873}]
