[{"zip":"25413","city":"Bunker Hill","state":"WV","lat":39.3276,"long":-78.0487},{"zip":"25419","city":"Falling Waters","state":"WV","lat":39.5865,"long":-77.8852},{"zip":"25410","city":"Bakerton","state":"WV","lat":39.3159,"long":-77.8772},{"zip":"25414","city":"Charles Town","state":"WV","lat":39.2771,"long":-77.8563},{"zip":"25411","city":"Berkeley Springs","state":"WV","lat":39.5526,"long":-78.1877}]
