[{"zip":"25529","city":"Julian","state":"WV","lat":38.1264,"long":-81.8642},{"zip":"25521","city":"Griffithsville","state":"WV","lat":38.2197,"long":-81.9995},{"zip":"25523","city":"Hamlin","state":"WV","lat":38.2896,"long":-82.1047},{"zip":"25524","city":"Harts","state":"WV","lat":38.0341,"long":-82.1008},{"zip":"25520","city":"Glenwood","state":"WV","lat":38.5909,"long":-82.1773},{"zip":"25526","city":"Hurricane","state":"WV","lat":38.4257,"long":-81.9943}]
