[{"zip":"25879","city":"Minden","state":"WV","lat":37.9758,"long":-81.115},{"zip":"25871","city":"Mabscott","state":"WV","lat":37.77,"long":-81.2103},{"zip":"25873","city":"Mac Arthur","state":"WV","lat":37.7517,"long":-81.2148},{"zip":"25878","city":"Midway","state":"WV","lat":37.7171,"long":-81.24},{"zip":"25870","city":"Maben","state":"WV","lat":37.6108,"long":-81.5059},{"zip":"25875","city":"Mc Graws","state":"WV","lat":37.6033,"long":-81.54},{"zip":"25876","city":"Saulsville","state":"WV","lat":37.6429,"long":-81.4568}]
