[{"zip":"25976","city":"Meadow Bridge","state":"WV","lat":37.878,"long":-80.8521},{"zip":"25972","city":"Leslie","state":"WV","lat":38.0446,"long":-80.7229},{"zip":"25971","city":"Lerona","state":"WV","lat":37.4925,"long":-80.9796},{"zip":"25977","city":"Meadow Creek","state":"WV","lat":37.8101,"long":-80.9231},{"zip":"25978","city":"Nimitz","state":"WV","lat":37.6286,"long":-80.9446},{"zip":"25979","city":"Pipestem","state":"WV","lat":37.5303,"long":-80.9463}]
