[{"zip":"26202","city":"Fenwick","state":"WV","lat":38.2447,"long":-80.635},{"zip":"26205","city":"Craigsville","state":"WV","lat":38.3254,"long":-80.6444},{"zip":"26209","city":"Snowshoe","state":"WV","lat":38.388,"long":-79.9906},{"zip":"26201","city":"Buckhannon","state":"WV","lat":38.9755,"long":-80.2407},{"zip":"26203","city":"Erbacon","state":"WV","lat":38.5419,"long":-80.5742},{"zip":"26206","city":"Cowen","state":"WV","lat":38.4133,"long":-80.5358},{"zip":"26208","city":"Camden On Gauley","state":"WV","lat":38.3871,"long":-80.5907}]
