[{"zip":"26275","city":"Junior","state":"WV","lat":38.9784,"long":-79.9494},{"zip":"26270","city":"Harman","state":"WV","lat":38.9234,"long":-79.5246},{"zip":"26273","city":"Huttonsville","state":"WV","lat":38.6784,"long":-79.9775},{"zip":"26276","city":"Kerens","state":"WV","lat":39.0299,"long":-79.7754},{"zip":"26278","city":"Mabie","state":"WV","lat":38.8765,"long":-79.9831},{"zip":"26271","city":"Hendricks","state":"WV","lat":39.0748,"long":-79.6303}]
