[{"zip":"26521","city":"Blacksville","state":"WV","lat":39.7142,"long":-80.2265},{"zip":"26527","city":"Cassville","state":"WV","lat":39.6656,"long":-80.0637},{"zip":"26520","city":"Arthurdale","state":"WV","lat":39.4951,"long":-79.8151},{"zip":"26524","city":"Bretz","state":"WV","lat":39.5423,"long":-79.8006},{"zip":"26525","city":"Bruceton Mills","state":"WV","lat":39.6454,"long":-79.6159}]
