[{"zip":"26541","city":"Maidsville","state":"WV","lat":39.6884,"long":-79.9801},{"zip":"26543","city":"Osage","state":"WV","lat":39.6587,"long":-80.0076},{"zip":"26544","city":"Pentress","state":"WV","lat":39.5785,"long":-80.093},{"zip":"26546","city":"Pursglove","state":"WV","lat":39.6746,"long":-80.035},{"zip":"26542","city":"Masontown","state":"WV","lat":39.5731,"long":-79.7906},{"zip":"26547","city":"Reedsville","state":"WV","lat":39.5127,"long":-79.812}]
