[{"zip":"26817","city":"Bloomery","state":"WV","lat":39.3604,"long":-78.3917},{"zip":"26810","city":"Lost City","state":"WV","lat":38.9812,"long":-78.7448},{"zip":"26812","city":"Mathias","state":"WV","lat":38.8744,"long":-78.8814},{"zip":"26818","city":"Fisher","state":"WV","lat":39.075,"long":-79.0342},{"zip":"26814","city":"Riverton","state":"WV","lat":38.744,"long":-79.4359},{"zip":"26815","city":"Sugar Grove","state":"WV","lat":38.489,"long":-79.3593}]
