[{"zip":"27014","city":"Cooleemee","state":"NC","lat":35.8104,"long":-80.5559},{"zip":"27010","city":"Bethania","state":"NC","lat":36.183,"long":-80.3387},{"zip":"27012","city":"Clemmons","state":"NC","lat":36.0341,"long":-80.3962},{"zip":"27013","city":"Cleveland","state":"NC","lat":35.7374,"long":-80.7113},{"zip":"27016","city":"Danbury","state":"NC","lat":36.4559,"long":-80.2194},{"zip":"27019","city":"Germanton","state":"NC","lat":36.2725,"long":-80.2254},{"zip":"27017","city":"Dobson","state":"NC","lat":36.3698,"long":-80.7101},{"zip":"27011","city":"Boonville","state":"NC","lat":36.234,"long":-80.6357},{"zip":"27018","city":"East Bend","state":"NC","lat":36.2032,"long":-80.5284}]
