[{"zip":"27028","city":"Mocksville","state":"NC","lat":35.922,"long":-80.537},{"zip":"27023","city":"Lewisville","state":"NC","lat":36.0967,"long":-80.4206},{"zip":"27025","city":"Madison","state":"NC","lat":36.3695,"long":-79.9654},{"zip":"27027","city":"Mayodan","state":"NC","lat":36.4277,"long":-79.9567},{"zip":"27021","city":"King","state":"NC","lat":36.295,"long":-80.356},{"zip":"27022","city":"Lawsonville","state":"NC","lat":36.5132,"long":-80.2103},{"zip":"27024","city":"Lowgap","state":"NC","lat":36.503,"long":-80.7889},{"zip":"27020","city":"Hamptonville","state":"NC","lat":36.1242,"long":-80.8137}]
