[{"zip":"27253","city":"Graham","state":"NC","lat":36.031,"long":-79.3814},{"zip":"27258","city":"Haw River","state":"NC","lat":36.0915,"long":-79.3642},{"zip":"27252","city":"Goldston","state":"NC","lat":35.5643,"long":-79.3385},{"zip":"27256","city":"Gulf","state":"NC","lat":35.5604,"long":-79.2817},{"zip":"27259","city":"Highfalls","state":"NC","lat":35.4921,"long":-79.479}]
