[{"zip":"27379","city":"Yanceyville","state":"NC","lat":36.3907,"long":-79.3465},{"zip":"27373","city":"Wallburg","state":"NC","lat":36.0101,"long":-80.1392},{"zip":"27374","city":"Welcome","state":"NC","lat":35.9029,"long":-80.257},{"zip":"27377","city":"Whitsett","state":"NC","lat":36.033,"long":-79.5972},{"zip":"27371","city":"Troy","state":"NC","lat":35.3777,"long":-79.9093},{"zip":"27376","city":"West End","state":"NC","lat":35.2512,"long":-79.536},{"zip":"27370","city":"Trinity","state":"NC","lat":35.8429,"long":-79.9902},{"zip":"27375","city":"Wentworth","state":"NC","lat":36.3921,"long":-79.7731}]
