[{"zip":"27525","city":"Franklinton","state":"NC","lat":36.0955,"long":-78.4486},{"zip":"27522","city":"Creedmoor","state":"NC","lat":36.1224,"long":-78.6861},{"zip":"27527","city":"Clayton","state":"NC","lat":35.6577,"long":-78.3837},{"zip":"27528","city":"Clayton","state":"NC","lat":35.6555,"long":-78.4611},{"zip":"27521","city":"Coats","state":"NC","lat":35.4082,"long":-78.6627},{"zip":"27520","city":"Clayton","state":"NC","lat":35.6348,"long":-78.451},{"zip":"27524","city":"Four Oaks","state":"NC","lat":35.404,"long":-78.4153},{"zip":"27523","city":"Apex","state":"NC","lat":35.7225,"long":-78.8408},{"zip":"27526","city":"Fuquay Varina","state":"NC","lat":35.58,"long":-78.7908},{"zip":"27529","city":"Garner","state":"NC","lat":35.6813,"long":-78.5975}]
