[{"zip":"27565","city":"Oxford","state":"NC","lat":36.3313,"long":-78.6134},{"zip":"27568","city":"Pine Level","state":"NC","lat":35.4883,"long":-78.2179},{"zip":"27569","city":"Princeton","state":"NC","lat":35.4558,"long":-78.1674},{"zip":"27560","city":"Morrisville","state":"NC","lat":35.8344,"long":-78.8466},{"zip":"27562","city":"New Hill","state":"NC","lat":35.6809,"long":-78.9365},{"zip":"27563","city":"Norlina","state":"NC","lat":36.4754,"long":-78.1895}]
