[{"zip":"27860","city":"Pantego","state":"NC","lat":35.6201,"long":-76.6988},{"zip":"27865","city":"Pinetown","state":"NC","lat":35.5758,"long":-76.8076},{"zip":"27864","city":"Pinetops","state":"NC","lat":35.7885,"long":-77.6378},{"zip":"27861","city":"Parmele","state":"NC","lat":35.8165,"long":-77.3141},{"zip":"27868","city":"Red Oak","state":"NC","lat":36.0548,"long":-77.9116},{"zip":"27862","city":"Pendleton","state":"NC","lat":36.4937,"long":-77.1911},{"zip":"27866","city":"Pleasant Hill","state":"NC","lat":36.5212,"long":-77.5192},{"zip":"27867","city":"Potecasi","state":"NC","lat":36.3632,"long":-77.2391},{"zip":"27869","city":"Rich Square","state":"NC","lat":36.2773,"long":-77.2969},{"zip":"27863","city":"Pikeville","state":"NC","lat":35.4929,"long":-77.9578}]
