[{"zip":"27889","city":"Washington","state":"NC","lat":35.5884,"long":-77.1404},{"zip":"27881","city":"Speed","state":"NC","lat":35.9159,"long":-77.5855},{"zip":"27886","city":"Tarboro","state":"NC","lat":35.8983,"long":-77.5421},{"zip":"27888","city":"Walstonburg","state":"NC","lat":35.5882,"long":-77.6983},{"zip":"27887","city":"Tillery","state":"NC","lat":36.2352,"long":-77.5026},{"zip":"27885","city":"Swanquarter","state":"NC","lat":35.4222,"long":-76.2875},{"zip":"27882","city":"Spring Hope","state":"NC","lat":35.9302,"long":-78.1085},{"zip":"27884","city":"Stokes","state":"NC","lat":35.7104,"long":-77.2722},{"zip":"27880","city":"Sims","state":"NC","lat":35.7435,"long":-78.0859},{"zip":"27883","city":"Stantonsburg","state":"NC","lat":35.594,"long":-77.8378}]
