[{"zip":"28091","city":"Lilesville","state":"NC","lat":34.9689,"long":-79.9721},{"zip":"28090","city":"Lawndale","state":"NC","lat":35.4449,"long":-81.5336},{"zip":"28098","city":"Lowell","state":"NC","lat":35.2655,"long":-81.096},{"zip":"28092","city":"Lincolnton","state":"NC","lat":35.4851,"long":-81.1818},{"zip":"28093","city":"Lincolnton","state":"NC","lat":35.4848,"long":-81.2395},{"zip":"28097","city":"Locust","state":"NC","lat":35.2704,"long":-80.4211}]
