[{"zip":"28133","city":"Peachland","state":"NC","lat":35.0054,"long":-80.2829},{"zip":"28135","city":"Polkton","state":"NC","lat":34.9823,"long":-80.1538},{"zip":"28136","city":"Polkville","state":"NC","lat":35.3961,"long":-81.6303},{"zip":"28130","city":"Paw Creek","state":"NC","lat":35.26,"long":-80.8042},{"zip":"28134","city":"Pineville","state":"NC","lat":35.0709,"long":-80.8859},{"zip":"28138","city":"Rockwell","state":"NC","lat":35.5494,"long":-80.4226},{"zip":"28139","city":"Rutherfordton","state":"NC","lat":35.3706,"long":-81.9781},{"zip":"28137","city":"Richfield","state":"NC","lat":35.4541,"long":-80.2838}]
