[{"zip":"28376","city":"Raeford","state":"NC","lat":34.989,"long":-79.2228},{"zip":"28370","city":"Pinehurst","state":"NC","lat":35.2162,"long":-79.4524},{"zip":"28373","city":"Pinebluff","state":"NC","lat":35.1007,"long":-79.4663},{"zip":"28374","city":"Pinehurst","state":"NC","lat":35.1884,"long":-79.4732},{"zip":"28379","city":"Rockingham","state":"NC","lat":34.9336,"long":-79.7666},{"zip":"28371","city":"Parkton","state":"NC","lat":34.9006,"long":-78.9969},{"zip":"28372","city":"Pembroke","state":"NC","lat":34.6902,"long":-79.1834},{"zip":"28375","city":"Proctorville","state":"NC","lat":34.4713,"long":-79.0414},{"zip":"28377","city":"Red Springs","state":"NC","lat":34.8083,"long":-79.1636},{"zip":"28378","city":"Rex","state":"NC","lat":34.8543,"long":-79.0642}]
