[{"zip":"28581","city":"Stacy","state":"NC","lat":34.8412,"long":-76.4289},{"zip":"28582","city":"Stella","state":"NC","lat":34.7777,"long":-77.1308},{"zip":"28589","city":"Williston","state":"NC","lat":34.7893,"long":-76.5052},{"zip":"28586","city":"Vanceboro","state":"NC","lat":35.3063,"long":-77.1716},{"zip":"28580","city":"Snow Hill","state":"NC","lat":35.4438,"long":-77.6956},{"zip":"28585","city":"Trenton","state":"NC","lat":35.0745,"long":-77.4595},{"zip":"28584","city":"Swansboro","state":"NC","lat":34.6991,"long":-77.135},{"zip":"28583","city":"Stonewall","state":"NC","lat":35.1371,"long":-76.7406},{"zip":"28587","city":"Vandemere","state":"NC","lat":35.1913,"long":-76.6604}]
