[{"zip":"28640","city":"Jefferson","state":"NC","lat":36.409,"long":-81.4396},{"zip":"28643","city":"Lansing","state":"NC","lat":36.5176,"long":-81.5269},{"zip":"28644","city":"Laurel Springs","state":"NC","lat":36.4449,"long":-81.2606},{"zip":"28646","city":"Linville","state":"NC","lat":36.0665,"long":-81.8704},{"zip":"28641","city":"Jonas Ridge","state":"NC","lat":35.9726,"long":-81.8948},{"zip":"28647","city":"Linville Falls","state":"NC","lat":35.9593,"long":-81.9429},{"zip":"28645","city":"Lenoir","state":"NC","lat":35.9149,"long":-81.5398},{"zip":"28649","city":"Mc Grady","state":"NC","lat":36.3103,"long":-81.1912},{"zip":"28642","city":"Jonesville","state":"NC","lat":36.2286,"long":-80.787}]
