[{"zip":"28728","city":"Enka","state":"NC","lat":35.4988,"long":-82.708},{"zip":"28721","city":"Clyde","state":"NC","lat":35.5597,"long":-82.9216},{"zip":"28724","city":"Dana","state":"NC","lat":35.3293,"long":-82.3754},{"zip":"28726","city":"East Flat Rock","state":"NC","lat":35.2799,"long":-82.4204},{"zip":"28727","city":"Edneyville","state":"NC","lat":35.394,"long":-82.3409},{"zip":"28729","city":"Etowah","state":"NC","lat":35.3172,"long":-82.5977},{"zip":"28723","city":"Cullowhee","state":"NC","lat":35.2409,"long":-83.1475},{"zip":"28725","city":"Dillsboro","state":"NC","lat":35.3735,"long":-83.2592},{"zip":"28722","city":"Columbus","state":"NC","lat":35.2532,"long":-82.1971},{"zip":"28720","city":"Chimney Rock","state":"NC","lat":35.4369,"long":-82.2417}]
