[{"zip":"29620","city":"Abbeville","state":"SC","lat":34.1819,"long":-82.3785},{"zip":"29628","city":"Calhoun Falls","state":"SC","lat":34.0999,"long":-82.5805},{"zip":"29638","city":"Donalds","state":"SC","lat":34.3304,"long":-82.3367},{"zip":"29639","city":"Due West","state":"SC","lat":34.3344,"long":-82.4002},{"zip":"29659","city":"Lowndesville","state":"SC","lat":34.2126,"long":-82.6496},{"zip":"29137","city":"Salley","state":"SC","lat":33.5972,"long":-81.3184},{"zip":"29164","city":"Wagener","state":"SC","lat":33.6494,"long":-81.3995},{"zip":"29801","city":"Aiken","state":"SC","lat":33.553,"long":-81.7194},{"zip":"29802","city":"Aiken","state":"SC","lat":33.5604,"long":-81.7196},{"zip":"29803","city":"Aiken","state":"SC","lat":33.5059,"long":-81.6951},{"zip":"29804","city":"Aiken","state":"SC","lat":33.5377,"long":-81.5999},{"zip":"29805","city":"Aiken","state":"SC","lat":33.6993,"long":-81.6465},{"zip":"29808","city":"Aiken","state":"SC","lat":33.5377,"long":-81.5999},{"zip":"29809","city":"New Ellenton","state":"SC","lat":33.413,"long":-81.69},{"zip":"29816","city":"Bath","state":"SC","lat":33.5046,"long":-81.869},{"zip":"29822","city":"Clearwater","state":"SC","lat":33.4997,"long":-81.8649},{"zip":"29828","city":"Gloverville","state":"SC","lat":33.5182,"long":-81.8277},{"zip":"29829","city":"Graniteville","state":"SC","lat":33.563,"long":-81.8147},{"zip":"29831","city":"Jackson","state":"SC","lat":33.3389,"long":-81.7976},{"zip":"29834","city":"Langley","state":"SC","lat":33.5179,"long":-81.844},{"zip":"29839","city":"Montmorenci","state":"SC","lat":33.5073,"long":-81.5992},{"zip":"29841","city":"North Augusta","state":"SC","lat":33.5251,"long":-81.9394},{"zip":"29842","city":"Beech Island","state":"SC","lat":33.4707,"long":-81.8639},{"zip":"29850","city":"Vaucluse","state":"SC","lat":33.6126,"long":-81.8098},{"zip":"29851","city":"Warrenville","state":"SC","lat":33.526,"long":-81.7956},{"zip":"29856","city":"Windsor","state":"SC","lat":33.4674,"long":-81.5136},{"zip":"29860","city":"North Augusta","state":"SC","lat":33.6028,"long":-81.9748},{"zip":"29861","city":"North Augusta","state":"SC","lat":33.5018,"long":-81.9651},{"zip":"29810","city":"Allendale","state":"SC","lat":33.0077,"long":-81.3203},{"zip":"29827","city":"Fairfax","state":"SC","lat":32.9515,"long":-81.2586},{"zip":"29836","city":"Martin","state":"SC","lat":33.1093,"long":-81.5003},{"zip":"29846","city":"Sycamore","state":"SC","lat":33.0241,"long":-81.2258},{"zip":"29849","city":"Ulmer","state":"SC","lat":33.0988,"long":-81.2068},{"zip":"29621","city":"Anderson","state":"SC","lat":34.5261,"long":-82.6304},{"zip":"29622","city":"Anderson","state":"SC","lat":34.5034,"long":-82.6501},{"zip":"29623","city":"Anderson","state":"SC","lat":34.4381,"long":-82.8354},{"zip":"29624","city":"Anderson","state":"SC","lat":34.4373,"long":-82.6251},{"zip":"29625","city":"Anderson","state":"SC","lat":34.5271,"long":-82.7087},{"zip":"29626","city":"Anderson","state":"SC","lat":34.4596,"long":-82.7614},{"zip":"29627","city":"Belton","state":"SC","lat":34.5087,"long":-82.5101},{"zip":"29654","city":"Honea Path","state":"SC","lat":34.4417,"long":-82.4255},{"zip":"29655","city":"Iva","state":"SC","lat":34.3198,"long":-82.6574},{"zip":"29656","city":"La France","state":"SC","lat":34.6252,"long":-82.7654},{"zip":"29669","city":"Pelzer","state":"SC","lat":34.6461,"long":-82.4673},{"zip":"29670","city":"Pendleton","state":"SC","lat":34.6369,"long":-82.7406},{"zip":"29677","city":"Sandy Springs","state":"SC","lat":34.5975,"long":-82.7568},{"zip":"29684","city":"Starr","state":"SC","lat":34.3962,"long":-82.6897},{"zip":"29689","city":"Townville","state":"SC","lat":34.5226,"long":-82.8963},{"zip":"29697","city":"Williamston","state":"SC","lat":34.6206,"long":-82.511},{"zip":"29003","city":"Bamberg","state":"SC","lat":33.2779,"long":-81.0177},{"zip":"29042","city":"Denmark","state":"SC","lat":33.3209,"long":-81.1407},{"zip":"29081","city":"Ehrhardt","state":"SC","lat":33.1044,"long":-81.0221},{"zip":"29843","city":"Olar","state":"SC","lat":33.1836,"long":-81.164},{"zip":"29812","city":"Barnwell","state":"SC","lat":33.2335,"long":-81.3523},{"zip":"29813","city":"Hilda","state":"SC","lat":33.2735,"long":-81.247},{"zip":"29817","city":"Blackville","state":"SC","lat":33.3645,"long":-81.2718},{"zip":"29826","city":"Elko","state":"SC","lat":33.3804,"long":-81.3796},{"zip":"29853","city":"Williston","state":"SC","lat":33.3926,"long":-81.4161},{"zip":"29901","city":"Beaufort","state":"SC","lat":32.4244,"long":-80.5653},{"zip":"29902","city":"Beaufort","state":"SC","lat":32.4316,"long":-80.6698},{"zip":"29903","city":"Beaufort","state":"SC","lat":32.444,"long":-80.7352},{"zip":"29904","city":"Beaufort","state":"SC","lat":32.3906,"long":-80.661},{"zip":"29905","city":"Parris Island","state":"SC","lat":32.3281,"long":-80.6915},{"zip":"29906","city":"Beaufort","state":"SC","lat":32.3823,"long":-80.7603},{"zip":"29907","city":"Beaufort","state":"SC","lat":32.4316,"long":-80.6698},{"zip":"29910","city":"Bluffton","state":"SC","lat":32.2513,"long":-80.8721},{"zip":"29914","city":"Dale","state":"SC","lat":32.5527,"long":-80.677},{"zip":"29915","city":"Daufuskie Island","state":"SC","lat":32.1145,"long":-80.8686},{"zip":"29920","city":"Saint Helena Island","state":"SC","lat":32.3716,"long":-80.5383},{"zip":"29925","city":"Hilton Head Island","state":"SC","lat":32.2132,"long":-80.7997},{"zip":"29926","city":"Hilton Head Island","state":"SC","lat":32.2077,"long":-80.7476},{"zip":"29928","city":"Hilton Head Island","state":"SC","lat":32.1665,"long":-80.7569},{"zip":"29931","city":"Lobeco","state":"SC","lat":32.5527,"long":-80.7434},{"zip":"29935","city":"Port Royal","state":"SC","lat":32.3874,"long":-80.6844},{"zip":"29938","city":"Hilton Head Island","state":"SC","lat":32.3906,"long":-80.661},{"zip":"29940","city":"Seabrook","state":"SC","lat":32.5693,"long":-80.7192},{"zip":"29941","city":"Sheldon","state":"SC","lat":32.5431,"long":-80.8126},{"zip":"29410","city":"Hanahan","state":"SC","lat":32.9185,"long":-80.022},{"zip":"29431","city":"Bonneau","state":"SC","lat":33.2703,"long":-79.8736},{"zip":"29434","city":"Cordesville","state":"SC","lat":33.1362,"long":-79.8826},{"zip":"29436","city":"Cross","state":"SC","lat":33.3364,"long":-80.1859},{"zip":"29445","city":"Goose Creek","state":"SC","lat":33.058,"long":-80.0101},{"zip":"29450","city":"Huger","state":"SC","lat":33.0439,"long":-79.7841},{"zip":"29453","city":"Jamestown","state":"SC","lat":33.2221,"long":-79.6282},{"zip":"29456","city":"Ladson","state":"SC","lat":32.993,"long":-80.1257},{"zip":"29461","city":"Moncks Corner","state":"SC","lat":33.1971,"long":-80.0233},{"zip":"29468","city":"Pineville","state":"SC","lat":33.4199,"long":-80.0932},{"zip":"29469","city":"Pinopolis","state":"SC","lat":33.2241,"long":-80.0398},{"zip":"29476","city":"Russellville","state":"SC","lat":33.3971,"long":-79.9717},{"zip":"29479","city":"Saint Stephen","state":"SC","lat":33.3362,"long":-79.9236},{"zip":"29486","city":"Summerville","state":"SC","lat":33.0185,"long":-80.1756},{"zip":"29492","city":"Charleston","state":"SC","lat":32.9668,"long":-79.8528},{"zip":"29030","city":"Cameron","state":"SC","lat":33.5703,"long":-80.7081},{"zip":"29135","city":"Saint Matthews","state":"SC","lat":33.6967,"long":-80.8678},{"zip":"29401","city":"Charleston","state":"SC","lat":32.7795,"long":-79.9371},{"zip":"29402","city":"Charleston","state":"SC","lat":32.7766,"long":-79.9309},{"zip":"29403","city":"Charleston","state":"SC","lat":32.7976,"long":-79.9493},{"zip":"29404","city":"Charleston Afb","state":"SC","lat":32.8982,"long":-80.0686},{"zip":"29405","city":"North Charleston","state":"SC","lat":32.853,"long":-79.9913},{"zip":"29406","city":"Charleston","state":"SC","lat":32.9352,"long":-80.0325},{"zip":"29407","city":"Charleston","state":"SC","lat":32.7993,"long":-80.006},{"zip":"29409","city":"Charleston","state":"SC","lat":32.7961,"long":-79.9605},{"zip":"29412","city":"Charleston","state":"SC","lat":32.718,"long":-79.9537},{"zip":"29413","city":"Charleston","state":"SC","lat":32.8488,"long":-79.8577},{"zip":"29414","city":"Charleston","state":"SC","lat":32.8215,"long":-80.0568},{"zip":"29415","city":"North Charleston","state":"SC","lat":32.8546,"long":-79.9748},{"zip":"29416","city":"Charleston","state":"SC","lat":32.8488,"long":-79.8577},{"zip":"29417","city":"Charleston","state":"SC","lat":32.8488,"long":-79.8577},{"zip":"29418","city":"North Charleston","state":"SC","lat":32.8929,"long":-80.0458},{"zip":"29419","city":"North Charleston","state":"SC","lat":32.8546,"long":-79.9748},{"zip":"29422","city":"Charleston","state":"SC","lat":32.8488,"long":-79.8577},{"zip":"29423","city":"Charleston","state":"SC","lat":32.8488,"long":-79.8577},{"zip":"29424","city":"Charleston","state":"SC","lat":32.7831,"long":-79.937},{"zip":"29425","city":"Charleston","state":"SC","lat":32.7862,"long":-79.9471},{"zip":"29426","city":"Adams Run","state":"SC","lat":32.779,"long":-80.3288},{"zip":"29429","city":"Awendaw","state":"SC","lat":33.0063,"long":-79.6561},{"zip":"29439","city":"Folly Beach","state":"SC","lat":32.663,"long":-79.927},{"zip":"29449","city":"Hollywood","state":"SC","lat":32.7105,"long":-80.2744},{"zip":"29451","city":"Isle Of Palms","state":"SC","lat":32.7943,"long":-79.7729},{"zip":"29455","city":"Johns Island","state":"SC","lat":32.7924,"long":-80.1081},{"zip":"29457","city":"Johns Island","state":"SC","lat":32.7924,"long":-80.1081},{"zip":"29458","city":"Mc Clellanville","state":"SC","lat":33.1194,"long":-79.5074},{"zip":"29464","city":"Mount Pleasant","state":"SC","lat":32.8473,"long":-79.8206},{"zip":"29465","city":"Mount Pleasant","state":"SC","lat":32.7941,"long":-79.8626},{"zip":"29466","city":"Mount Pleasant","state":"SC","lat":32.8674,"long":-79.8049},{"zip":"29470","city":"Ravenel","state":"SC","lat":32.7881,"long":-80.2223},{"zip":"29482","city":"Sullivans Island","state":"SC","lat":32.7637,"long":-79.8399},{"zip":"29487","city":"Wadmalaw Island","state":"SC","lat":32.6529,"long":-80.1829},{"zip":"29340","city":"Gaffney","state":"SC","lat":35.0615,"long":-81.6491},{"zip":"29341","city":"Gaffney","state":"SC","lat":35.0999,"long":-81.7056},{"zip":"29342","city":"Gaffney","state":"SC","lat":34.9963,"long":-81.6524},{"zip":"29702","city":"Blacksburg","state":"SC","lat":35.1095,"long":-81.4942},{"zip":"29014","city":"Blackstock","state":"SC","lat":34.5779,"long":-81.1249},{"zip":"29055","city":"Great Falls","state":"SC","lat":34.5705,"long":-80.9133},{"zip":"29706","city":"Chester","state":"SC","lat":34.7149,"long":-81.2186},{"zip":"29712","city":"Edgemoor","state":"SC","lat":34.797,"long":-80.9891},{"zip":"29714","city":"Fort Lawn","state":"SC","lat":34.7006,"long":-80.9092},{"zip":"29724","city":"Lando","state":"SC","lat":34.7763,"long":-81.0101},{"zip":"29729","city":"Richburg","state":"SC","lat":34.6822,"long":-80.9891},{"zip":"29101","city":"Mc Bee","state":"SC","lat":34.4606,"long":-80.2544},{"zip":"29520","city":"Cheraw","state":"SC","lat":34.6863,"long":-79.9174},{"zip":"29584","city":"Patrick","state":"SC","lat":34.5598,"long":-80.065},{"zip":"29709","city":"Chesterfield","state":"SC","lat":34.7278,"long":-80.0958},{"zip":"29718","city":"Jefferson","state":"SC","lat":34.6546,"long":-80.3639},{"zip":"29727","city":"Mount Croghan","state":"SC","lat":34.7439,"long":-80.2428},{"zip":"29728","city":"Pageland","state":"SC","lat":34.7722,"long":-80.3966},{"zip":"29741","city":"Ruby","state":"SC","lat":34.7379,"long":-80.191},{"zip":"29001","city":"Alcolu","state":"SC","lat":33.7684,"long":-80.1788},{"zip":"29041","city":"Davis Station","state":"SC","lat":33.6027,"long":-80.2645},{"zip":"29051","city":"Gable","state":"SC","lat":33.8644,"long":-80.1276},{"zip":"29102","city":"Manning","state":"SC","lat":33.6184,"long":-80.2116},{"zip":"29111","city":"New Zion","state":"SC","lat":33.7957,"long":-80.0148},{"zip":"29143","city":"Sardinia","state":"SC","lat":33.8343,"long":-80.0829},{"zip":"29148","city":"Summerton","state":"SC","lat":33.5946,"long":-80.3606},{"zip":"29162","city":"Turbeville","state":"SC","lat":33.8907,"long":-80.0184},{"zip":"29082","city":"Lodge","state":"SC","lat":33.0377,"long":-80.9417},{"zip":"29433","city":"Canadys","state":"SC","lat":33.0614,"long":-80.6312},{"zip":"29435","city":"Cottageville","state":"SC","lat":32.9612,"long":-80.4794},{"zip":"29438","city":"Edisto Island","state":"SC","lat":32.5486,"long":-80.307},{"zip":"29446","city":"Green Pond","state":"SC","lat":32.6628,"long":-80.528},{"zip":"29452","city":"Jacksonboro","state":"SC","lat":32.7305,"long":-80.4609},{"zip":"29474","city":"Round O","state":"SC","lat":32.9405,"long":-80.5739},{"zip":"29475","city":"Ruffin","state":"SC","lat":33.0103,"long":-80.8137},{"zip":"29481","city":"Smoaks","state":"SC","lat":33.0963,"long":-80.813},{"zip":"29488","city":"Walterboro","state":"SC","lat":32.9052,"long":-80.6668},{"zip":"29493","city":"Williams","state":"SC","lat":33.0327,"long":-80.8445},{"zip":"29929","city":"Islandton","state":"SC","lat":32.9503,"long":-80.8916},{"zip":"29069","city":"Lamar","state":"SC","lat":34.1862,"long":-80.0963},{"zip":"29079","city":"Lydia","state":"SC","lat":34.289,"long":-80.1123},{"zip":"29532","city":"Darlington","state":"SC","lat":34.3003,"long":-79.8732},{"zip":"29540","city":"Darlington","state":"SC","lat":34.3843,"long":-79.8422},{"zip":"29550","city":"Hartsville","state":"SC","lat":34.3756,"long":-80.0842},{"zip":"29551","city":"Hartsville","state":"SC","lat":34.3659,"long":-80.1324},{"zip":"29593","city":"Society Hill","state":"SC","lat":34.4512,"long":-79.8865},{"zip":"29536","city":"Dillon","state":"SC","lat":34.4146,"long":-79.377},{"zip":"29543","city":"Fork","state":"SC","lat":34.2873,"long":-79.2501},{"zip":"29547","city":"Hamer","state":"SC","lat":34.4849,"long":-79.3502},{"zip":"29563","city":"Lake View","state":"SC","lat":34.3445,"long":-79.1929},{"zip":"29565","city":"Latta","state":"SC","lat":34.3398,"long":-79.4417},{"zip":"29567","city":"Little Rock","state":"SC","lat":34.5613,"long":-79.4335},{"zip":"29420","city":"North Charleston","state":"SC","lat":32.9336,"long":-80.1026},{"zip":"29437","city":"Dorchester","state":"SC","lat":33.1247,"long":-80.4034},{"zip":"29447","city":"Grover","state":"SC","lat":33.1052,"long":-80.5948},{"zip":"29448","city":"Harleyville","state":"SC","lat":33.2205,"long":-80.4501},{"zip":"29471","city":"Reevesville","state":"SC","lat":33.1872,"long":-80.6672},{"zip":"29472","city":"Ridgeville","state":"SC","lat":33.108,"long":-80.3086},{"zip":"29477","city":"Saint George","state":"SC","lat":33.1845,"long":-80.5732},{"zip":"29483","city":"Summerville","state":"SC","lat":33.028,"long":-80.1739},{"zip":"29484","city":"Summerville","state":"SC","lat":33.0023,"long":-80.2267},{"zip":"29485","city":"Summerville","state":"SC","lat":32.9756,"long":-80.1831},{"zip":"29824","city":"Edgefield","state":"SC","lat":33.8056,"long":-81.966},{"zip":"29832","city":"Johnston","state":"SC","lat":33.8231,"long":-81.7972},{"zip":"29847","city":"Trenton","state":"SC","lat":33.6938,"long":-81.8534},{"zip":"29015","city":"Blair","state":"SC","lat":34.4967,"long":-81.3459},{"zip":"29065","city":"Jenkinsville","state":"SC","lat":34.2717,"long":-81.2712},{"zip":"29130","city":"Ridgeway","state":"SC","lat":34.3167,"long":-80.9288},{"zip":"29132","city":"Rion","state":"SC","lat":34.3074,"long":-81.1252},{"zip":"29180","city":"Winnsboro","state":"SC","lat":34.381,"long":-81.109},{"zip":"29114","city":"Olanta","state":"SC","lat":33.9285,"long":-79.9153},{"zip":"29161","city":"Timmonsville","state":"SC","lat":34.1012,"long":-79.9378},{"zip":"29501","city":"Florence","state":"SC","lat":34.1838,"long":-79.7728},{"zip":"29502","city":"Florence","state":"SC","lat":34.201,"long":-79.7847},{"zip":"29503","city":"Florence","state":"SC","lat":34.063,"long":-79.6506},{"zip":"29504","city":"Florence","state":"SC","lat":34.0416,"long":-79.6933},{"zip":"29505","city":"Florence","state":"SC","lat":34.1231,"long":-79.6893},{"zip":"29506","city":"Florence","state":"SC","lat":34.2153,"long":-79.6468},{"zip":"29530","city":"Coward","state":"SC","lat":33.9905,"long":-79.7515},{"zip":"29541","city":"Effingham","state":"SC","lat":34.0946,"long":-79.7918},{"zip":"29555","city":"Johnsonville","state":"SC","lat":33.8299,"long":-79.4783},{"zip":"29560","city":"Lake City","state":"SC","lat":33.8655,"long":-79.7418},{"zip":"29583","city":"Pamplico","state":"SC","lat":33.9922,"long":-79.5929},{"zip":"29591","city":"Scranton","state":"SC","lat":33.9281,"long":-79.7731},{"zip":"29440","city":"Georgetown","state":"SC","lat":33.4308,"long":-79.3235},{"zip":"29442","city":"Georgetown","state":"SC","lat":33.4037,"long":-79.2264},{"zip":"29510","city":"Andrews","state":"SC","lat":33.4525,"long":-79.5604},{"zip":"29576","city":"Murrells Inlet","state":"SC","lat":33.5507,"long":-79.0528},{"zip":"29585","city":"Pawleys Island","state":"SC","lat":33.4508,"long":-79.1341},{"zip":"29601","city":"Greenville","state":"SC","lat":34.8472,"long":-82.406},{"zip":"29602","city":"Greenville","state":"SC","lat":34.8007,"long":-82.3956},{"zip":"29603","city":"Greenville","state":"SC","lat":34.8377,"long":-82.3715},{"zip":"29604","city":"Greenville","state":"SC","lat":34.8497,"long":-82.4538},{"zip":"29605","city":"Greenville","state":"SC","lat":34.8001,"long":-82.3932},{"zip":"29606","city":"Greenville","state":"SC","lat":34.8497,"long":-82.4538},{"zip":"29607","city":"Greenville","state":"SC","lat":34.8285,"long":-82.3516},{"zip":"29608","city":"Greenville","state":"SC","lat":34.8497,"long":-82.4538},{"zip":"29609","city":"Greenville","state":"SC","lat":34.8921,"long":-82.4002},{"zip":"29610","city":"Greenville","state":"SC","lat":34.8497,"long":-82.4538},{"zip":"29611","city":"Greenville","state":"SC","lat":34.8533,"long":-82.4493},{"zip":"29612","city":"Greenville","state":"SC","lat":34.8497,"long":-82.4538},{"zip":"29613","city":"Greenville","state":"SC","lat":34.9249,"long":-82.4331},{"zip":"29614","city":"Greenville","state":"SC","lat":34.8724,"long":-82.3626},{"zip":"29615","city":"Greenville","state":"SC","lat":34.8661,"long":-82.3198},{"zip":"29616","city":"Greenville","state":"SC","lat":34.8526,"long":-82.394},{"zip":"29617","city":"Greenville","state":"SC","lat":34.912,"long":-82.4666},{"zip":"29635","city":"Cleveland","state":"SC","lat":35.0654,"long":-82.6093},{"zip":"29636","city":"Conestee","state":"SC","lat":34.7682,"long":-82.3498},{"zip":"29644","city":"Fountain Inn","state":"SC","lat":34.6578,"long":-82.2441},{"zip":"29650","city":"Greer","state":"SC","lat":34.8968,"long":-82.2674},{"zip":"29651","city":"Greer","state":"SC","lat":34.9453,"long":-82.2209},{"zip":"29652","city":"Greer","state":"SC","lat":34.9387,"long":-82.2271},{"zip":"29661","city":"Marietta","state":"SC","lat":35.0296,"long":-82.5136},{"zip":"29662","city":"Mauldin","state":"SC","lat":34.7807,"long":-82.3035},{"zip":"29673","city":"Piedmont","state":"SC","lat":34.7244,"long":-82.4702},{"zip":"29680","city":"Simpsonville","state":"SC","lat":34.6962,"long":-82.2893},{"zip":"29681","city":"Simpsonville","state":"SC","lat":34.7512,"long":-82.255},{"zip":"29683","city":"Slater","state":"SC","lat":35.0289,"long":-82.4941},{"zip":"29687","city":"Taylors","state":"SC","lat":34.9245,"long":-82.3197},{"zip":"29688","city":"Tigerville","state":"SC","lat":35.0477,"long":-82.353},{"zip":"29690","city":"Travelers Rest","state":"SC","lat":35.0039,"long":-82.4272},{"zip":"29646","city":"Greenwood","state":"SC","lat":34.1758,"long":-82.1562},{"zip":"29647","city":"Greenwood","state":"SC","lat":34.1788,"long":-82.1631},{"zip":"29648","city":"Greenwood","state":"SC","lat":34.2124,"long":-82.1681},{"zip":"29649","city":"Greenwood","state":"SC","lat":34.223,"long":-82.1582},{"zip":"29653","city":"Hodges","state":"SC","lat":34.2882,"long":-82.2142},{"zip":"29666","city":"Ninety Six","state":"SC","lat":34.1652,"long":-82.0292},{"zip":"29692","city":"Ware Shoals","state":"SC","lat":34.4025,"long":-82.2678},{"zip":"29695","city":"Hodges","state":"SC","lat":34.2876,"long":-82.2443},{"zip":"29819","city":"Bradley","state":"SC","lat":34.0326,"long":-82.2027},{"zip":"29848","city":"Troy","state":"SC","lat":33.9876,"long":-82.2979},{"zip":"29911","city":"Brunson","state":"SC","lat":32.9413,"long":-81.1807},{"zip":"29913","city":"Crocketville","state":"SC","lat":32.9166,"long":-81.0773},{"zip":"29916","city":"Early Branch","state":"SC","lat":32.723,"long":-80.9634},{"zip":"29918","city":"Estill","state":"SC","lat":32.7375,"long":-81.2178},{"zip":"29921","city":"Furman","state":"SC","lat":32.6816,"long":-81.1882},{"zip":"29922","city":"Garnett","state":"SC","lat":32.6007,"long":-81.2396},{"zip":"29923","city":"Gifford","state":"SC","lat":32.8596,"long":-81.239},{"zip":"29924","city":"Hampton","state":"SC","lat":32.8729,"long":-81.0973},{"zip":"29932","city":"Luray","state":"SC","lat":32.8138,"long":-81.2398},{"zip":"29933","city":"Miley","state":"SC","lat":32.9479,"long":-81.0318},{"zip":"29939","city":"Scotia","state":"SC","lat":32.6786,"long":-81.2455},{"zip":"29944","city":"Varnville","state":"SC","lat":32.8349,"long":-81.0288},{"zip":"29945","city":"Yemassee","state":"SC","lat":32.643,"long":-80.8129},{"zip":"29511","city":"Aynor","state":"SC","lat":33.9823,"long":-79.1777},{"zip":"29526","city":"Conway","state":"SC","lat":33.8731,"long":-79.0557},{"zip":"29527","city":"Conway","state":"SC","lat":33.7827,"long":-79.1473},{"zip":"29528","city":"Conway","state":"SC","lat":33.9358,"long":-78.9192},{"zip":"29544","city":"Galivants Ferry","state":"SC","lat":34.0563,"long":-79.2464},{"zip":"29545","city":"Green Sea","state":"SC","lat":34.1668,"long":-78.9589},{"zip":"29566","city":"Little River","state":"SC","lat":33.8768,"long":-78.6508},{"zip":"29568","city":"Longs","state":"SC","lat":33.9064,"long":-78.7934},{"zip":"29569","city":"Loris","state":"SC","lat":34.0558,"long":-78.9161},{"zip":"29572","city":"Myrtle Beach","state":"SC","lat":33.7587,"long":-78.8044},{"zip":"29575","city":"Myrtle Beach","state":"SC","lat":33.6286,"long":-78.9736},{"zip":"29577","city":"Myrtle Beach","state":"SC","lat":33.6994,"long":-78.9137},{"zip":"29578","city":"Myrtle Beach","state":"SC","lat":33.7389,"long":-78.9996},{"zip":"29579","city":"Myrtle Beach","state":"SC","lat":33.7377,"long":-78.9787},{"zip":"29581","city":"Nichols","state":"SC","lat":34.2426,"long":-79.1625},{"zip":"29582","city":"North Myrtle Beach","state":"SC","lat":33.8343,"long":-78.6606},{"zip":"29587","city":"Myrtle Beach","state":"SC","lat":33.6211,"long":-78.9632},{"zip":"29588","city":"Myrtle Beach","state":"SC","lat":33.7226,"long":-78.9782},{"zip":"29597","city":"North Myrtle Beach","state":"SC","lat":33.816,"long":-78.68},{"zip":"29598","city":"North Myrtle Beach","state":"SC","lat":33.816,"long":-78.68},{"zip":"29909","city":"Okatie","state":"SC","lat":32.3301,"long":-80.8435},{"zip":"29912","city":"Coosawhatchie","state":"SC","lat":32.5888,"long":-80.9273},{"zip":"29927","city":"Hardeeville","state":"SC","lat":32.2635,"long":-81.0669},{"zip":"29934","city":"Pineland","state":"SC","lat":32.5931,"long":-81.1078},{"zip":"29936","city":"Ridgeland","state":"SC","lat":32.4807,"long":-80.9804},{"zip":"29943","city":"Tillman","state":"SC","lat":32.468,"long":-81.1667},{"zip":"29009","city":"Bethune","state":"SC","lat":34.4201,"long":-80.3662},{"zip":"29020","city":"Camden","state":"SC","lat":34.2696,"long":-80.591},{"zip":"29021","city":"Camden","state":"SC","lat":34.2974,"long":-80.6089},{"zip":"29032","city":"Cassatt","state":"SC","lat":34.3424,"long":-80.5},{"zip":"29045","city":"Elgin","state":"SC","lat":34.162,"long":-80.8113},{"zip":"29074","city":"Liberty Hill","state":"SC","lat":34.457,"long":-80.7892},{"zip":"29078","city":"Lugoff","state":"SC","lat":34.2296,"long":-80.7147},{"zip":"29175","city":"Westville","state":"SC","lat":34.4418,"long":-80.6033},{"zip":"29058","city":"Heath Springs","state":"SC","lat":34.6024,"long":-80.7103},{"zip":"29067","city":"Kershaw","state":"SC","lat":34.5578,"long":-80.5546},{"zip":"29707","city":"Fort Mill","state":"SC","lat":34.9773,"long":-80.8584},{"zip":"29720","city":"Lancaster","state":"SC","lat":34.749,"long":-80.7616},{"zip":"29721","city":"Lancaster","state":"SC","lat":34.6994,"long":-80.7817},{"zip":"29722","city":"Lancaster","state":"SC","lat":34.7673,"long":-80.6589},{"zip":"29744","city":"Van Wyck","state":"SC","lat":34.8585,"long":-80.8459},{"zip":"29325","city":"Clinton","state":"SC","lat":34.4707,"long":-81.8772},{"zip":"29332","city":"Cross Hill","state":"SC","lat":34.2693,"long":-81.9843},{"zip":"29351","city":"Joanna","state":"SC","lat":34.4068,"long":-81.8191},{"zip":"29360","city":"Laurens","state":"SC","lat":34.499,"long":-82.0143},{"zip":"29370","city":"Mountville","state":"SC","lat":34.3408,"long":-81.9584},{"zip":"29384","city":"Waterloo","state":"SC","lat":34.3367,"long":-82.088},{"zip":"29645","city":"Gray Court","state":"SC","lat":34.5953,"long":-82.1147},{"zip":"29010","city":"Bishopville","state":"SC","lat":34.2241,"long":-80.275},{"zip":"29046","city":"Elliott","state":"SC","lat":34.1071,"long":-80.1637},{"zip":"29080","city":"Lynchburg","state":"SC","lat":34.0526,"long":-80.0988},{"zip":"29006","city":"Batesburg","state":"SC","lat":33.8702,"long":-81.5505},{"zip":"29033","city":"Cayce","state":"SC","lat":33.9626,"long":-81.0671},{"zip":"29036","city":"Chapin","state":"SC","lat":34.1312,"long":-81.3318},{"zip":"29053","city":"Gaston","state":"SC","lat":33.8337,"long":-81.1174},{"zip":"29054","city":"Gilbert","state":"SC","lat":33.9581,"long":-81.3914},{"zip":"29070","city":"Leesville","state":"SC","lat":33.9132,"long":-81.4598},{"zip":"29071","city":"Lexington","state":"SC","lat":33.9815,"long":-81.2362},{"zip":"29072","city":"Lexington","state":"SC","lat":33.9724,"long":-81.2359},{"zip":"29073","city":"Lexington","state":"SC","lat":33.8632,"long":-81.2351},{"zip":"29123","city":"Pelion","state":"SC","lat":33.7766,"long":-81.2502},{"zip":"29160","city":"Swansea","state":"SC","lat":33.7339,"long":-81.0933},{"zip":"29169","city":"West Columbia","state":"SC","lat":33.995,"long":-81.0888},{"zip":"29170","city":"West Columbia","state":"SC","lat":33.9568,"long":-81.1405},{"zip":"29171","city":"West Columbia","state":"SC","lat":33.9252,"long":-81.2483},{"zip":"29172","city":"West Columbia","state":"SC","lat":33.9,"long":-81.091},{"zip":"29212","city":"Columbia","state":"SC","lat":34.0726,"long":-81.1796},{"zip":"29228","city":"Columbia","state":"SC","lat":33.9252,"long":-81.2483},{"zip":"29821","city":"Clarks Hill","state":"SC","lat":33.6505,"long":-82.1488},{"zip":"29835","city":"Mc Cormick","state":"SC","lat":33.9146,"long":-82.2719},{"zip":"29838","city":"Modoc","state":"SC","lat":33.7052,"long":-82.2187},{"zip":"29840","city":"Mount Carmel","state":"SC","lat":34.0065,"long":-82.5324},{"zip":"29844","city":"Parksville","state":"SC","lat":33.7854,"long":-82.2111},{"zip":"29845","city":"Plum Branch","state":"SC","lat":33.8329,"long":-82.248},{"zip":"29899","city":"Mc Cormick","state":"SC","lat":33.8356,"long":-82.32},{"zip":"29519","city":"Centenary","state":"SC","lat":34.027,"long":-79.3537},{"zip":"29546","city":"Gresham","state":"SC","lat":33.9069,"long":-79.3564},{"zip":"29571","city":"Marion","state":"SC","lat":34.1562,"long":-79.3898},{"zip":"29574","city":"Mullins","state":"SC","lat":34.2044,"long":-79.2542},{"zip":"29589","city":"Rains","state":"SC","lat":34.1053,"long":-79.3221},{"zip":"29592","city":"Sellers","state":"SC","lat":34.258,"long":-79.4783},{"zip":"29512","city":"Bennettsville","state":"SC","lat":34.6255,"long":-79.6898},{"zip":"29516","city":"Blenheim","state":"SC","lat":34.5171,"long":-79.6442},{"zip":"29525","city":"Clio","state":"SC","lat":34.5805,"long":-79.5453},{"zip":"29570","city":"Mc Coll","state":"SC","lat":34.6704,"long":-79.5597},{"zip":"29594","city":"Tatum","state":"SC","lat":34.6405,"long":-79.5869},{"zip":"29596","city":"Wallace","state":"SC","lat":34.7307,"long":-79.8011},{"zip":"29037","city":"Chappells","state":"SC","lat":34.1856,"long":-81.8644},{"zip":"29075","city":"Little Mountain","state":"SC","lat":34.1676,"long":-81.4184},{"zip":"29108","city":"Newberry","state":"SC","lat":34.2847,"long":-81.6157},{"zip":"29122","city":"Peak","state":"SC","lat":34.2386,"long":-81.3271},{"zip":"29126","city":"Pomaria","state":"SC","lat":34.3063,"long":-81.45},{"zip":"29127","city":"Prosperity","state":"SC","lat":34.1832,"long":-81.5324},{"zip":"29145","city":"Silverstreet","state":"SC","lat":34.2207,"long":-81.7741},{"zip":"29178","city":"Whitmire","state":"SC","lat":34.4955,"long":-81.606},{"zip":"29355","city":"Kinards","state":"SC","lat":34.3804,"long":-81.7773},{"zip":"29643","city":"Fair Play","state":"SC","lat":34.5112,"long":-82.9854},{"zip":"29658","city":"Long Creek","state":"SC","lat":34.7634,"long":-83.2776},{"zip":"29664","city":"Mountain Rest","state":"SC","lat":34.8541,"long":-83.1134},{"zip":"29665","city":"Newry","state":"SC","lat":34.7247,"long":-82.9106},{"zip":"29672","city":"Seneca","state":"SC","lat":34.774,"long":-82.9457},{"zip":"29675","city":"Richland","state":"SC","lat":34.7641,"long":-83.0883},{"zip":"29676","city":"Salem","state":"SC","lat":34.8728,"long":-82.9607},{"zip":"29678","city":"Seneca","state":"SC","lat":34.6828,"long":-82.9362},{"zip":"29679","city":"Seneca","state":"SC","lat":34.6857,"long":-82.9532},{"zip":"29686","city":"Tamassee","state":"SC","lat":34.897,"long":-83.0375},{"zip":"29691","city":"Walhalla","state":"SC","lat":34.7648,"long":-83.064},{"zip":"29693","city":"Westminster","state":"SC","lat":34.6965,"long":-83.1535},{"zip":"29696","city":"West Union","state":"SC","lat":34.7516,"long":-83.0399},{"zip":"29018","city":"Bowman","state":"SC","lat":33.3475,"long":-80.6709},{"zip":"29038","city":"Cope","state":"SC","lat":33.3726,"long":-80.9631},{"zip":"29039","city":"Cordova","state":"SC","lat":33.4275,"long":-80.8857},{"zip":"29047","city":"Elloree","state":"SC","lat":33.531,"long":-80.572},{"zip":"29048","city":"Eutawville","state":"SC","lat":33.3922,"long":-80.32},{"zip":"29059","city":"Holly Hill","state":"SC","lat":33.3276,"long":-80.4024},{"zip":"29107","city":"Neeses","state":"SC","lat":33.5318,"long":-81.1232},{"zip":"29112","city":"North","state":"SC","lat":33.6211,"long":-81.0601},{"zip":"29113","city":"Norway","state":"SC","lat":33.4534,"long":-81.1097},{"zip":"29115","city":"Orangeburg","state":"SC","lat":33.5025,"long":-80.8593},{"zip":"29116","city":"Orangeburg","state":"SC","lat":33.4959,"long":-80.8246},{"zip":"29117","city":"Orangeburg","state":"SC","lat":33.442,"long":-80.7975},{"zip":"29118","city":"Orangeburg","state":"SC","lat":33.5675,"long":-80.9248},{"zip":"29133","city":"Rowesville","state":"SC","lat":33.3703,"long":-80.8331},{"zip":"29142","city":"Santee","state":"SC","lat":33.4835,"long":-80.4805},{"zip":"29146","city":"Springfield","state":"SC","lat":33.5343,"long":-81.2499},{"zip":"29163","city":"Vance","state":"SC","lat":33.4139,"long":-80.4617},{"zip":"29432","city":"Branchville","state":"SC","lat":33.2628,"long":-80.8059},{"zip":"29630","city":"Central","state":"SC","lat":34.7401,"long":-82.7947},{"zip":"29631","city":"Clemson","state":"SC","lat":34.6831,"long":-82.825},{"zip":"29632","city":"Clemson","state":"SC","lat":34.6834,"long":-82.8374},{"zip":"29633","city":"Clemson","state":"SC","lat":34.6834,"long":-82.8374},{"zip":"29634","city":"Clemson","state":"SC","lat":34.8474,"long":-82.7101},{"zip":"29640","city":"Easley","state":"SC","lat":34.829,"long":-82.5796},{"zip":"29641","city":"Easley","state":"SC","lat":34.8135,"long":-82.6531},{"zip":"29642","city":"Easley","state":"SC","lat":34.7901,"long":-82.5937},{"zip":"29657","city":"Liberty","state":"SC","lat":34.7872,"long":-82.6974},{"zip":"29667","city":"Norris","state":"SC","lat":34.7648,"long":-82.7567},{"zip":"29671","city":"Pickens","state":"SC","lat":34.9024,"long":-82.7058},{"zip":"29682","city":"Six Mile","state":"SC","lat":34.8283,"long":-82.8278},{"zip":"29685","city":"Sunset","state":"SC","lat":34.9706,"long":-82.8076},{"zip":"29002","city":"Ballentine","state":"SC","lat":34.1265,"long":-81.2348},{"zip":"29016","city":"Blythewood","state":"SC","lat":34.1911,"long":-80.9758},{"zip":"29044","city":"Eastover","state":"SC","lat":33.9153,"long":-80.6996},{"zip":"29052","city":"Gadsden","state":"SC","lat":33.8455,"long":-80.7532},{"zip":"29061","city":"Hopkins","state":"SC","lat":33.9349,"long":-80.8449},{"zip":"29063","city":"Irmo","state":"SC","lat":34.1103,"long":-81.1966},{"zip":"29147","city":"State Park","state":"SC","lat":34.0907,"long":-80.9662},{"zip":"29177","city":"White Rock","state":"SC","lat":34.1504,"long":-81.2601},{"zip":"29201","city":"Columbia","state":"SC","lat":34.0004,"long":-81.0334},{"zip":"29202","city":"Columbia","state":"SC","lat":33.9625,"long":-80.9797},{"zip":"29203","city":"Columbia","state":"SC","lat":34.0635,"long":-81.0265},{"zip":"29204","city":"Columbia","state":"SC","lat":34.026,"long":-81.0046},{"zip":"29205","city":"Columbia","state":"SC","lat":33.9903,"long":-80.9997},{"zip":"29206","city":"Columbia","state":"SC","lat":34.0247,"long":-80.9532},{"zip":"29207","city":"Columbia","state":"SC","lat":34.0197,"long":-80.9391},{"zip":"29208","city":"Columbia","state":"SC","lat":33.9937,"long":-81.0199},{"zip":"29209","city":"Columbia","state":"SC","lat":33.9659,"long":-80.9355},{"zip":"29210","city":"Columbia","state":"SC","lat":34.0479,"long":-81.1101},{"zip":"29211","city":"Columbia","state":"SC","lat":34.0007,"long":-81.0348},{"zip":"29214","city":"Columbia","state":"SC","lat":34.0007,"long":-81.0348},{"zip":"29215","city":"Columbia","state":"SC","lat":34.006,"long":-80.9708},{"zip":"29216","city":"Columbia","state":"SC","lat":34.0007,"long":-81.0348},{"zip":"29217","city":"Columbia","state":"SC","lat":34.0007,"long":-81.0348},{"zip":"29218","city":"Columbia","state":"SC","lat":34.0007,"long":-81.0348},{"zip":"29219","city":"Columbia","state":"SC","lat":34.006,"long":-80.9708},{"zip":"29220","city":"Columbia","state":"SC","lat":34.0007,"long":-81.0348},{"zip":"29221","city":"Columbia","state":"SC","lat":34.006,"long":-80.9708},{"zip":"29222","city":"Columbia","state":"SC","lat":34.006,"long":-80.9708},{"zip":"29223","city":"Columbia","state":"SC","lat":34.0853,"long":-80.9167},{"zip":"29224","city":"Columbia","state":"SC","lat":34.006,"long":-80.9708},{"zip":"29225","city":"Columbia","state":"SC","lat":34.006,"long":-80.9708},{"zip":"29226","city":"Columbia","state":"SC","lat":34.006,"long":-80.9708},{"zip":"29227","city":"Columbia","state":"SC","lat":34.006,"long":-80.9708},{"zip":"29229","city":"Columbia","state":"SC","lat":34.1388,"long":-80.8892},{"zip":"29230","city":"Columbia","state":"SC","lat":34.1075,"long":-81.0626},{"zip":"29240","city":"Columbia","state":"SC","lat":34.006,"long":-80.9708},{"zip":"29250","city":"Columbia","state":"SC","lat":34.006,"long":-80.9708},{"zip":"29260","city":"Columbia","state":"SC","lat":34.006,"long":-80.9708},{"zip":"29290","city":"Columbia","state":"SC","lat":34.006,"long":-80.9708},{"zip":"29292","city":"Columbia","state":"SC","lat":34.006,"long":-80.9708},{"zip":"29105","city":"Monetta","state":"SC","lat":33.8084,"long":-81.5956},{"zip":"29129","city":"Ridge Spring","state":"SC","lat":33.8714,"long":-81.6559},{"zip":"29138","city":"Saluda","state":"SC","lat":34.0175,"long":-81.7754},{"zip":"29166","city":"Ward","state":"SC","lat":33.8849,"long":-81.7283},{"zip":"29301","city":"Spartanburg","state":"SC","lat":34.9352,"long":-81.9654},{"zip":"29302","city":"Spartanburg","state":"SC","lat":34.8939,"long":-81.834},{"zip":"29303","city":"Spartanburg","state":"SC","lat":34.9803,"long":-81.9168},{"zip":"29304","city":"Spartanburg","state":"SC","lat":34.9166,"long":-81.8639},{"zip":"29305","city":"Spartanburg","state":"SC","lat":34.9496,"long":-81.932},{"zip":"29306","city":"Spartanburg","state":"SC","lat":34.8937,"long":-81.9228},{"zip":"29307","city":"Spartanburg","state":"SC","lat":34.9839,"long":-81.8313},{"zip":"29316","city":"Boiling Springs","state":"SC","lat":35.0465,"long":-81.9818},{"zip":"29319","city":"Spartanburg","state":"SC","lat":34.9496,"long":-81.932},{"zip":"29320","city":"Arcadia","state":"SC","lat":34.9572,"long":-81.9916},{"zip":"29322","city":"Campobello","state":"SC","lat":35.108,"long":-82.1403},{"zip":"29323","city":"Chesnee","state":"SC","lat":35.1154,"long":-81.8678},{"zip":"29324","city":"Clifton","state":"SC","lat":34.9906,"long":-81.8327},{"zip":"29329","city":"Converse","state":"SC","lat":34.9921,"long":-81.8348},{"zip":"29330","city":"Cowpens","state":"SC","lat":35.039,"long":-81.822},{"zip":"29331","city":"Cross Anchor","state":"SC","lat":34.6383,"long":-81.8567},{"zip":"29333","city":"Drayton","state":"SC","lat":34.9685,"long":-81.9064},{"zip":"29334","city":"Duncan","state":"SC","lat":34.9176,"long":-82.1258},{"zip":"29335","city":"Enoree","state":"SC","lat":34.671,"long":-81.9237},{"zip":"29336","city":"Fairforest","state":"SC","lat":34.9565,"long":-82.0101},{"zip":"29338","city":"Fingerville","state":"SC","lat":34.9994,"long":-82.0571},{"zip":"29346","city":"Glendale","state":"SC","lat":34.9448,"long":-81.8376},{"zip":"29348","city":"Gramling","state":"SC","lat":35.0768,"long":-82.1326},{"zip":"29349","city":"Inman","state":"SC","lat":35.0528,"long":-82.054},{"zip":"29356","city":"Landrum","state":"SC","lat":35.1565,"long":-82.2115},{"zip":"29365","city":"Lyman","state":"SC","lat":34.9684,"long":-82.1435},{"zip":"29368","city":"Mayo","state":"SC","lat":35.084,"long":-81.8598},{"zip":"29369","city":"Moore","state":"SC","lat":34.8646,"long":-82.0215},{"zip":"29372","city":"Pacolet","state":"SC","lat":34.9017,"long":-81.7587},{"zip":"29373","city":"Pacolet Mills","state":"SC","lat":34.9226,"long":-81.7426},{"zip":"29374","city":"Pauline","state":"SC","lat":34.7855,"long":-81.8492},{"zip":"29375","city":"Reidville","state":"SC","lat":34.8636,"long":-82.1101},{"zip":"29376","city":"Roebuck","state":"SC","lat":34.8688,"long":-81.9526},{"zip":"29377","city":"Startex","state":"SC","lat":34.9285,"long":-82.099},{"zip":"29378","city":"Una","state":"SC","lat":34.853,"long":-81.7727},{"zip":"29385","city":"Wellford","state":"SC","lat":34.9514,"long":-82.0927},{"zip":"29386","city":"White Stone","state":"SC","lat":34.8882,"long":-81.969},{"zip":"29388","city":"Woodruff","state":"SC","lat":34.7579,"long":-82.0447},{"zip":"29040","city":"Dalzell","state":"SC","lat":34.0144,"long":-80.4665},{"zip":"29062","city":"Horatio","state":"SC","lat":34.0213,"long":-80.5659},{"zip":"29104","city":"Mayesville","state":"SC","lat":33.9502,"long":-80.2173},{"zip":"29125","city":"Pinewood","state":"SC","lat":33.7642,"long":-80.4978},{"zip":"29128","city":"Rembert","state":"SC","lat":34.1085,"long":-80.4945},{"zip":"29150","city":"Sumter","state":"SC","lat":33.9137,"long":-80.3542},{"zip":"29151","city":"Sumter","state":"SC","lat":33.8999,"long":-80.3743},{"zip":"29152","city":"Shaw Afb","state":"SC","lat":33.9204,"long":-80.3415},{"zip":"29153","city":"Sumter","state":"SC","lat":33.9446,"long":-80.3206},{"zip":"29154","city":"Sumter","state":"SC","lat":33.8821,"long":-80.4028},{"zip":"29168","city":"Wedgefield","state":"SC","lat":33.8953,"long":-80.498},{"zip":"29031","city":"Carlisle","state":"SC","lat":34.567,"long":-81.4814},{"zip":"29321","city":"Buffalo","state":"SC","lat":34.7247,"long":-81.6826},{"zip":"29353","city":"Jonesville","state":"SC","lat":34.8125,"long":-81.6431},{"zip":"29364","city":"Lockhart","state":"SC","lat":34.7865,"long":-81.462},{"zip":"29379","city":"Union","state":"SC","lat":34.7269,"long":-81.6202},{"zip":"29395","city":"Jonesville","state":"SC","lat":34.8466,"long":-81.7227},{"zip":"29056","city":"Greeleyville","state":"SC","lat":33.5966,"long":-79.9802},{"zip":"29518","city":"Cades","state":"SC","lat":33.7886,"long":-79.848},{"zip":"29554","city":"Hemingway","state":"SC","lat":33.7419,"long":-79.4489},{"zip":"29556","city":"Kingstree","state":"SC","lat":33.6878,"long":-79.7832},{"zip":"29564","city":"Lane","state":"SC","lat":33.5083,"long":-79.8715},{"zip":"29580","city":"Nesmith","state":"SC","lat":33.6625,"long":-79.5589},{"zip":"29590","city":"Salters","state":"SC","lat":33.5611,"long":-79.83},{"zip":"29703","city":"Bowling Green","state":"SC","lat":35.1499,"long":-81.2123},{"zip":"29704","city":"Catawba","state":"SC","lat":34.8507,"long":-80.9342},{"zip":"29708","city":"Fort Mill","state":"SC","lat":35.0502,"long":-80.9908},{"zip":"29710","city":"Clover","state":"SC","lat":35.1065,"long":-81.2201},{"zip":"29715","city":"Fort Mill","state":"SC","lat":35.0108,"long":-80.9266},{"zip":"29716","city":"Fort Mill","state":"SC","lat":35.0074,"long":-80.9451},{"zip":"29717","city":"Hickory Grove","state":"SC","lat":34.9708,"long":-81.4306},{"zip":"29726","city":"Mc Connells","state":"SC","lat":34.8677,"long":-81.2368},{"zip":"29730","city":"Rock Hill","state":"SC","lat":34.9151,"long":-81.0129},{"zip":"29731","city":"Rock Hill","state":"SC","lat":34.9926,"long":-81.1787},{"zip":"29732","city":"Rock Hill","state":"SC","lat":34.9681,"long":-81.0489},{"zip":"29733","city":"Rock Hill","state":"SC","lat":34.9926,"long":-81.1787},{"zip":"29734","city":"Rock Hill","state":"SC","lat":34.9926,"long":-81.1787},{"zip":"29742","city":"Sharon","state":"SC","lat":34.9084,"long":-81.3729},{"zip":"29743","city":"Smyrna","state":"SC","lat":35.0308,"long":-81.3896},{"zip":"29745","city":"York","state":"SC","lat":34.9947,"long":-81.2245}]
