[{"zip":"29014","city":"Blackstock","state":"SC","lat":34.5779,"long":-81.1249},{"zip":"29015","city":"Blair","state":"SC","lat":34.4967,"long":-81.3459},{"zip":"29010","city":"Bishopville","state":"SC","lat":34.2241,"long":-80.275},{"zip":"29018","city":"Bowman","state":"SC","lat":33.3475,"long":-80.6709},{"zip":"29016","city":"Blythewood","state":"SC","lat":34.1911,"long":-80.9758}]
