[{"zip":"29069","city":"Lamar","state":"SC","lat":34.1862,"long":-80.0963},{"zip":"29065","city":"Jenkinsville","state":"SC","lat":34.2717,"long":-81.2712},{"zip":"29067","city":"Kershaw","state":"SC","lat":34.5578,"long":-80.5546},{"zip":"29061","city":"Hopkins","state":"SC","lat":33.9349,"long":-80.8449},{"zip":"29063","city":"Irmo","state":"SC","lat":34.1103,"long":-81.1966},{"zip":"29062","city":"Horatio","state":"SC","lat":34.0213,"long":-80.5659}]
