[{"zip":"29137","city":"Salley","state":"SC","lat":33.5972,"long":-81.3184},{"zip":"29135","city":"Saint Matthews","state":"SC","lat":33.6967,"long":-80.8678},{"zip":"29130","city":"Ridgeway","state":"SC","lat":34.3167,"long":-80.9288},{"zip":"29132","city":"Rion","state":"SC","lat":34.3074,"long":-81.1252},{"zip":"29133","city":"Rowesville","state":"SC","lat":33.3703,"long":-80.8331},{"zip":"29138","city":"Saluda","state":"SC","lat":34.0175,"long":-81.7754}]
