[{"zip":"29360","city":"Laurens","state":"SC","lat":34.499,"long":-82.0143},{"zip":"29365","city":"Lyman","state":"SC","lat":34.9684,"long":-82.1435},{"zip":"29368","city":"Mayo","state":"SC","lat":35.084,"long":-81.8598},{"zip":"29369","city":"Moore","state":"SC","lat":34.8646,"long":-82.0215},{"zip":"29364","city":"Lockhart","state":"SC","lat":34.7865,"long":-81.462}]
