[{"zip":"29620","city":"Abbeville","state":"SC","lat":34.1819,"long":-82.3785},{"zip":"29628","city":"Calhoun Falls","state":"SC","lat":34.0999,"long":-82.5805},{"zip":"29638","city":"Donalds","state":"SC","lat":34.3304,"long":-82.3367},{"zip":"29639","city":"Due West","state":"SC","lat":34.3344,"long":-82.4002},{"zip":"29659","city":"Lowndesville","state":"SC","lat":34.2126,"long":-82.6496},{"zip":"29621","city":"Anderson","state":"SC","lat":34.5261,"long":-82.6304},{"zip":"29622","city":"Anderson","state":"SC","lat":34.5034,"long":-82.6501},{"zip":"29623","city":"Anderson","state":"SC","lat":34.4381,"long":-82.8354},{"zip":"29624","city":"Anderson","state":"SC","lat":34.4373,"long":-82.6251},{"zip":"29625","city":"Anderson","state":"SC","lat":34.5271,"long":-82.7087},{"zip":"29626","city":"Anderson","state":"SC","lat":34.4596,"long":-82.7614},{"zip":"29627","city":"Belton","state":"SC","lat":34.5087,"long":-82.5101},{"zip":"29654","city":"Honea Path","state":"SC","lat":34.4417,"long":-82.4255},{"zip":"29655","city":"Iva","state":"SC","lat":34.3198,"long":-82.6574},{"zip":"29656","city":"La France","state":"SC","lat":34.6252,"long":-82.7654},{"zip":"29669","city":"Pelzer","state":"SC","lat":34.6461,"long":-82.4673},{"zip":"29670","city":"Pendleton","state":"SC","lat":34.6369,"long":-82.7406},{"zip":"29677","city":"Sandy Springs","state":"SC","lat":34.5975,"long":-82.7568},{"zip":"29684","city":"Starr","state":"SC","lat":34.3962,"long":-82.6897},{"zip":"29689","city":"Townville","state":"SC","lat":34.5226,"long":-82.8963},{"zip":"29697","city":"Williamston","state":"SC","lat":34.6206,"long":-82.511},{"zip":"29601","city":"Greenville","state":"SC","lat":34.8472,"long":-82.406},{"zip":"29602","city":"Greenville","state":"SC","lat":34.8007,"long":-82.3956},{"zip":"29603","city":"Greenville","state":"SC","lat":34.8377,"long":-82.3715},{"zip":"29604","city":"Greenville","state":"SC","lat":34.8497,"long":-82.4538},{"zip":"29605","city":"Greenville","state":"SC","lat":34.8001,"long":-82.3932},{"zip":"29606","city":"Greenville","state":"SC","lat":34.8497,"long":-82.4538},{"zip":"29607","city":"Greenville","state":"SC","lat":34.8285,"long":-82.3516},{"zip":"29608","city":"Greenville","state":"SC","lat":34.8497,"long":-82.4538},{"zip":"29609","city":"Greenville","state":"SC","lat":34.8921,"long":-82.4002},{"zip":"29610","city":"Greenville","state":"SC","lat":34.8497,"long":-82.4538},{"zip":"29611","city":"Greenville","state":"SC","lat":34.8533,"long":-82.4493},{"zip":"29612","city":"Greenville","state":"SC","lat":34.8497,"long":-82.4538},{"zip":"29613","city":"Greenville","state":"SC","lat":34.9249,"long":-82.4331},{"zip":"29614","city":"Greenville","state":"SC","lat":34.8724,"long":-82.3626},{"zip":"29615","city":"Greenville","state":"SC","lat":34.8661,"long":-82.3198},{"zip":"29616","city":"Greenville","state":"SC","lat":34.8526,"long":-82.394},{"zip":"29617","city":"Greenville","state":"SC","lat":34.912,"long":-82.4666},{"zip":"29635","city":"Cleveland","state":"SC","lat":35.0654,"long":-82.6093},{"zip":"29636","city":"Conestee","state":"SC","lat":34.7682,"long":-82.3498},{"zip":"29644","city":"Fountain Inn","state":"SC","lat":34.6578,"long":-82.2441},{"zip":"29650","city":"Greer","state":"SC","lat":34.8968,"long":-82.2674},{"zip":"29651","city":"Greer","state":"SC","lat":34.9453,"long":-82.2209},{"zip":"29652","city":"Greer","state":"SC","lat":34.9387,"long":-82.2271},{"zip":"29661","city":"Marietta","state":"SC","lat":35.0296,"long":-82.5136},{"zip":"29662","city":"Mauldin","state":"SC","lat":34.7807,"long":-82.3035},{"zip":"29673","city":"Piedmont","state":"SC","lat":34.7244,"long":-82.4702},{"zip":"29680","city":"Simpsonville","state":"SC","lat":34.6962,"long":-82.2893},{"zip":"29681","city":"Simpsonville","state":"SC","lat":34.7512,"long":-82.255},{"zip":"29683","city":"Slater","state":"SC","lat":35.0289,"long":-82.4941},{"zip":"29687","city":"Taylors","state":"SC","lat":34.9245,"long":-82.3197},{"zip":"29688","city":"Tigerville","state":"SC","lat":35.0477,"long":-82.353},{"zip":"29690","city":"Travelers Rest","state":"SC","lat":35.0039,"long":-82.4272},{"zip":"29646","city":"Greenwood","state":"SC","lat":34.1758,"long":-82.1562},{"zip":"29647","city":"Greenwood","state":"SC","lat":34.1788,"long":-82.1631},{"zip":"29648","city":"Greenwood","state":"SC","lat":34.2124,"long":-82.1681},{"zip":"29649","city":"Greenwood","state":"SC","lat":34.223,"long":-82.1582},{"zip":"29653","city":"Hodges","state":"SC","lat":34.2882,"long":-82.2142},{"zip":"29666","city":"Ninety Six","state":"SC","lat":34.1652,"long":-82.0292},{"zip":"29692","city":"Ware Shoals","state":"SC","lat":34.4025,"long":-82.2678},{"zip":"29695","city":"Hodges","state":"SC","lat":34.2876,"long":-82.2443},{"zip":"29645","city":"Gray Court","state":"SC","lat":34.5953,"long":-82.1147},{"zip":"29643","city":"Fair Play","state":"SC","lat":34.5112,"long":-82.9854},{"zip":"29658","city":"Long Creek","state":"SC","lat":34.7634,"long":-83.2776},{"zip":"29664","city":"Mountain Rest","state":"SC","lat":34.8541,"long":-83.1134},{"zip":"29665","city":"Newry","state":"SC","lat":34.7247,"long":-82.9106},{"zip":"29672","city":"Seneca","state":"SC","lat":34.774,"long":-82.9457},{"zip":"29675","city":"Richland","state":"SC","lat":34.7641,"long":-83.0883},{"zip":"29676","city":"Salem","state":"SC","lat":34.8728,"long":-82.9607},{"zip":"29678","city":"Seneca","state":"SC","lat":34.6828,"long":-82.9362},{"zip":"29679","city":"Seneca","state":"SC","lat":34.6857,"long":-82.9532},{"zip":"29686","city":"Tamassee","state":"SC","lat":34.897,"long":-83.0375},{"zip":"29691","city":"Walhalla","state":"SC","lat":34.7648,"long":-83.064},{"zip":"29693","city":"Westminster","state":"SC","lat":34.6965,"long":-83.1535},{"zip":"29696","city":"West Union","state":"SC","lat":34.7516,"long":-83.0399},{"zip":"29630","city":"Central","state":"SC","lat":34.7401,"long":-82.7947},{"zip":"29631","city":"Clemson","state":"SC","lat":34.6831,"long":-82.825},{"zip":"29632","city":"Clemson","state":"SC","lat":34.6834,"long":-82.8374},{"zip":"29633","city":"Clemson","state":"SC","lat":34.6834,"long":-82.8374},{"zip":"29634","city":"Clemson","state":"SC","lat":34.8474,"long":-82.7101},{"zip":"29640","city":"Easley","state":"SC","lat":34.829,"long":-82.5796},{"zip":"29641","city":"Easley","state":"SC","lat":34.8135,"long":-82.6531},{"zip":"29642","city":"Easley","state":"SC","lat":34.7901,"long":-82.5937},{"zip":"29657","city":"Liberty","state":"SC","lat":34.7872,"long":-82.6974},{"zip":"29667","city":"Norris","state":"SC","lat":34.7648,"long":-82.7567},{"zip":"29671","city":"Pickens","state":"SC","lat":34.9024,"long":-82.7058},{"zip":"29682","city":"Six Mile","state":"SC","lat":34.8283,"long":-82.8278},{"zip":"29685","city":"Sunset","state":"SC","lat":34.9706,"long":-82.8076}]
