[{"zip":"29670","city":"Pendleton","state":"SC","lat":34.6369,"long":-82.7406},{"zip":"29677","city":"Sandy Springs","state":"SC","lat":34.5975,"long":-82.7568},{"zip":"29673","city":"Piedmont","state":"SC","lat":34.7244,"long":-82.4702},{"zip":"29672","city":"Seneca","state":"SC","lat":34.774,"long":-82.9457},{"zip":"29675","city":"Richland","state":"SC","lat":34.7641,"long":-83.0883},{"zip":"29676","city":"Salem","state":"SC","lat":34.8728,"long":-82.9607},{"zip":"29678","city":"Seneca","state":"SC","lat":34.6828,"long":-82.9362},{"zip":"29679","city":"Seneca","state":"SC","lat":34.6857,"long":-82.9532},{"zip":"29671","city":"Pickens","state":"SC","lat":34.9024,"long":-82.7058}]
