[{"zip":"29910","city":"Bluffton","state":"SC","lat":32.2513,"long":-80.8721},{"zip":"29914","city":"Dale","state":"SC","lat":32.5527,"long":-80.677},{"zip":"29915","city":"Daufuskie Island","state":"SC","lat":32.1145,"long":-80.8686},{"zip":"29911","city":"Brunson","state":"SC","lat":32.9413,"long":-81.1807},{"zip":"29913","city":"Crocketville","state":"SC","lat":32.9166,"long":-81.0773},{"zip":"29916","city":"Early Branch","state":"SC","lat":32.723,"long":-80.9634},{"zip":"29918","city":"Estill","state":"SC","lat":32.7375,"long":-81.2178},{"zip":"29912","city":"Coosawhatchie","state":"SC","lat":32.5888,"long":-80.9273}]
