[{"zip":"29931","city":"Lobeco","state":"SC","lat":32.5527,"long":-80.7434},{"zip":"29935","city":"Port Royal","state":"SC","lat":32.3874,"long":-80.6844},{"zip":"29938","city":"Hilton Head Island","state":"SC","lat":32.3906,"long":-80.661},{"zip":"29932","city":"Luray","state":"SC","lat":32.8138,"long":-81.2398},{"zip":"29933","city":"Miley","state":"SC","lat":32.9479,"long":-81.0318},{"zip":"29939","city":"Scotia","state":"SC","lat":32.6786,"long":-81.2455},{"zip":"29934","city":"Pineland","state":"SC","lat":32.5931,"long":-81.1078},{"zip":"29936","city":"Ridgeland","state":"SC","lat":32.4807,"long":-80.9804}]
