[{"zip":"30294","city":"Ellenwood","state":"GA","lat":33.6166,"long":-84.2939},{"zip":"30296","city":"Riverdale","state":"GA","lat":33.5667,"long":-84.4364},{"zip":"30297","city":"Forest Park","state":"GA","lat":33.6115,"long":-84.3745},{"zip":"30298","city":"Forest Park","state":"GA","lat":33.5007,"long":-84.3513},{"zip":"30290","city":"Tyrone","state":"GA","lat":33.4719,"long":-84.5914},{"zip":"30291","city":"Union City","state":"GA","lat":33.5832,"long":-84.5499},{"zip":"30293","city":"Woodbury","state":"GA","lat":32.9813,"long":-84.5986},{"zip":"30292","city":"Williamson","state":"GA","lat":33.1598,"long":-84.3795},{"zip":"30295","city":"Zebulon","state":"GA","lat":33.1002,"long":-84.3108}]
