[{"zip":"30520","city":"Canon","state":"GA","lat":34.3478,"long":-83.1267},{"zip":"30521","city":"Carnesville","state":"GA","lat":34.3631,"long":-83.2547},{"zip":"30522","city":"Cherry Log","state":"GA","lat":34.7804,"long":-84.3908},{"zip":"30523","city":"Clarkesville","state":"GA","lat":34.645,"long":-83.5243},{"zip":"30527","city":"Clermont","state":"GA","lat":34.4761,"long":-83.7853},{"zip":"30529","city":"Commerce","state":"GA","lat":34.2134,"long":-83.448},{"zip":"30525","city":"Clayton","state":"GA","lat":34.8826,"long":-83.4065},{"zip":"30528","city":"Cleveland","state":"GA","lat":34.5839,"long":-83.75}]
