[{"zip":"30560","city":"Morganton","state":"GA","lat":34.8714,"long":-84.2115},{"zip":"30563","city":"Mount Airy","state":"GA","lat":34.5678,"long":-83.4713},{"zip":"30564","city":"Murrayville","state":"GA","lat":34.4342,"long":-83.8949},{"zip":"30566","city":"Oakwood","state":"GA","lat":34.2372,"long":-83.894},{"zip":"30565","city":"Nicholson","state":"GA","lat":34.097,"long":-83.421},{"zip":"30567","city":"Pendergrass","state":"GA","lat":34.1796,"long":-83.6634},{"zip":"30562","city":"Mountain City","state":"GA","lat":34.9181,"long":-83.3854},{"zip":"30568","city":"Rabun Gap","state":"GA","lat":34.9576,"long":-83.3901}]
