[{"zip":"30620","city":"Bethlehem","state":"GA","lat":33.9261,"long":-83.7282},{"zip":"30666","city":"Statham","state":"GA","lat":33.9602,"long":-83.5893},{"zip":"30680","city":"Winder","state":"GA","lat":33.9985,"long":-83.7115},{"zip":"30601","city":"Athens","state":"GA","lat":33.9761,"long":-83.3632},{"zip":"30602","city":"Athens","state":"GA","lat":33.9433,"long":-83.3724},{"zip":"30603","city":"Athens","state":"GA","lat":33.9609,"long":-83.3779},{"zip":"30604","city":"Athens","state":"GA","lat":33.9443,"long":-83.3891},{"zip":"30605","city":"Athens","state":"GA","lat":33.9321,"long":-83.3525},{"zip":"30606","city":"Athens","state":"GA","lat":33.9461,"long":-83.418},{"zip":"30607","city":"Athens","state":"GA","lat":34.007,"long":-83.4278},{"zip":"30608","city":"Athens","state":"GA","lat":33.9443,"long":-83.3891},{"zip":"30609","city":"Athens","state":"GA","lat":33.9464,"long":-83.3774},{"zip":"30612","city":"Athens","state":"GA","lat":33.9443,"long":-83.3891},{"zip":"30683","city":"Winterville","state":"GA","lat":33.9543,"long":-83.2906},{"zip":"30624","city":"Bowman","state":"GA","lat":34.1919,"long":-83.0284},{"zip":"30634","city":"Dewy Rose","state":"GA","lat":34.1853,"long":-82.9434},{"zip":"30635","city":"Elberton","state":"GA","lat":34.1082,"long":-82.8448},{"zip":"30639","city":"Franklin Springs","state":"GA","lat":34.2743,"long":-83.147},{"zip":"30662","city":"Royston","state":"GA","lat":34.2778,"long":-83.1406},{"zip":"30642","city":"Greensboro","state":"GA","lat":33.5637,"long":-83.1702},{"zip":"30665","city":"Siloam","state":"GA","lat":33.5619,"long":-83.0742},{"zip":"30669","city":"Union Point","state":"GA","lat":33.6345,"long":-83.0879},{"zip":"30678","city":"White Plains","state":"GA","lat":33.4581,"long":-83.0802},{"zip":"30643","city":"Hartwell","state":"GA","lat":34.3571,"long":-82.9296},{"zip":"30627","city":"Carlton","state":"GA","lat":33.9852,"long":-83.0038},{"zip":"30628","city":"Colbert","state":"GA","lat":34.0382,"long":-83.2191},{"zip":"30629","city":"Comer","state":"GA","lat":34.0888,"long":-83.122},{"zip":"30633","city":"Danielsville","state":"GA","lat":34.1708,"long":-83.2758},{"zip":"30646","city":"Hull","state":"GA","lat":34.0478,"long":-83.311},{"zip":"30647","city":"Ila","state":"GA","lat":34.1726,"long":-83.2921},{"zip":"30623","city":"Bostwick","state":"GA","lat":33.7373,"long":-83.5143},{"zip":"30625","city":"Buckhead","state":"GA","lat":33.5368,"long":-83.3435},{"zip":"30645","city":"High Shoals","state":"GA","lat":33.8013,"long":-83.5164},{"zip":"30650","city":"Madison","state":"GA","lat":33.5947,"long":-83.4618},{"zip":"30663","city":"Rutledge","state":"GA","lat":33.6163,"long":-83.6023},{"zip":"30621","city":"Bishop","state":"GA","lat":33.8081,"long":-83.4777},{"zip":"30622","city":"Bogart","state":"GA","lat":33.934,"long":-83.5055},{"zip":"30638","city":"Farmington","state":"GA","lat":33.7558,"long":-83.4201},{"zip":"30677","city":"Watkinsville","state":"GA","lat":33.8542,"long":-83.408},{"zip":"30619","city":"Arnoldsville","state":"GA","lat":33.8803,"long":-83.2341},{"zip":"30630","city":"Crawford","state":"GA","lat":33.9076,"long":-83.1646},{"zip":"30648","city":"Lexington","state":"GA","lat":33.8799,"long":-83.0858},{"zip":"30667","city":"Stephens","state":"GA","lat":33.7715,"long":-83.1159},{"zip":"30671","city":"Maxeys","state":"GA","lat":33.7405,"long":-83.1706},{"zip":"30631","city":"Crawfordville","state":"GA","lat":33.5708,"long":-82.8872},{"zip":"30664","city":"Sharon","state":"GA","lat":33.56,"long":-82.7948},{"zip":"30641","city":"Good Hope","state":"GA","lat":33.7613,"long":-83.595},{"zip":"30655","city":"Monroe","state":"GA","lat":33.7883,"long":-83.7013},{"zip":"30656","city":"Monroe","state":"GA","lat":33.8386,"long":-83.7104},{"zip":"30660","city":"Rayle","state":"GA","lat":33.7856,"long":-82.9504},{"zip":"30668","city":"Tignall","state":"GA","lat":33.8778,"long":-82.747},{"zip":"30673","city":"Washington","state":"GA","lat":33.7265,"long":-82.7429}]
