[{"zip":"30753","city":"Trion","state":"GA","lat":34.5468,"long":-85.3112},{"zip":"30752","city":"Trenton","state":"GA","lat":34.9017,"long":-85.5171},{"zip":"30757","city":"Wildwood","state":"GA","lat":34.9779,"long":-85.4305},{"zip":"30751","city":"Tennga","state":"GA","lat":34.9814,"long":-84.7352},{"zip":"30750","city":"Lookout Mountain","state":"GA","lat":34.9335,"long":-85.3794},{"zip":"30755","city":"Tunnel Hill","state":"GA","lat":34.8541,"long":-85.0468},{"zip":"30756","city":"Varnell","state":"GA","lat":34.9298,"long":-84.9885}]
