[{"zip":"30811","city":"Gough","state":"GA","lat":33.0918,"long":-82.2265},{"zip":"30816","city":"Keysville","state":"GA","lat":33.1719,"long":-82.1834},{"zip":"30813","city":"Grovetown","state":"GA","lat":33.4504,"long":-82.1982},{"zip":"30814","city":"Harlem","state":"GA","lat":33.417,"long":-82.3097},{"zip":"30810","city":"Gibson","state":"GA","lat":33.2471,"long":-82.5766},{"zip":"30818","city":"Matthews","state":"GA","lat":33.2652,"long":-82.3294},{"zip":"30817","city":"Lincolnton","state":"GA","lat":33.7773,"long":-82.4435},{"zip":"30812","city":"Gracewood","state":"GA","lat":33.386,"long":-82.091},{"zip":"30815","city":"Hephzibah","state":"GA","lat":33.3433,"long":-82.0887},{"zip":"30819","city":"Mesena","state":"GA","lat":33.4599,"long":-82.5901}]
