[{"zip":"31014","city":"Cochran","state":"GA","lat":32.3981,"long":-83.3229},{"zip":"31010","city":"Cordele","state":"GA","lat":31.9172,"long":-83.7854},{"zip":"31015","city":"Cordele","state":"GA","lat":31.9566,"long":-83.7835},{"zip":"31011","city":"Chauncey","state":"GA","lat":32.1046,"long":-83.0646},{"zip":"31012","city":"Chester","state":"GA","lat":32.3982,"long":-83.174},{"zip":"31013","city":"Clinchfield","state":"GA","lat":32.3386,"long":-83.6926},{"zip":"31019","city":"Dexter","state":"GA","lat":32.4356,"long":-83.0528},{"zip":"31016","city":"Culloden","state":"GA","lat":32.9003,"long":-84.0626},{"zip":"31017","city":"Danville","state":"GA","lat":32.6057,"long":-83.2454},{"zip":"31018","city":"Davisboro","state":"GA","lat":32.9443,"long":-82.6227}]
