[{"zip":"31047","city":"Kathleen","state":"GA","lat":32.4672,"long":-83.6128},{"zip":"31049","city":"Kite","state":"GA","lat":32.7078,"long":-82.5274},{"zip":"31040","city":"Dublin","state":"GA","lat":32.5401,"long":-82.915},{"zip":"31041","city":"Ideal","state":"GA","lat":32.3696,"long":-84.188},{"zip":"31046","city":"Juliette","state":"GA","lat":33.1194,"long":-83.8235},{"zip":"31044","city":"Jeffersonville","state":"GA","lat":32.7411,"long":-83.3859},{"zip":"31045","city":"Jewell","state":"GA","lat":33.2963,"long":-82.7774},{"zip":"31042","city":"Irwinton","state":"GA","lat":32.8088,"long":-83.174}]
