[{"zip":"31087","city":"Sparta","state":"GA","lat":33.2571,"long":-83.0892},{"zip":"31088","city":"Warner Robins","state":"GA","lat":32.5934,"long":-83.6416},{"zip":"31085","city":"Shady Dale","state":"GA","lat":33.435,"long":-83.6269},{"zip":"31086","city":"Smarr","state":"GA","lat":32.9895,"long":-83.8761},{"zip":"31081","city":"Rupert","state":"GA","lat":32.4325,"long":-84.2738},{"zip":"31083","city":"Scotland","state":"GA","lat":32.0488,"long":-82.8171},{"zip":"31082","city":"Sandersville","state":"GA","lat":32.975,"long":-82.8406},{"zip":"31089","city":"Tennille","state":"GA","lat":32.9063,"long":-82.84},{"zip":"31084","city":"Seville","state":"GA","lat":31.9605,"long":-83.601}]
