[{"zip":"31553","city":"Nahunta","state":"GA","lat":31.1827,"long":-81.9722},{"zip":"31558","city":"Saint Marys","state":"GA","lat":30.7305,"long":-81.5465},{"zip":"31554","city":"Nicholls","state":"GA","lat":31.4498,"long":-82.6032},{"zip":"31551","city":"Mershon","state":"GA","lat":31.4783,"long":-82.217},{"zip":"31556","city":"Offerman","state":"GA","lat":31.4126,"long":-82.1155},{"zip":"31557","city":"Patterson","state":"GA","lat":31.3903,"long":-82.1274},{"zip":"31550","city":"Manor","state":"GA","lat":31.1088,"long":-82.5742},{"zip":"31552","city":"Millwood","state":"GA","lat":31.2506,"long":-82.6441},{"zip":"31555","city":"Odum","state":"GA","lat":31.6999,"long":-81.9943}]
