[{"zip":"31642","city":"Pearson","state":"GA","lat":31.3106,"long":-82.8591},{"zip":"31645","city":"Ray City","state":"GA","lat":31.0825,"long":-83.2143},{"zip":"31643","city":"Quitman","state":"GA","lat":30.7797,"long":-83.5567},{"zip":"31647","city":"Sparks","state":"GA","lat":31.179,"long":-83.4476},{"zip":"31648","city":"Statenville","state":"GA","lat":30.7065,"long":-83.019},{"zip":"31649","city":"Stockton","state":"GA","lat":31.0229,"long":-83.0139},{"zip":"31641","city":"Naylor","state":"GA","lat":30.8985,"long":-83.1224}]
