[{"zip":"32438","city":"Fountain","state":"FL","lat":30.4753,"long":-85.4293},{"zip":"32430","city":"Clarksville","state":"FL","lat":30.3568,"long":-85.1898},{"zip":"32431","city":"Cottondale","state":"FL","lat":30.8004,"long":-85.3847},{"zip":"32432","city":"Cypress","state":"FL","lat":30.7158,"long":-85.0784},{"zip":"32433","city":"Defuniak Springs","state":"FL","lat":30.8494,"long":-86.2023},{"zip":"32434","city":"Mossy Head","state":"FL","lat":30.7432,"long":-86.3149},{"zip":"32435","city":"Defuniak Springs","state":"FL","lat":30.6038,"long":-86.1211},{"zip":"32439","city":"Freeport","state":"FL","lat":30.4896,"long":-86.1684},{"zip":"32437","city":"Ebro","state":"FL","lat":30.4352,"long":-85.8881}]
