[{"zip":"32444","city":"Lynn Haven","state":"FL","lat":30.2362,"long":-85.6467},{"zip":"32449","city":"Wewahitchka","state":"FL","lat":30.4059,"long":-85.1974},{"zip":"32440","city":"Graceville","state":"FL","lat":30.9426,"long":-85.5136},{"zip":"32442","city":"Grand Ridge","state":"FL","lat":30.7148,"long":-85.021},{"zip":"32443","city":"Greenwood","state":"FL","lat":30.8667,"long":-85.1153},{"zip":"32445","city":"Malone","state":"FL","lat":30.9602,"long":-85.1639},{"zip":"32446","city":"Marianna","state":"FL","lat":30.7996,"long":-85.2293},{"zip":"32447","city":"Marianna","state":"FL","lat":30.7603,"long":-85.2022},{"zip":"32448","city":"Marianna","state":"FL","lat":30.6749,"long":-85.2122}]
