[{"zip":"32640","city":"Hawthorne","state":"FL","lat":29.574,"long":-82.1056},{"zip":"32641","city":"Gainesville","state":"FL","lat":29.6824,"long":-82.2014},{"zip":"32643","city":"High Springs","state":"FL","lat":29.841,"long":-82.6156},{"zip":"32648","city":"Horseshoe Beach","state":"FL","lat":29.4869,"long":-83.2616},{"zip":"32644","city":"Chiefland","state":"FL","lat":29.4602,"long":-82.8553}]
