[{"zip":"32694","city":"Waldo","state":"FL","lat":29.7871,"long":-82.1608},{"zip":"32692","city":"Suwannee","state":"FL","lat":29.3295,"long":-83.14},{"zip":"32693","city":"Trenton","state":"FL","lat":29.6133,"long":-82.8176},{"zip":"32696","city":"Williston","state":"FL","lat":29.3977,"long":-82.4856},{"zip":"32697","city":"Worthington Springs","state":"FL","lat":29.9315,"long":-82.4255}]
