[{"zip":"32767","city":"Paisley","state":"FL","lat":28.9993,"long":-81.503},{"zip":"32768","city":"Plymouth","state":"FL","lat":28.6985,"long":-81.5698},{"zip":"32762","city":"Oviedo","state":"FL","lat":28.7448,"long":-81.2233},{"zip":"32765","city":"Oviedo","state":"FL","lat":28.6513,"long":-81.2066},{"zip":"32766","city":"Oviedo","state":"FL","lat":28.6607,"long":-81.1134},{"zip":"32763","city":"Orange City","state":"FL","lat":28.9453,"long":-81.2995},{"zip":"32764","city":"Osteen","state":"FL","lat":28.8426,"long":-81.1562}]
