[{"zip":"33848","city":"Intercession City","state":"FL","lat":28.2774,"long":-81.5069},{"zip":"33840","city":"Eaton Park","state":"FL","lat":28.0086,"long":-81.9076},{"zip":"33841","city":"Fort Meade","state":"FL","lat":27.7464,"long":-81.7823},{"zip":"33843","city":"Frostproof","state":"FL","lat":27.7211,"long":-81.5148},{"zip":"33844","city":"Haines City","state":"FL","lat":28.1145,"long":-81.6201},{"zip":"33845","city":"Haines City","state":"FL","lat":28.0026,"long":-81.6186},{"zip":"33846","city":"Highland City","state":"FL","lat":27.9647,"long":-81.8672},{"zip":"33847","city":"Homeland","state":"FL","lat":27.8178,"long":-81.8245},{"zip":"33849","city":"Kathleen","state":"FL","lat":28.1975,"long":-82.0396}]
