[{"zip":"33927","city":"El Jobean","state":"FL","lat":26.9324,"long":-82.2168},{"zip":"33920","city":"Alva","state":"FL","lat":26.7147,"long":-81.6351},{"zip":"33921","city":"Boca Grande","state":"FL","lat":26.7545,"long":-82.2611},{"zip":"33922","city":"Bokeelia","state":"FL","lat":26.6627,"long":-82.1401},{"zip":"33924","city":"Captiva","state":"FL","lat":26.5215,"long":-82.1802},{"zip":"33928","city":"Estero","state":"FL","lat":26.4351,"long":-81.8102},{"zip":"33929","city":"Estero","state":"FL","lat":26.4381,"long":-81.8068}]
