[{"zip":"35085","city":"Jemison","state":"AL","lat":32.9805,"long":-86.7181},{"zip":"35082","city":"Hollins","state":"AL","lat":33.1162,"long":-86.1386},{"zip":"35089","city":"Kellyton","state":"AL","lat":32.9791,"long":-86.0484},{"zip":"35083","city":"Holly Pond","state":"AL","lat":34.1901,"long":-86.6174},{"zip":"35087","city":"Joppa","state":"AL","lat":34.2837,"long":-86.5519},{"zip":"35080","city":"Helena","state":"AL","lat":33.2663,"long":-86.902}]
