[{"zip":"35097","city":"Locust Fork","state":"AL","lat":33.905,"long":-86.6261},{"zip":"35098","city":"Logan","state":"AL","lat":34.1377,"long":-87.0266},{"zip":"35091","city":"Kimberly","state":"AL","lat":33.7684,"long":-86.8084},{"zip":"35094","city":"Leeds","state":"AL","lat":33.5283,"long":-86.5748},{"zip":"35096","city":"Lincoln","state":"AL","lat":33.6059,"long":-86.1112}]
