[{"zip":"35555","city":"Fayette","state":"AL","lat":33.6974,"long":-87.8346},{"zip":"35559","city":"Glen Allen","state":"AL","lat":33.8896,"long":-87.6964},{"zip":"35552","city":"Detroit","state":"AL","lat":34.0282,"long":-88.17},{"zip":"35550","city":"Cordova","state":"AL","lat":33.768,"long":-87.1841},{"zip":"35554","city":"Eldridge","state":"AL","lat":33.9315,"long":-87.6194},{"zip":"35551","city":"Delmar","state":"AL","lat":34.1701,"long":-87.6059},{"zip":"35553","city":"Double Springs","state":"AL","lat":34.1387,"long":-87.3974}]
