[{"zip":"35581","city":"Phil Campbell","state":"AL","lat":34.347,"long":-87.7154},{"zip":"35582","city":"Red Bay","state":"AL","lat":34.4513,"long":-88.1129},{"zip":"35585","city":"Spruce Pine","state":"AL","lat":34.4246,"long":-87.8145},{"zip":"35586","city":"Sulligent","state":"AL","lat":33.8549,"long":-88.1508},{"zip":"35580","city":"Parrish","state":"AL","lat":33.7213,"long":-87.2658},{"zip":"35584","city":"Sipsey","state":"AL","lat":33.8201,"long":-87.0779},{"zip":"35587","city":"Townley","state":"AL","lat":33.847,"long":-87.4372}]
