[{"zip":"36016","city":"Clayton","state":"AL","lat":31.8874,"long":-85.4509},{"zip":"36017","city":"Clio","state":"AL","lat":31.6852,"long":-85.5904},{"zip":"36015","city":"Chapman","state":"AL","lat":31.6427,"long":-86.7343},{"zip":"36013","city":"Cecil","state":"AL","lat":32.2937,"long":-85.9827},{"zip":"36010","city":"Brundidge","state":"AL","lat":31.7013,"long":-85.8177}]
