[{"zip":"36526","city":"Daphne","state":"AL","lat":30.6197,"long":-87.8895},{"zip":"36527","city":"Spanish Fort","state":"AL","lat":30.6959,"long":-87.8867},{"zip":"36524","city":"Coffeeville","state":"AL","lat":31.7843,"long":-88.0715},{"zip":"36521","city":"Chunchula","state":"AL","lat":30.9912,"long":-88.1311},{"zip":"36522","city":"Citronelle","state":"AL","lat":31.0425,"long":-88.2549},{"zip":"36523","city":"Coden","state":"AL","lat":30.3903,"long":-88.2076},{"zip":"36525","city":"Creola","state":"AL","lat":30.9013,"long":-88.0174},{"zip":"36528","city":"Dauphin Island","state":"AL","lat":30.2521,"long":-88.1096},{"zip":"36529","city":"Deer Park","state":"AL","lat":31.2168,"long":-88.3172}]
