[{"zip":"36530","city":"Elberta","state":"AL","lat":30.3942,"long":-87.589},{"zip":"36532","city":"Fairhope","state":"AL","lat":30.5012,"long":-87.8835},{"zip":"36533","city":"Fairhope","state":"AL","lat":30.4841,"long":-87.8606},{"zip":"36535","city":"Foley","state":"AL","lat":30.4007,"long":-87.6857},{"zip":"36536","city":"Foley","state":"AL","lat":30.4222,"long":-87.7064},{"zip":"36538","city":"Frankville","state":"AL","lat":31.6468,"long":-88.1332},{"zip":"36539","city":"Fruitdale","state":"AL","lat":31.3488,"long":-88.3766}]
