[{"zip":"36910","city":"Jachin","state":"AL","lat":32.0042,"long":-88.2007},{"zip":"36912","city":"Lisman","state":"AL","lat":32.2177,"long":-88.3234},{"zip":"36913","city":"Melvin","state":"AL","lat":32.0042,"long":-88.2007},{"zip":"36915","city":"Needham","state":"AL","lat":31.9879,"long":-88.3367},{"zip":"36916","city":"Pennington","state":"AL","lat":32.2094,"long":-88.049},{"zip":"36919","city":"Silas","state":"AL","lat":31.7668,"long":-88.3091}]
