[{"zip":"37095","city":"Liberty","state":"TN","lat":36.0067,"long":-85.9678},{"zip":"37098","city":"Lyles","state":"TN","lat":35.8502,"long":-87.3127},{"zip":"37091","city":"Lewisburg","state":"TN","lat":35.4596,"long":-86.7812},{"zip":"37096","city":"Linden","state":"TN","lat":35.5944,"long":-87.8567},{"zip":"37097","city":"Lobelville","state":"TN","lat":35.7467,"long":-87.8251},{"zip":"37090","city":"Lebanon","state":"TN","lat":36.1185,"long":-86.263}]
