[{"zip":"37180","city":"Unionville","state":"TN","lat":35.6224,"long":-86.5639},{"zip":"37183","city":"Wartrace","state":"TN","lat":35.5123,"long":-86.3277},{"zip":"37189","city":"Whites Creek","state":"TN","lat":36.2744,"long":-86.8292},{"zip":"37181","city":"Vanleer","state":"TN","lat":36.2237,"long":-87.4565},{"zip":"37187","city":"White Bluff","state":"TN","lat":36.1253,"long":-87.219},{"zip":"37185","city":"Waverly","state":"TN","lat":36.0997,"long":-87.7991},{"zip":"37188","city":"White House","state":"TN","lat":36.46,"long":-86.6705},{"zip":"37186","city":"Westmoreland","state":"TN","lat":36.5756,"long":-86.2353},{"zip":"37184","city":"Watertown","state":"TN","lat":36.0953,"long":-86.1434}]
