[{"zip":"37310","city":"Charleston","state":"TN","lat":35.2556,"long":-84.7666},{"zip":"37311","city":"Cleveland","state":"TN","lat":35.1313,"long":-84.875},{"zip":"37312","city":"Cleveland","state":"TN","lat":35.2023,"long":-84.8476},{"zip":"37318","city":"Cowan","state":"TN","lat":35.1783,"long":-86.0167},{"zip":"37313","city":"Coalmont","state":"TN","lat":35.3516,"long":-85.7003},{"zip":"37315","city":"Collegedale","state":"TN","lat":35.0479,"long":-85.0574},{"zip":"37314","city":"Cokercreek","state":"TN","lat":35.2467,"long":-84.3031},{"zip":"37316","city":"Conasauga","state":"TN","lat":34.9971,"long":-84.7327},{"zip":"37317","city":"Copperhill","state":"TN","lat":35.0207,"long":-84.3748}]
