[{"zip":"37320","city":"Cleveland","state":"TN","lat":35.1727,"long":-84.8619},{"zip":"37323","city":"Cleveland","state":"TN","lat":35.1361,"long":-84.8457},{"zip":"37324","city":"Decherd","state":"TN","lat":35.2326,"long":-86.0589},{"zip":"37328","city":"Elora","state":"TN","lat":35.0295,"long":-86.3481},{"zip":"37329","city":"Englewood","state":"TN","lat":35.4272,"long":-84.4833},{"zip":"37322","city":"Decatur","state":"TN","lat":35.5072,"long":-84.8081},{"zip":"37325","city":"Delano","state":"TN","lat":35.2612,"long":-84.6024},{"zip":"37326","city":"Ducktown","state":"TN","lat":35.0339,"long":-84.3792},{"zip":"37321","city":"Dayton","state":"TN","lat":35.5002,"long":-85.0135},{"zip":"37327","city":"Dunlap","state":"TN","lat":35.3842,"long":-85.3925}]
