[{"zip":"37360","city":"Normandy","state":"TN","lat":35.4296,"long":-86.2557},{"zip":"37367","city":"Pikeville","state":"TN","lat":35.6408,"long":-85.2077},{"zip":"37364","city":"Cleveland","state":"TN","lat":35.1727,"long":-84.8619},{"zip":"37365","city":"Palmer","state":"TN","lat":35.3741,"long":-85.5643},{"zip":"37366","city":"Pelham","state":"TN","lat":35.314,"long":-85.8441},{"zip":"37363","city":"Ooltewah","state":"TN","lat":35.0781,"long":-85.0635},{"zip":"37361","city":"Ocoee","state":"TN","lat":35.1025,"long":-84.7136},{"zip":"37362","city":"Old Fort","state":"TN","lat":35.2829,"long":-85.2568},{"zip":"37369","city":"Reliance","state":"TN","lat":35.1807,"long":-84.541}]
