[{"zip":"38258","city":"Trezevant","state":"TN","lat":36.0172,"long":-88.61},{"zip":"38259","city":"Trimble","state":"TN","lat":36.2011,"long":-89.1863},{"zip":"38251","city":"Puryear","state":"TN","lat":36.4456,"long":-88.3472},{"zip":"38256","city":"Springville","state":"TN","lat":36.265,"long":-88.1459},{"zip":"38253","city":"Rives","state":"TN","lat":36.3108,"long":-89.0731},{"zip":"38254","city":"Samburg","state":"TN","lat":36.3791,"long":-89.3538},{"zip":"38257","city":"South Fulton","state":"TN","lat":36.4814,"long":-88.8808},{"zip":"38255","city":"Sharon","state":"TN","lat":36.2395,"long":-88.8477}]
