[{"zip":"38320","city":"Camden","state":"TN","lat":36.0556,"long":-88.1119},{"zip":"38333","city":"Eva","state":"TN","lat":36.1142,"long":-87.982},{"zip":"38341","city":"Holladay","state":"TN","lat":35.8951,"long":-88.0912},{"zip":"38317","city":"Bruceton","state":"TN","lat":36.0268,"long":-88.2518},{"zip":"38318","city":"Buena Vista","state":"TN","lat":35.9431,"long":-88.2926},{"zip":"38321","city":"Cedar Grove","state":"TN","lat":35.8613,"long":-88.5517},{"zip":"38324","city":"Clarksburg","state":"TN","lat":35.8675,"long":-88.3934},{"zip":"38342","city":"Hollow Rock","state":"TN","lat":36.0381,"long":-88.2737},{"zip":"38344","city":"Huntingdon","state":"TN","lat":36.0062,"long":-88.4202},{"zip":"38348","city":"Lavinia","state":"TN","lat":35.8583,"long":-88.6324},{"zip":"38387","city":"Westport","state":"TN","lat":35.8845,"long":-88.2892},{"zip":"38390","city":"Yuma","state":"TN","lat":35.868,"long":-88.3819},{"zip":"38332","city":"Enville","state":"TN","lat":35.4393,"long":-88.4206},{"zip":"38340","city":"Henderson","state":"TN","lat":35.4269,"long":-88.6398},{"zip":"38347","city":"Jacks Creek","state":"TN","lat":35.4782,"long":-88.5019},{"zip":"38352","city":"Luray","state":"TN","lat":35.5355,"long":-88.5379},{"zip":"38336","city":"Fruitvale","state":"TN","lat":35.7484,"long":-89.0327},{"zip":"38337","city":"Gadsden","state":"TN","lat":35.7799,"long":-88.9929},{"zip":"38311","city":"Bath Springs","state":"TN","lat":35.4521,"long":-88.1286},{"zip":"38329","city":"Decaturville","state":"TN","lat":35.5585,"long":-88.1334},{"zip":"38363","city":"Parsons","state":"TN","lat":35.6664,"long":-88.1195},{"zip":"38374","city":"Scotts Hill","state":"TN","lat":35.505,"long":-88.2405},{"zip":"38380","city":"Sugar Tree","state":"TN","lat":35.792,"long":-88.0322},{"zip":"38316","city":"Bradford","state":"TN","lat":36.0645,"long":-88.8046},{"zip":"38330","city":"Dyer","state":"TN","lat":36.0716,"long":-89.0192},{"zip":"38331","city":"Eaton","state":"TN","lat":35.9693,"long":-89.1319},{"zip":"38338","city":"Gibson","state":"TN","lat":35.8708,"long":-88.8464},{"zip":"38343","city":"Humboldt","state":"TN","lat":35.837,"long":-88.9057},{"zip":"38346","city":"Idlewild","state":"TN","lat":36.0306,"long":-88.8056},{"zip":"38355","city":"Medina","state":"TN","lat":35.8081,"long":-88.7627},{"zip":"38358","city":"Milan","state":"TN","lat":35.9251,"long":-88.7688},{"zip":"38369","city":"Rutherford","state":"TN","lat":36.13,"long":-88.9849},{"zip":"38382","city":"Trenton","state":"TN","lat":35.9712,"long":-88.9507},{"zip":"38389","city":"Yorkville","state":"TN","lat":36.1354,"long":-89.1117},{"zip":"38377","city":"Silerton","state":"TN","lat":35.356,"long":-88.8269},{"zip":"38381","city":"Toone","state":"TN","lat":35.3574,"long":-88.9353},{"zip":"38326","city":"Counce","state":"TN","lat":35.0394,"long":-88.2936},{"zip":"38327","city":"Crump","state":"TN","lat":35.2191,"long":-88.3192},{"zip":"38361","city":"Morris Chapel","state":"TN","lat":35.3026,"long":-88.3176},{"zip":"38365","city":"Pickwick Dam","state":"TN","lat":35.0383,"long":-88.2256},{"zip":"38370","city":"Saltillo","state":"TN","lat":35.3815,"long":-88.2472},{"zip":"38372","city":"Savannah","state":"TN","lat":35.2023,"long":-88.2005},{"zip":"38376","city":"Shiloh","state":"TN","lat":35.1195,"long":-88.3507},{"zip":"38328","city":"Darden","state":"TN","lat":35.663,"long":-88.2177},{"zip":"38345","city":"Huron","state":"TN","lat":35.6144,"long":-88.5195},{"zip":"38351","city":"Lexington","state":"TN","lat":35.6512,"long":-88.3927},{"zip":"38368","city":"Reagan","state":"TN","lat":35.5096,"long":-88.3508},{"zip":"38371","city":"Sardis","state":"TN","lat":35.4386,"long":-88.3058},{"zip":"38388","city":"Wildersville","state":"TN","lat":35.7698,"long":-88.4388},{"zip":"38310","city":"Adamsville","state":"TN","lat":35.2556,"long":-88.4134},{"zip":"38315","city":"Bethel Springs","state":"TN","lat":35.2289,"long":-88.644},{"zip":"38334","city":"Finger","state":"TN","lat":35.3544,"long":-88.5876},{"zip":"38339","city":"Guys","state":"TN","lat":35.0142,"long":-88.5208},{"zip":"38357","city":"Michie","state":"TN","lat":35.0603,"long":-88.4405},{"zip":"38359","city":"Milledgeville","state":"TN","lat":35.3729,"long":-88.3675},{"zip":"38367","city":"Ramer","state":"TN","lat":35.0642,"long":-88.6017},{"zip":"38375","city":"Selmer","state":"TN","lat":35.1691,"long":-88.5958},{"zip":"38379","city":"Stantonville","state":"TN","lat":35.1809,"long":-88.4364},{"zip":"38393","city":"Chewalla","state":"TN","lat":34.9969,"long":-88.6456},{"zip":"38301","city":"Jackson","state":"TN","lat":35.6102,"long":-88.814},{"zip":"38302","city":"Jackson","state":"TN","lat":35.6124,"long":-88.8412},{"zip":"38303","city":"Jackson","state":"TN","lat":35.6124,"long":-88.8412},{"zip":"38305","city":"Jackson","state":"TN","lat":35.6829,"long":-88.8281},{"zip":"38308","city":"Jackson","state":"TN","lat":35.6124,"long":-88.8412},{"zip":"38313","city":"Beech Bluff","state":"TN","lat":35.5922,"long":-88.6396},{"zip":"38314","city":"Jackson","state":"TN","lat":35.6124,"long":-88.8412},{"zip":"38356","city":"Medon","state":"TN","lat":35.4345,"long":-88.8953},{"zip":"38362","city":"Oakfield","state":"TN","lat":35.7242,"long":-88.7801},{"zip":"38366","city":"Pinson","state":"TN","lat":35.4781,"long":-88.7304},{"zip":"38378","city":"Spring Creek","state":"TN","lat":35.7668,"long":-88.6839},{"zip":"38391","city":"Denmark","state":"TN","lat":35.5571,"long":-88.9759},{"zip":"38392","city":"Mercer","state":"TN","lat":35.4816,"long":-89.0271}]
