[{"zip":"38317","city":"Bruceton","state":"TN","lat":36.0268,"long":-88.2518},{"zip":"38318","city":"Buena Vista","state":"TN","lat":35.9431,"long":-88.2926},{"zip":"38311","city":"Bath Springs","state":"TN","lat":35.4521,"long":-88.1286},{"zip":"38316","city":"Bradford","state":"TN","lat":36.0645,"long":-88.8046},{"zip":"38310","city":"Adamsville","state":"TN","lat":35.2556,"long":-88.4134},{"zip":"38315","city":"Bethel Springs","state":"TN","lat":35.2289,"long":-88.644},{"zip":"38313","city":"Beech Bluff","state":"TN","lat":35.5922,"long":-88.6396},{"zip":"38314","city":"Jackson","state":"TN","lat":35.6124,"long":-88.8412}]
