[{"zip":"38333","city":"Eva","state":"TN","lat":36.1142,"long":-87.982},{"zip":"38332","city":"Enville","state":"TN","lat":35.4393,"long":-88.4206},{"zip":"38336","city":"Fruitvale","state":"TN","lat":35.7484,"long":-89.0327},{"zip":"38337","city":"Gadsden","state":"TN","lat":35.7799,"long":-88.9929},{"zip":"38330","city":"Dyer","state":"TN","lat":36.0716,"long":-89.0192},{"zip":"38331","city":"Eaton","state":"TN","lat":35.9693,"long":-89.1319},{"zip":"38338","city":"Gibson","state":"TN","lat":35.8708,"long":-88.8464},{"zip":"38334","city":"Finger","state":"TN","lat":35.3544,"long":-88.5876},{"zip":"38339","city":"Guys","state":"TN","lat":35.0142,"long":-88.5208}]
