[{"zip":"38374","city":"Scotts Hill","state":"TN","lat":35.505,"long":-88.2405},{"zip":"38377","city":"Silerton","state":"TN","lat":35.356,"long":-88.8269},{"zip":"38370","city":"Saltillo","state":"TN","lat":35.3815,"long":-88.2472},{"zip":"38372","city":"Savannah","state":"TN","lat":35.2023,"long":-88.2005},{"zip":"38376","city":"Shiloh","state":"TN","lat":35.1195,"long":-88.3507},{"zip":"38371","city":"Sardis","state":"TN","lat":35.4386,"long":-88.3058},{"zip":"38375","city":"Selmer","state":"TN","lat":35.1691,"long":-88.5958},{"zip":"38379","city":"Stantonville","state":"TN","lat":35.1809,"long":-88.4364},{"zip":"38378","city":"Spring Creek","state":"TN","lat":35.7668,"long":-88.6839}]
