[{"zip":"38455","city":"Elkton","state":"TN","lat":35.0523,"long":-86.8886},{"zip":"38459","city":"Frankewing","state":"TN","lat":35.1834,"long":-86.85},{"zip":"38454","city":"Duck River","state":"TN","lat":35.748,"long":-87.3577},{"zip":"38456","city":"Ethridge","state":"TN","lat":35.3326,"long":-87.3039},{"zip":"38457","city":"Five Points","state":"TN","lat":35.031,"long":-87.2961},{"zip":"38453","city":"Dellrose","state":"TN","lat":35.1214,"long":-86.8121},{"zip":"38451","city":"Culleoka","state":"TN","lat":35.4749,"long":-87.0005},{"zip":"38450","city":"Collinwood","state":"TN","lat":35.1635,"long":-87.7185},{"zip":"38452","city":"Cypress Inn","state":"TN","lat":35.0579,"long":-87.7883}]
