[{"zip":"38762","city":"Mound Bayou","state":"MS","lat":33.886,"long":-90.7302},{"zip":"38764","city":"Pace","state":"MS","lat":33.7915,"long":-90.857},{"zip":"38769","city":"Rosedale","state":"MS","lat":33.8432,"long":-90.9923},{"zip":"38767","city":"Rena Lara","state":"MS","lat":34.1412,"long":-90.7865},{"zip":"38765","city":"Panther Burn","state":"MS","lat":33.0662,"long":-90.8684},{"zip":"38761","city":"Moorhead","state":"MS","lat":33.4783,"long":-90.5143},{"zip":"38768","city":"Rome","state":"MS","lat":33.9632,"long":-90.4784},{"zip":"38760","city":"Metcalfe","state":"MS","lat":33.4546,"long":-90.9943}]
