[{"zip":"38913","city":"Banner","state":"MS","lat":34.0949,"long":-89.4154},{"zip":"38914","city":"Big Creek","state":"MS","lat":33.8514,"long":-89.4378},{"zip":"38915","city":"Bruce","state":"MS","lat":34.0066,"long":-89.3484},{"zip":"38916","city":"Calhoun City","state":"MS","lat":33.8408,"long":-89.3178},{"zip":"38917","city":"Carrollton","state":"MS","lat":33.5208,"long":-89.9506}]
