[{"zip":"39176","city":"Vaiden","state":"MS","lat":33.3343,"long":-89.757},{"zip":"39170","city":"Terry","state":"MS","lat":32.1147,"long":-90.3241},{"zip":"39174","city":"Tougaloo","state":"MS","lat":32.3953,"long":-90.1544},{"zip":"39175","city":"Utica","state":"MS","lat":32.1229,"long":-90.6047},{"zip":"39177","city":"Valley Park","state":"MS","lat":32.6323,"long":-90.8542},{"zip":"39171","city":"Thomastown","state":"MS","lat":32.864,"long":-89.6695},{"zip":"39173","city":"Tinsley","state":"MS","lat":32.7628,"long":-90.3628},{"zip":"39179","city":"Vaughan","state":"MS","lat":32.8015,"long":-90.0981}]
