[{"zip":"39328","city":"De Kalb","state":"MS","lat":32.7162,"long":-88.7332},{"zip":"39320","city":"Bailey","state":"MS","lat":32.4676,"long":-88.7228},{"zip":"39325","city":"Collinsville","state":"MS","lat":32.5643,"long":-88.875},{"zip":"39326","city":"Daleville","state":"MS","lat":32.5511,"long":-88.6609},{"zip":"39323","city":"Chunky","state":"MS","lat":32.3505,"long":-88.9551},{"zip":"39327","city":"Decatur","state":"MS","lat":32.4358,"long":-89.1168},{"zip":"39322","city":"Buckatunna","state":"MS","lat":31.5391,"long":-88.5289},{"zip":"39324","city":"Clara","state":"MS","lat":31.5937,"long":-88.7048}]
