[{"zip":"39452","city":"Lucedale","state":"MS","lat":30.8668,"long":-88.649},{"zip":"39451","city":"Leakesville","state":"MS","lat":31.1238,"long":-88.5595},{"zip":"39456","city":"Mc Lain","state":"MS","lat":31.0867,"long":-88.7977},{"zip":"39459","city":"Moselle","state":"MS","lat":31.4836,"long":-89.3206},{"zip":"39455","city":"Lumberton","state":"MS","lat":31.0013,"long":-89.4523},{"zip":"39457","city":"Mc Neill","state":"MS","lat":30.6669,"long":-89.6734}]
