[{"zip":"39556","city":"Kiln","state":"MS","lat":30.4875,"long":-89.4187},{"zip":"39558","city":"Lakeshore","state":"MS","lat":30.2391,"long":-89.4595},{"zip":"39552","city":"Escatawpa","state":"MS","lat":30.4411,"long":-88.6345},{"zip":"39553","city":"Gautier","state":"MS","lat":30.398,"long":-88.6412},{"zip":"39555","city":"Hurley","state":"MS","lat":30.7132,"long":-88.5197}]
