[{"zip":"40342","city":"Lawrenceburg","state":"KY","lat":38.0189,"long":-84.9299},{"zip":"40348","city":"Millersburg","state":"KY","lat":38.2963,"long":-84.1513},{"zip":"40340","city":"Nicholasville","state":"KY","lat":37.8662,"long":-84.5795},{"zip":"40346","city":"Means","state":"KY","lat":37.9807,"long":-83.7447},{"zip":"40347","city":"Midway","state":"KY","lat":38.1487,"long":-84.6928}]
