[{"zip":"41010","city":"Corinth","state":"KY","lat":38.5302,"long":-84.5846},{"zip":"41011","city":"Covington","state":"KY","lat":39.0708,"long":-84.5212},{"zip":"41012","city":"Covington","state":"KY","lat":38.9447,"long":-84.5205},{"zip":"41014","city":"Covington","state":"KY","lat":39.0642,"long":-84.5118},{"zip":"41015","city":"Latonia","state":"KY","lat":39.0217,"long":-84.4989},{"zip":"41016","city":"Covington","state":"KY","lat":39.0873,"long":-84.549},{"zip":"41017","city":"Ft Mitchell","state":"KY","lat":39.03,"long":-84.559},{"zip":"41018","city":"Erlanger","state":"KY","lat":39.0082,"long":-84.5977},{"zip":"41019","city":"Covington","state":"KY","lat":38.9447,"long":-84.5205}]
