[{"zip":"41426","city":"Falcon","state":"KY","lat":37.7843,"long":-83.0109},{"zip":"41464","city":"Royalton","state":"KY","lat":37.6751,"long":-83.0218},{"zip":"41465","city":"Salyersville","state":"KY","lat":37.7325,"long":-83.0298},{"zip":"41408","city":"Cannel City","state":"KY","lat":37.7901,"long":-83.2741},{"zip":"41413","city":"Crockett","state":"KY","lat":37.9856,"long":-83.0907},{"zip":"41421","city":"Elkfork","state":"KY","lat":37.9708,"long":-83.1193},{"zip":"41425","city":"Ezel","state":"KY","lat":37.8912,"long":-83.4444},{"zip":"41451","city":"Malone","state":"KY","lat":37.872,"long":-83.2582},{"zip":"41472","city":"West Liberty","state":"KY","lat":37.9215,"long":-83.2596},{"zip":"41477","city":"Wrigley","state":"KY","lat":37.914,"long":-83.2338}]
