[{"zip":"41560","city":"Robinson Creek","state":"KY","lat":37.3799,"long":-82.5616},{"zip":"41561","city":"Rockhouse","state":"KY","lat":37.3316,"long":-82.4626},{"zip":"41562","city":"Shelbiana","state":"KY","lat":37.4063,"long":-82.4673},{"zip":"41563","city":"Shelby Gap","state":"KY","lat":37.2311,"long":-82.5286},{"zip":"41564","city":"Sidney","state":"KY","lat":37.6076,"long":-82.3648},{"zip":"41566","city":"Steele","state":"KY","lat":37.4029,"long":-82.2071},{"zip":"41567","city":"Stone","state":"KY","lat":37.5859,"long":-82.271},{"zip":"41568","city":"Stopover","state":"KY","lat":37.5093,"long":-82.0784}]
