[{"zip":"41762","city":"Sizerock","state":"KY","lat":37.2187,"long":-83.4974},{"zip":"41764","city":"Smilax","state":"KY","lat":37.1214,"long":-83.2539},{"zip":"41766","city":"Thousandsticks","state":"KY","lat":37.1586,"long":-83.3847},{"zip":"41760","city":"Scuddy","state":"KY","lat":37.1971,"long":-83.0817},{"zip":"41763","city":"Slemp","state":"KY","lat":37.0705,"long":-83.1136}]
