[{"zip":"42087","city":"Wickliffe","state":"KY","lat":36.968,"long":-89.0177},{"zip":"42082","city":"Symsonia","state":"KY","lat":36.9044,"long":-88.5153},{"zip":"42085","city":"Water Valley","state":"KY","lat":36.5694,"long":-88.8084},{"zip":"42088","city":"Wingo","state":"KY","lat":36.6253,"long":-88.7394},{"zip":"42081","city":"Smithland","state":"KY","lat":37.2387,"long":-88.3757},{"zip":"42083","city":"Tiline","state":"KY","lat":37.1457,"long":-88.285},{"zip":"42086","city":"West Paducah","state":"KY","lat":37.0922,"long":-88.7611}]
