[{"zip":"42451","city":"Reed","state":"KY","lat":37.8588,"long":-87.3704},{"zip":"42452","city":"Robards","state":"KY","lat":37.6758,"long":-87.5266},{"zip":"42457","city":"Smith Mills","state":"KY","lat":37.8323,"long":-87.7889},{"zip":"42458","city":"Spottsville","state":"KY","lat":37.8399,"long":-87.4247},{"zip":"42453","city":"Saint Charles","state":"KY","lat":37.1604,"long":-87.5697},{"zip":"42459","city":"Sturgis","state":"KY","lat":37.5487,"long":-87.9965},{"zip":"42450","city":"Providence","state":"KY","lat":37.405,"long":-87.7505},{"zip":"42455","city":"Sebree","state":"KY","lat":37.5889,"long":-87.5255},{"zip":"42456","city":"Slaughters","state":"KY","lat":37.5054,"long":-87.5053}]
