[{"zip":"43110","city":"Canal Winchester","state":"OH","lat":39.8349,"long":-82.8044},{"zip":"43112","city":"Carroll","state":"OH","lat":39.7957,"long":-82.7084},{"zip":"43119","city":"Galloway","state":"OH","lat":39.9366,"long":-83.1838},{"zip":"43111","city":"Carbon Hill","state":"OH","lat":39.5045,"long":-82.2429},{"zip":"43113","city":"Circleville","state":"OH","lat":39.5988,"long":-82.93},{"zip":"43116","city":"Commercial Point","state":"OH","lat":39.7699,"long":-83.0602},{"zip":"43117","city":"Derby","state":"OH","lat":39.7687,"long":-83.2057},{"zip":"43115","city":"Clarksburg","state":"OH","lat":39.4904,"long":-83.1563}]
