[{"zip":"43128","city":"Jeffersonville","state":"OH","lat":39.659,"long":-83.5687},{"zip":"43123","city":"Grove City","state":"OH","lat":39.8814,"long":-83.0839},{"zip":"43125","city":"Groveport","state":"OH","lat":39.8581,"long":-82.8872},{"zip":"43126","city":"Harrisburg","state":"OH","lat":39.8139,"long":-83.1664},{"zip":"43127","city":"Haydenville","state":"OH","lat":39.4766,"long":-82.3281}]
