[{"zip":"43147","city":"Pickerington","state":"OH","lat":39.9061,"long":-82.7563},{"zip":"43148","city":"Pleasantville","state":"OH","lat":39.8227,"long":-82.5043},{"zip":"43142","city":"Milledgeville","state":"OH","lat":39.5937,"long":-83.5873},{"zip":"43144","city":"Murray City","state":"OH","lat":39.5055,"long":-82.1711},{"zip":"43149","city":"Rockbridge","state":"OH","lat":39.5509,"long":-82.5626},{"zip":"43140","city":"London","state":"OH","lat":39.9001,"long":-83.4439},{"zip":"43143","city":"Mount Sterling","state":"OH","lat":39.7175,"long":-83.2806},{"zip":"43145","city":"New Holland","state":"OH","lat":39.5589,"long":-83.2504},{"zip":"43146","city":"Orient","state":"OH","lat":39.7954,"long":-83.1543}]
