[{"zip":"43468","city":"Williston","state":"OH","lat":41.6037,"long":-83.3399},{"zip":"43464","city":"Vickery","state":"OH","lat":41.391,"long":-82.899},{"zip":"43469","city":"Woodville","state":"OH","lat":41.4512,"long":-83.3646},{"zip":"43460","city":"Rossford","state":"OH","lat":41.6049,"long":-83.5638},{"zip":"43462","city":"Rudolph","state":"OH","lat":41.2967,"long":-83.6832},{"zip":"43463","city":"Stony Ridge","state":"OH","lat":41.5091,"long":-83.5085},{"zip":"43465","city":"Walbridge","state":"OH","lat":41.5861,"long":-83.493},{"zip":"43466","city":"Wayne","state":"OH","lat":41.2993,"long":-83.4701},{"zip":"43467","city":"West Millgrove","state":"OH","lat":41.2426,"long":-83.4896}]
