[{"zip":"43556","city":"Sherwood","state":"OH","lat":41.2946,"long":-84.5417},{"zip":"43553","city":"Pettisville","state":"OH","lat":41.5306,"long":-84.2297},{"zip":"43558","city":"Swanton","state":"OH","lat":41.5945,"long":-83.8718},{"zip":"43550","city":"Okolona","state":"OH","lat":41.3267,"long":-84.1117},{"zip":"43555","city":"Ridgeville Corners","state":"OH","lat":41.4351,"long":-84.2544},{"zip":"43554","city":"Pioneer","state":"OH","lat":41.6656,"long":-84.5363},{"zip":"43557","city":"Stryker","state":"OH","lat":41.4861,"long":-84.4089},{"zip":"43551","city":"Perrysburg","state":"OH","lat":41.5429,"long":-83.5927},{"zip":"43552","city":"Perrysburg","state":"OH","lat":41.557,"long":-83.6272}]
