[{"zip":"43933","city":"Jacobsburg","state":"OH","lat":39.9372,"long":-80.888},{"zip":"43934","city":"Lansing","state":"OH","lat":40.08,"long":-80.8003},{"zip":"43935","city":"Martins Ferry","state":"OH","lat":40.1036,"long":-80.7361},{"zip":"43937","city":"Maynard","state":"OH","lat":40.1302,"long":-80.8773},{"zip":"43930","city":"Hammondsville","state":"OH","lat":40.5676,"long":-80.7659},{"zip":"43932","city":"Irondale","state":"OH","lat":40.5111,"long":-80.7915},{"zip":"43938","city":"Mingo Junction","state":"OH","lat":40.3203,"long":-80.625},{"zip":"43939","city":"Mount Pleasant","state":"OH","lat":40.1753,"long":-80.7979},{"zip":"43931","city":"Hannibal","state":"OH","lat":39.6673,"long":-80.872}]
