[{"zip":"43983","city":"Piedmont","state":"OH","lat":40.1507,"long":-81.2145},{"zip":"43985","city":"Holloway","state":"OH","lat":40.1623,"long":-81.1326},{"zip":"43981","city":"New Athens","state":"OH","lat":40.1839,"long":-80.9959},{"zip":"43984","city":"New Rumley","state":"OH","lat":40.4017,"long":-81.0309},{"zip":"43986","city":"Jewett","state":"OH","lat":40.3745,"long":-81.0004},{"zip":"43988","city":"Scio","state":"OH","lat":40.4012,"long":-81.1016}]
