[{"zip":"44140","city":"Bay Village","state":"OH","lat":41.4841,"long":-81.9289},{"zip":"44141","city":"Brecksville","state":"OH","lat":41.3166,"long":-81.6261},{"zip":"44142","city":"Brookpark","state":"OH","lat":41.3979,"long":-81.8118},{"zip":"44143","city":"Cleveland","state":"OH","lat":41.5592,"long":-81.4828},{"zip":"44144","city":"Cleveland","state":"OH","lat":41.4385,"long":-81.7398},{"zip":"44145","city":"Westlake","state":"OH","lat":41.4535,"long":-81.9218},{"zip":"44146","city":"Bedford","state":"OH","lat":41.3921,"long":-81.5232},{"zip":"44147","city":"Broadview Heights","state":"OH","lat":41.3141,"long":-81.6731},{"zip":"44149","city":"Strongsville","state":"OH","lat":41.3134,"long":-81.8562}]
