[{"zip":"44212","city":"Brunswick","state":"OH","lat":41.2471,"long":-81.828},{"zip":"44215","city":"Chippewa Lake","state":"OH","lat":41.0653,"long":-81.9017},{"zip":"44211","city":"Brady Lake","state":"OH","lat":41.1698,"long":-81.3124},{"zip":"44210","city":"Bath","state":"OH","lat":41.1889,"long":-81.6362},{"zip":"44216","city":"Clinton","state":"OH","lat":40.9391,"long":-81.5871},{"zip":"44214","city":"Burbank","state":"OH","lat":40.9637,"long":-81.9958},{"zip":"44217","city":"Creston","state":"OH","lat":40.9788,"long":-81.9211}]
