[{"zip":"44423","city":"Hanoverton","state":"OH","lat":40.7731,"long":-80.9144},{"zip":"44427","city":"Kensington","state":"OH","lat":40.7142,"long":-80.9381},{"zip":"44422","city":"Greenford","state":"OH","lat":40.9439,"long":-80.7915},{"zip":"44429","city":"Lake Milton","state":"OH","lat":41.1014,"long":-80.9724},{"zip":"44420","city":"Girard","state":"OH","lat":41.1611,"long":-80.6933},{"zip":"44424","city":"Hartford","state":"OH","lat":41.3091,"long":-80.5847},{"zip":"44425","city":"Hubbard","state":"OH","lat":41.1624,"long":-80.5762},{"zip":"44428","city":"Kinsman","state":"OH","lat":41.4354,"long":-80.5765}]
