[{"zip":"44441","city":"Negley","state":"OH","lat":40.7579,"long":-80.553},{"zip":"44445","city":"New Waterford","state":"OH","lat":40.8489,"long":-80.6209},{"zip":"44442","city":"New Middletown","state":"OH","lat":40.9646,"long":-80.5534},{"zip":"44443","city":"New Springfield","state":"OH","lat":40.9265,"long":-80.5856},{"zip":"44449","city":"North Benton","state":"OH","lat":40.9876,"long":-81.0162},{"zip":"44440","city":"Mineral Ridge","state":"OH","lat":41.1318,"long":-80.7553},{"zip":"44444","city":"Newton Falls","state":"OH","lat":41.191,"long":-80.9701},{"zip":"44446","city":"Niles","state":"OH","lat":41.1824,"long":-80.7558}]
