[{"zip":"44607","city":"Augusta","state":"OH","lat":40.686,"long":-81.0219},{"zip":"44609","city":"Beloit","state":"OH","lat":40.8957,"long":-80.9897},{"zip":"44601","city":"Alliance","state":"OH","lat":40.9158,"long":-81.1182},{"zip":"44608","city":"Beach City","state":"OH","lat":40.6562,"long":-81.5851},{"zip":"44606","city":"Apple Creek","state":"OH","lat":40.7551,"long":-81.8093}]
