[{"zip":"45105","city":"Bentonville","state":"OH","lat":38.7498,"long":-83.6126},{"zip":"45144","city":"Manchester","state":"OH","lat":38.6982,"long":-83.6181},{"zip":"45101","city":"Aberdeen","state":"OH","lat":38.6709,"long":-83.7637},{"zip":"45115","city":"Decatur","state":"OH","lat":38.8237,"long":-83.6995},{"zip":"45118","city":"Fayetteville","state":"OH","lat":39.1862,"long":-83.9501},{"zip":"45119","city":"Feesburg","state":"OH","lat":38.8806,"long":-84.0087},{"zip":"45121","city":"Georgetown","state":"OH","lat":38.8717,"long":-83.9092},{"zip":"45130","city":"Hamersville","state":"OH","lat":38.92,"long":-83.9931},{"zip":"45131","city":"Higginsport","state":"OH","lat":38.7903,"long":-83.9666},{"zip":"45154","city":"Mount Orab","state":"OH","lat":39.0454,"long":-83.948},{"zip":"45167","city":"Ripley","state":"OH","lat":38.7551,"long":-83.8227},{"zip":"45168","city":"Russellville","state":"OH","lat":38.8511,"long":-83.7625},{"zip":"45171","city":"Sardinia","state":"OH","lat":38.9832,"long":-83.7966},{"zip":"45102","city":"Amelia","state":"OH","lat":39.0211,"long":-84.2112},{"zip":"45103","city":"Batavia","state":"OH","lat":39.0957,"long":-84.1451},{"zip":"45106","city":"Bethel","state":"OH","lat":38.9424,"long":-84.0919},{"zip":"45112","city":"Chilo","state":"OH","lat":38.7926,"long":-84.1382},{"zip":"45120","city":"Felicity","state":"OH","lat":38.8262,"long":-84.0986},{"zip":"45122","city":"Goshen","state":"OH","lat":39.2209,"long":-84.1188},{"zip":"45140","city":"Loveland","state":"OH","lat":39.2445,"long":-84.2588},{"zip":"45147","city":"Miamiville","state":"OH","lat":39.2137,"long":-84.3002},{"zip":"45150","city":"Milford","state":"OH","lat":39.1657,"long":-84.233},{"zip":"45153","city":"Moscow","state":"OH","lat":38.8583,"long":-84.1958},{"zip":"45156","city":"Neville","state":"OH","lat":38.8101,"long":-84.2122},{"zip":"45157","city":"New Richmond","state":"OH","lat":38.9537,"long":-84.2379},{"zip":"45158","city":"Newtonsville","state":"OH","lat":39.182,"long":-84.0863},{"zip":"45160","city":"Owensville","state":"OH","lat":39.1232,"long":-84.135},{"zip":"45176","city":"Williamsburg","state":"OH","lat":39.0753,"long":-84.0432},{"zip":"45107","city":"Blanchester","state":"OH","lat":39.3034,"long":-83.974},{"zip":"45113","city":"Clarksville","state":"OH","lat":39.4042,"long":-83.9594},{"zip":"45114","city":"Cuba","state":"OH","lat":39.3568,"long":-83.8572},{"zip":"45146","city":"Martinsville","state":"OH","lat":39.3127,"long":-83.8005},{"zip":"45148","city":"Midland","state":"OH","lat":39.2917,"long":-83.8931},{"zip":"45159","city":"New Vienna","state":"OH","lat":39.3321,"long":-83.6882},{"zip":"45164","city":"Port William","state":"OH","lat":39.5514,"long":-83.7881},{"zip":"45166","city":"Reesville","state":"OH","lat":39.4805,"long":-83.6772},{"zip":"45169","city":"Sabina","state":"OH","lat":39.49,"long":-83.6503},{"zip":"45177","city":"Wilmington","state":"OH","lat":39.4488,"long":-83.8417},{"zip":"45111","city":"Camp Dennison","state":"OH","lat":39.1962,"long":-84.2897},{"zip":"45174","city":"Terrace Park","state":"OH","lat":39.1602,"long":-84.3098},{"zip":"45123","city":"Greenfield","state":"OH","lat":39.3478,"long":-83.3898},{"zip":"45132","city":"Highland","state":"OH","lat":39.3445,"long":-83.5974},{"zip":"45133","city":"Hillsboro","state":"OH","lat":39.1679,"long":-83.6064},{"zip":"45135","city":"Leesburg","state":"OH","lat":39.3458,"long":-83.5481},{"zip":"45142","city":"Lynchburg","state":"OH","lat":39.2119,"long":-83.8021},{"zip":"45155","city":"Mowrystown","state":"OH","lat":39.0388,"long":-83.7505},{"zip":"45172","city":"Sinking Spring","state":"OH","lat":39.0738,"long":-83.3853},{"zip":"45152","city":"Morrow","state":"OH","lat":39.3476,"long":-84.1181},{"zip":"45162","city":"Pleasant Plain","state":"OH","lat":39.2884,"long":-84.0967}]
