[{"zip":"45331","city":"Greenville","state":"OH","lat":40.0987,"long":-84.6342},{"zip":"45332","city":"Hollansburg","state":"OH","lat":39.9899,"long":-84.7901},{"zip":"45335","city":"Jamestown","state":"OH","lat":39.6428,"long":-83.7504},{"zip":"45337","city":"Laura","state":"OH","lat":39.9785,"long":-84.3994},{"zip":"45339","city":"Ludlow Falls","state":"OH","lat":39.9871,"long":-84.3334},{"zip":"45330","city":"Gratis","state":"OH","lat":39.6483,"long":-84.5282},{"zip":"45338","city":"Lewisburg","state":"OH","lat":39.8534,"long":-84.5369},{"zip":"45333","city":"Houston","state":"OH","lat":40.2535,"long":-84.3521},{"zip":"45334","city":"Jackson Center","state":"OH","lat":40.4358,"long":-84.0457},{"zip":"45336","city":"Kettlersville","state":"OH","lat":40.4413,"long":-84.2626}]
