[{"zip":"45620","city":"Cheshire","state":"OH","lat":38.9587,"long":-82.1235},{"zip":"45623","city":"Crown City","state":"OH","lat":38.6135,"long":-82.2657},{"zip":"45621","city":"Coalton","state":"OH","lat":39.1108,"long":-82.6077},{"zip":"45624","city":"Cynthiana","state":"OH","lat":39.1737,"long":-83.3485},{"zip":"45628","city":"Frankfort","state":"OH","lat":39.391,"long":-83.2034},{"zip":"45629","city":"Franklin Furnace","state":"OH","lat":38.6282,"long":-82.8145},{"zip":"45622","city":"Creola","state":"OH","lat":39.3543,"long":-82.503}]
