[{"zip":"45650","city":"Lynx","state":"OH","lat":38.7391,"long":-83.4262},{"zip":"45658","city":"Patriot","state":"OH","lat":38.777,"long":-82.4275},{"zip":"45656","city":"Oak Hill","state":"OH","lat":38.8916,"long":-82.5883},{"zip":"45659","city":"Pedro","state":"OH","lat":38.6503,"long":-82.6477},{"zip":"45652","city":"Mc Dermott","state":"OH","lat":38.8362,"long":-83.0689},{"zip":"45653","city":"Minford","state":"OH","lat":38.8751,"long":-82.8555},{"zip":"45657","city":"Otway","state":"OH","lat":38.852,"long":-83.2222},{"zip":"45651","city":"Mc Arthur","state":"OH","lat":39.28,"long":-82.4753},{"zip":"45654","city":"New Plymouth","state":"OH","lat":39.3884,"long":-82.3892}]
