[{"zip":"45685","city":"Thurman","state":"OH","lat":38.8705,"long":-82.4063},{"zip":"45686","city":"Vinton","state":"OH","lat":38.9783,"long":-82.357},{"zip":"45680","city":"South Point","state":"OH","lat":38.4339,"long":-82.5529},{"zip":"45688","city":"Waterloo","state":"OH","lat":38.7182,"long":-82.5174},{"zip":"45683","city":"Stockdale","state":"OH","lat":38.9555,"long":-82.8584},{"zip":"45687","city":"Wakefield","state":"OH","lat":38.9703,"long":-83.0199},{"zip":"45681","city":"South Salem","state":"OH","lat":39.3021,"long":-83.272},{"zip":"45682","city":"South Webster","state":"OH","lat":38.82,"long":-82.7202},{"zip":"45684","city":"Stout","state":"OH","lat":38.6546,"long":-83.209}]
