[{"zip":"45723","city":"Coolville","state":"OH","lat":39.2141,"long":-81.8329},{"zip":"45720","city":"Chester","state":"OH","lat":39.0856,"long":-81.9214},{"zip":"45727","city":"Dexter City","state":"OH","lat":39.6526,"long":-81.4672},{"zip":"45721","city":"Coal Run","state":"OH","lat":39.4307,"long":-81.4451},{"zip":"45724","city":"Cutler","state":"OH","lat":39.4042,"long":-81.7657},{"zip":"45729","city":"Fleming","state":"OH","lat":39.4136,"long":-81.6078}]
