[{"zip":"45780","city":"The Plains","state":"OH","lat":39.3662,"long":-82.1341},{"zip":"45782","city":"Trimble","state":"OH","lat":39.4845,"long":-82.0805},{"zip":"45783","city":"Tuppers Plains","state":"OH","lat":39.1683,"long":-81.8423},{"zip":"45784","city":"Vincent","state":"OH","lat":39.3374,"long":-81.6743},{"zip":"45786","city":"Waterford","state":"OH","lat":39.5159,"long":-81.6559},{"zip":"45787","city":"Watertown","state":"OH","lat":39.4307,"long":-81.4451},{"zip":"45788","city":"Whipple","state":"OH","lat":39.5136,"long":-81.3668},{"zip":"45789","city":"Wingett Run","state":"OH","lat":39.5428,"long":-81.284}]
