[{"zip":"45887","city":"Spencerville","state":"OH","lat":40.7038,"long":-84.3413},{"zip":"45884","city":"Saint Johns","state":"OH","lat":40.5559,"long":-84.0836},{"zip":"45885","city":"Saint Marys","state":"OH","lat":40.544,"long":-84.3944},{"zip":"45888","city":"Uniopolis","state":"OH","lat":40.6023,"long":-84.086},{"zip":"45881","city":"Rawson","state":"OH","lat":40.9589,"long":-83.7841},{"zip":"45889","city":"Van Buren","state":"OH","lat":41.1327,"long":-83.6473},{"zip":"45882","city":"Rockford","state":"OH","lat":40.6771,"long":-84.6642},{"zip":"45883","city":"Saint Henry","state":"OH","lat":40.4091,"long":-84.6333},{"zip":"45880","city":"Payne","state":"OH","lat":41.0807,"long":-84.7341},{"zip":"45886","city":"Scott","state":"OH","lat":40.9892,"long":-84.5845}]
