[{"zip":"46052","city":"Lebanon","state":"IN","lat":40.0449,"long":-86.4641},{"zip":"46050","city":"Kirklin","state":"IN","lat":40.2031,"long":-86.3324},{"zip":"46057","city":"Michigantown","state":"IN","lat":40.3108,"long":-86.3753},{"zip":"46058","city":"Mulberry","state":"IN","lat":40.3433,"long":-86.6613},{"zip":"46055","city":"Mccordsville","state":"IN","lat":39.9081,"long":-85.9228},{"zip":"46051","city":"Lapel","state":"IN","lat":40.0854,"long":-85.844},{"zip":"46056","city":"Markleville","state":"IN","lat":39.9944,"long":-85.6227}]
