[{"zip":"46102","city":"Advance","state":"IN","lat":39.9956,"long":-86.6198},{"zip":"46103","city":"Amo","state":"IN","lat":39.6886,"long":-86.6136},{"zip":"46106","city":"Bargersville","state":"IN","lat":39.5,"long":-86.1797},{"zip":"46107","city":"Beech Grove","state":"IN","lat":39.7154,"long":-86.0933},{"zip":"46105","city":"Bainbridge","state":"IN","lat":39.7612,"long":-86.812},{"zip":"46104","city":"Arlington","state":"IN","lat":39.6488,"long":-85.5828}]
