[{"zip":"46507","city":"Bristol","state":"IN","lat":41.7169,"long":-85.8262},{"zip":"46502","city":"Atwood","state":"IN","lat":41.254,"long":-85.9697},{"zip":"46508","city":"Burket","state":"IN","lat":41.1547,"long":-85.9693},{"zip":"46501","city":"Argos","state":"IN","lat":41.2308,"long":-86.2506},{"zip":"46504","city":"Bourbon","state":"IN","lat":41.3098,"long":-86.1174},{"zip":"46506","city":"Bremen","state":"IN","lat":41.4467,"long":-86.1932}]
