[{"zip":"46704","city":"Arcola","state":"IN","lat":41.1038,"long":-85.2925},{"zip":"46705","city":"Ashley","state":"IN","lat":41.5347,"long":-85.0504},{"zip":"46706","city":"Auburn","state":"IN","lat":41.359,"long":-85.0468},{"zip":"46702","city":"Andrews","state":"IN","lat":40.8618,"long":-85.6067},{"zip":"46701","city":"Albion","state":"IN","lat":41.3482,"long":-85.4142},{"zip":"46703","city":"Angola","state":"IN","lat":41.6563,"long":-85.0198}]
