[{"zip":"46961","city":"New Waverly","state":"IN","lat":40.7621,"long":-86.1936},{"zip":"46967","city":"Onward","state":"IN","lat":40.6947,"long":-86.1951},{"zip":"46965","city":"Oakford","state":"IN","lat":40.4127,"long":-86.1015},{"zip":"46960","city":"Monterey","state":"IN","lat":41.1383,"long":-86.5179},{"zip":"46968","city":"Ora","state":"IN","lat":41.1756,"long":-86.5543},{"zip":"46962","city":"North Manchester","state":"IN","lat":40.9986,"long":-85.7842}]
