[{"zip":"47104","city":"Bethlehem","state":"IN","lat":38.5399,"long":-85.4218},{"zip":"47106","city":"Borden","state":"IN","lat":38.4362,"long":-85.9215},{"zip":"47107","city":"Bradford","state":"IN","lat":38.3678,"long":-86.0619},{"zip":"47102","city":"Austin","state":"IN","lat":38.7478,"long":-85.7962},{"zip":"47108","city":"Campbellsburg","state":"IN","lat":38.669,"long":-86.2358}]
