[{"zip":"47172","city":"Sellersburg","state":"IN","lat":38.4046,"long":-85.788},{"zip":"47177","city":"Underwood","state":"IN","lat":38.6037,"long":-85.7744},{"zip":"47174","city":"Sulphur","state":"IN","lat":38.2259,"long":-86.4908},{"zip":"47175","city":"Taswell","state":"IN","lat":38.3463,"long":-86.5387},{"zip":"47170","city":"Scottsburg","state":"IN","lat":38.6885,"long":-85.7987}]
