[{"zip":"47348","city":"Hartford City","state":"IN","lat":40.4541,"long":-85.3758},{"zip":"47342","city":"Gaston","state":"IN","lat":40.2948,"long":-85.4898},{"zip":"47344","city":"Greensboro","state":"IN","lat":39.8789,"long":-85.464},{"zip":"47340","city":"Farmland","state":"IN","lat":40.1945,"long":-85.1254},{"zip":"47341","city":"Fountain City","state":"IN","lat":39.9634,"long":-84.909},{"zip":"47345","city":"Greens Fork","state":"IN","lat":39.8916,"long":-85.0494},{"zip":"47346","city":"Hagerstown","state":"IN","lat":39.9228,"long":-85.1601}]
