[{"zip":"47465","city":"Switz City","state":"IN","lat":39.0369,"long":-87.0502},{"zip":"47462","city":"Springville","state":"IN","lat":38.9507,"long":-86.6139},{"zip":"47467","city":"Tunnelton","state":"IN","lat":38.7687,"long":-86.3428},{"zip":"47463","city":"Stanford","state":"IN","lat":39.0859,"long":-86.6689},{"zip":"47464","city":"Stinesville","state":"IN","lat":39.2998,"long":-86.6482},{"zip":"47468","city":"Unionville","state":"IN","lat":39.2514,"long":-86.4189},{"zip":"47469","city":"West Baden Springs","state":"IN","lat":38.6208,"long":-86.5899},{"zip":"47460","city":"Spencer","state":"IN","lat":39.2891,"long":-86.7789}]
