[{"zip":"47532","city":"Ferdinand","state":"IN","lat":38.2336,"long":-86.8607},{"zip":"47535","city":"Freelandville","state":"IN","lat":38.8627,"long":-87.3127},{"zip":"47531","city":"Evanston","state":"IN","lat":38.0224,"long":-86.8364},{"zip":"47536","city":"Fulda","state":"IN","lat":38.1114,"long":-86.8361},{"zip":"47537","city":"Gentryville","state":"IN","lat":38.0855,"long":-87.0441}]
