[{"zip":"47575","city":"Saint Anthony","state":"IN","lat":38.3211,"long":-86.8234},{"zip":"47573","city":"Ragsdale","state":"IN","lat":38.7441,"long":-87.3214},{"zip":"47578","city":"Sandborn","state":"IN","lat":38.8817,"long":-87.2025},{"zip":"47574","city":"Rome","state":"IN","lat":37.9372,"long":-86.534},{"zip":"47576","city":"Saint Croix","state":"IN","lat":38.1834,"long":-86.6058},{"zip":"47577","city":"Saint Meinrad","state":"IN","lat":38.1712,"long":-86.8092},{"zip":"47579","city":"Santa Claus","state":"IN","lat":38.1176,"long":-86.9286}]
