[{"zip":"47881","city":"Staunton","state":"IN","lat":39.4875,"long":-87.1889},{"zip":"47882","city":"Sullivan","state":"IN","lat":39.101,"long":-87.4102},{"zip":"47884","city":"Universal","state":"IN","lat":39.6221,"long":-87.4548},{"zip":"47880","city":"Shepardsville","state":"IN","lat":39.6006,"long":-87.4196},{"zip":"47885","city":"West Terre Haute","state":"IN","lat":39.4984,"long":-87.4688}]
