[{"zip":"48003","city":"Almont","state":"MI","lat":42.926,"long":-83.0362},{"zip":"48005","city":"Armada","state":"MI","lat":42.8409,"long":-82.8899},{"zip":"48015","city":"Center Line","state":"MI","lat":42.4788,"long":-83.0248},{"zip":"48021","city":"Eastpointe","state":"MI","lat":42.4658,"long":-82.9459},{"zip":"48026","city":"Fraser","state":"MI","lat":42.5423,"long":-82.947},{"zip":"48035","city":"Clinton Township","state":"MI","lat":42.5512,"long":-82.9167},{"zip":"48036","city":"Clinton Township","state":"MI","lat":42.5938,"long":-82.9133},{"zip":"48038","city":"Clinton Township","state":"MI","lat":42.6206,"long":-82.9608},{"zip":"48042","city":"Macomb","state":"MI","lat":42.6735,"long":-82.9163},{"zip":"48043","city":"Mount Clemens","state":"MI","lat":42.5978,"long":-82.8823},{"zip":"48044","city":"Macomb","state":"MI","lat":42.6442,"long":-82.8985},{"zip":"48045","city":"Harrison Township","state":"MI","lat":42.5877,"long":-82.8215},{"zip":"48046","city":"Mount Clemens","state":"MI","lat":42.5973,"long":-82.878},{"zip":"48047","city":"New Baltimore","state":"MI","lat":42.673,"long":-82.7753},{"zip":"48048","city":"New Haven","state":"MI","lat":42.7443,"long":-82.8042},{"zip":"48050","city":"New Haven","state":"MI","lat":42.7859,"long":-82.7979},{"zip":"48051","city":"New Baltimore","state":"MI","lat":42.6938,"long":-82.8207},{"zip":"48062","city":"Richmond","state":"MI","lat":42.8389,"long":-82.7996},{"zip":"48065","city":"Romeo","state":"MI","lat":42.84,"long":-83.0388},{"zip":"48066","city":"Roseville","state":"MI","lat":42.5034,"long":-82.9387},{"zip":"48080","city":"Saint Clair Shores","state":"MI","lat":42.4706,"long":-82.9022},{"zip":"48081","city":"Saint Clair Shores","state":"MI","lat":42.4941,"long":-82.899},{"zip":"48082","city":"Saint Clair Shores","state":"MI","lat":42.5269,"long":-82.8841},{"zip":"48088","city":"Warren","state":"MI","lat":42.5164,"long":-82.9832},{"zip":"48089","city":"Warren","state":"MI","lat":42.4685,"long":-82.9974},{"zip":"48090","city":"Warren","state":"MI","lat":42.4775,"long":-83.0277},{"zip":"48091","city":"Warren","state":"MI","lat":42.4665,"long":-83.0593},{"zip":"48092","city":"Warren","state":"MI","lat":42.5125,"long":-83.0643},{"zip":"48093","city":"Warren","state":"MI","lat":42.5149,"long":-82.9968},{"zip":"48094","city":"Washington","state":"MI","lat":42.7262,"long":-83.0268},{"zip":"48095","city":"Washington","state":"MI","lat":42.7682,"long":-83.0395},{"zip":"48096","city":"Ray","state":"MI","lat":42.754,"long":-82.9163},{"zip":"48007","city":"Troy","state":"MI","lat":42.6061,"long":-83.2976},{"zip":"48009","city":"Birmingham","state":"MI","lat":42.5444,"long":-83.2133},{"zip":"48012","city":"Birmingham","state":"MI","lat":42.5467,"long":-83.2113},{"zip":"48017","city":"Clawson","state":"MI","lat":42.5365,"long":-83.1503},{"zip":"48025","city":"Franklin","state":"MI","lat":42.5219,"long":-83.2519},{"zip":"48030","city":"Hazel Park","state":"MI","lat":42.4608,"long":-83.0982},{"zip":"48033","city":"Southfield","state":"MI","lat":42.4723,"long":-83.294},{"zip":"48034","city":"Southfield","state":"MI","lat":42.4969,"long":-83.2911},{"zip":"48037","city":"Southfield","state":"MI","lat":42.5675,"long":-83.15},{"zip":"48067","city":"Royal Oak","state":"MI","lat":42.4906,"long":-83.1366},{"zip":"48068","city":"Royal Oak","state":"MI","lat":42.4895,"long":-83.1446},{"zip":"48069","city":"Pleasant Ridge","state":"MI","lat":42.471,"long":-83.1438},{"zip":"48070","city":"Huntington Woods","state":"MI","lat":42.4825,"long":-83.1749},{"zip":"48071","city":"Madison Heights","state":"MI","lat":42.5016,"long":-83.1027},{"zip":"48072","city":"Berkley","state":"MI","lat":42.5028,"long":-83.1887},{"zip":"48073","city":"Royal Oak","state":"MI","lat":42.519,"long":-83.157},{"zip":"48075","city":"Southfield","state":"MI","lat":42.4638,"long":-83.2255},{"zip":"48076","city":"Southfield","state":"MI","lat":42.4981,"long":-83.2058},{"zip":"48083","city":"Troy","state":"MI","lat":42.5597,"long":-83.1138},{"zip":"48084","city":"Troy","state":"MI","lat":42.5627,"long":-83.1799},{"zip":"48085","city":"Troy","state":"MI","lat":42.6006,"long":-83.1198},{"zip":"48086","city":"Southfield","state":"MI","lat":42.4734,"long":-83.2219},{"zip":"48098","city":"Troy","state":"MI","lat":42.5991,"long":-83.1789},{"zip":"48099","city":"Troy","state":"MI","lat":42.5876,"long":-83.1737},{"zip":"48001","city":"Algonac","state":"MI","lat":42.6367,"long":-82.5866},{"zip":"48002","city":"Allenton","state":"MI","lat":42.9388,"long":-82.9198},{"zip":"48004","city":"Anchorville","state":"MI","lat":42.8241,"long":-82.6652},{"zip":"48006","city":"Avoca","state":"MI","lat":43.0752,"long":-82.6955},{"zip":"48014","city":"Capac","state":"MI","lat":43.0263,"long":-82.9298},{"zip":"48022","city":"Emmett","state":"MI","lat":42.9872,"long":-82.7854},{"zip":"48023","city":"Fair Haven","state":"MI","lat":42.7023,"long":-82.6688},{"zip":"48027","city":"Goodells","state":"MI","lat":42.9443,"long":-82.6916},{"zip":"48028","city":"Harsens Island","state":"MI","lat":42.585,"long":-82.586},{"zip":"48032","city":"Jeddo","state":"MI","lat":43.1223,"long":-82.5998},{"zip":"48039","city":"Marine City","state":"MI","lat":42.6859,"long":-82.5499},{"zip":"48040","city":"Marysville","state":"MI","lat":42.9135,"long":-82.4813},{"zip":"48041","city":"Memphis","state":"MI","lat":42.941,"long":-82.8046},{"zip":"48049","city":"North Street","state":"MI","lat":43.0349,"long":-82.5748},{"zip":"48054","city":"East China","state":"MI","lat":42.7769,"long":-82.5437},{"zip":"48059","city":"Fort Gratiot","state":"MI","lat":43.0888,"long":-82.4905},{"zip":"48060","city":"Port Huron","state":"MI","lat":42.9958,"long":-82.4599},{"zip":"48061","city":"Port Huron","state":"MI","lat":42.9709,"long":-82.4249},{"zip":"48063","city":"Columbus","state":"MI","lat":42.8892,"long":-82.6675},{"zip":"48064","city":"Casco","state":"MI","lat":42.7674,"long":-82.6728},{"zip":"48074","city":"Smiths Creek","state":"MI","lat":42.9051,"long":-82.5679},{"zip":"48079","city":"Saint Clair","state":"MI","lat":42.8255,"long":-82.5133},{"zip":"48097","city":"Yale","state":"MI","lat":43.126,"long":-82.8295}]
