[{"zip":"48021","city":"Eastpointe","state":"MI","lat":42.4658,"long":-82.9459},{"zip":"48026","city":"Fraser","state":"MI","lat":42.5423,"long":-82.947},{"zip":"48025","city":"Franklin","state":"MI","lat":42.5219,"long":-83.2519},{"zip":"48022","city":"Emmett","state":"MI","lat":42.9872,"long":-82.7854},{"zip":"48023","city":"Fair Haven","state":"MI","lat":42.7023,"long":-82.6688},{"zip":"48027","city":"Goodells","state":"MI","lat":42.9443,"long":-82.6916},{"zip":"48028","city":"Harsens Island","state":"MI","lat":42.585,"long":-82.586}]
