[{"zip":"48042","city":"Macomb","state":"MI","lat":42.6735,"long":-82.9163},{"zip":"48043","city":"Mount Clemens","state":"MI","lat":42.5978,"long":-82.8823},{"zip":"48044","city":"Macomb","state":"MI","lat":42.6442,"long":-82.8985},{"zip":"48045","city":"Harrison Township","state":"MI","lat":42.5877,"long":-82.8215},{"zip":"48046","city":"Mount Clemens","state":"MI","lat":42.5973,"long":-82.878},{"zip":"48047","city":"New Baltimore","state":"MI","lat":42.673,"long":-82.7753},{"zip":"48048","city":"New Haven","state":"MI","lat":42.7443,"long":-82.8042},{"zip":"48040","city":"Marysville","state":"MI","lat":42.9135,"long":-82.4813},{"zip":"48041","city":"Memphis","state":"MI","lat":42.941,"long":-82.8046},{"zip":"48049","city":"North Street","state":"MI","lat":43.0349,"long":-82.5748}]
