[{"zip":"48070","city":"Huntington Woods","state":"MI","lat":42.4825,"long":-83.1749},{"zip":"48071","city":"Madison Heights","state":"MI","lat":42.5016,"long":-83.1027},{"zip":"48072","city":"Berkley","state":"MI","lat":42.5028,"long":-83.1887},{"zip":"48073","city":"Royal Oak","state":"MI","lat":42.519,"long":-83.157},{"zip":"48075","city":"Southfield","state":"MI","lat":42.4638,"long":-83.2255},{"zip":"48076","city":"Southfield","state":"MI","lat":42.4981,"long":-83.2058},{"zip":"48074","city":"Smiths Creek","state":"MI","lat":42.9051,"long":-82.5679},{"zip":"48079","city":"Saint Clair","state":"MI","lat":42.8255,"long":-82.5133}]
