[{"zip":"48463","city":"Otisville","state":"MI","lat":43.1706,"long":-83.5172},{"zip":"48467","city":"Port Austin","state":"MI","lat":44.0223,"long":-82.9984},{"zip":"48468","city":"Port Hope","state":"MI","lat":43.928,"long":-82.7529},{"zip":"48461","city":"North Branch","state":"MI","lat":43.2069,"long":-83.2267},{"zip":"48464","city":"Otter Lake","state":"MI","lat":43.2183,"long":-83.4242},{"zip":"48462","city":"Ortonville","state":"MI","lat":42.8409,"long":-83.4288},{"zip":"48465","city":"Palms","state":"MI","lat":43.6257,"long":-82.7017},{"zip":"48466","city":"Peck","state":"MI","lat":43.2694,"long":-82.8193},{"zip":"48469","city":"Port Sanilac","state":"MI","lat":43.4329,"long":-82.5468},{"zip":"48460","city":"New Lothrop","state":"MI","lat":43.1388,"long":-83.9851}]
