[{"zip":"48762","city":"Spruce","state":"MI","lat":44.8224,"long":-83.5044},{"zip":"48765","city":"Turner","state":"MI","lat":44.1105,"long":-83.7019},{"zip":"48766","city":"Twining","state":"MI","lat":44.1293,"long":-83.8491},{"zip":"48763","city":"Tawas City","state":"MI","lat":44.2675,"long":-83.5449},{"zip":"48764","city":"Tawas City","state":"MI","lat":44.2665,"long":-83.5192},{"zip":"48760","city":"Silverwood","state":"MI","lat":43.3141,"long":-83.272},{"zip":"48761","city":"South Branch","state":"MI","lat":44.5014,"long":-83.8686},{"zip":"48767","city":"Unionville","state":"MI","lat":43.6473,"long":-83.4699},{"zip":"48768","city":"Vassar","state":"MI","lat":43.3691,"long":-83.5844}]
