[{"zip":"48866","city":"Ovid","state":"MI","lat":42.9969,"long":-84.3649},{"zip":"48861","city":"Mulliken","state":"MI","lat":42.7377,"long":-84.8979},{"zip":"48862","city":"North Star","state":"MI","lat":43.2484,"long":-84.5433},{"zip":"48864","city":"Okemos","state":"MI","lat":42.7053,"long":-84.4187},{"zip":"48860","city":"Muir","state":"MI","lat":43.0439,"long":-84.9391},{"zip":"48865","city":"Orleans","state":"MI","lat":43.0895,"long":-85.1165},{"zip":"48867","city":"Owosso","state":"MI","lat":42.9934,"long":-84.1595}]
