[{"zip":"49035","city":"Cloverdale","state":"MI","lat":42.5951,"long":-85.3086},{"zip":"49038","city":"Coloma","state":"MI","lat":42.203,"long":-86.3225},{"zip":"49039","city":"Hagar Shores","state":"MI","lat":42.2248,"long":-86.3723},{"zip":"49036","city":"Coldwater","state":"MI","lat":41.9255,"long":-85.0057},{"zip":"49033","city":"Ceresco","state":"MI","lat":42.2127,"long":-85.1128},{"zip":"49037","city":"Battle Creek","state":"MI","lat":42.3453,"long":-85.2178},{"zip":"49031","city":"Cassopolis","state":"MI","lat":41.8968,"long":-85.9923},{"zip":"49034","city":"Climax","state":"MI","lat":42.234,"long":-85.3238},{"zip":"49030","city":"Burr Oak","state":"MI","lat":41.8459,"long":-85.3345},{"zip":"49032","city":"Centreville","state":"MI","lat":41.9217,"long":-85.4963}]
