[{"zip":"49046","city":"Delton","state":"MI","lat":42.5141,"long":-85.4067},{"zip":"49047","city":"Dowagiac","state":"MI","lat":41.991,"long":-86.1168},{"zip":"49041","city":"Comstock","state":"MI","lat":42.2867,"long":-85.5133},{"zip":"49048","city":"Kalamazoo","state":"MI","lat":42.3189,"long":-85.5152},{"zip":"49040","city":"Colon","state":"MI","lat":41.9576,"long":-85.3306},{"zip":"49042","city":"Constantine","state":"MI","lat":41.846,"long":-85.6571},{"zip":"49043","city":"Covert","state":"MI","lat":42.2911,"long":-86.2743},{"zip":"49045","city":"Decatur","state":"MI","lat":42.1012,"long":-86.0338}]
