[{"zip":"49050","city":"Dowling","state":"MI","lat":42.5015,"long":-85.2495},{"zip":"49058","city":"Hastings","state":"MI","lat":42.643,"long":-85.2937},{"zip":"49051","city":"East Leroy","state":"MI","lat":42.1961,"long":-85.2311},{"zip":"49052","city":"Fulton","state":"MI","lat":42.1391,"long":-85.3227},{"zip":"49053","city":"Galesburg","state":"MI","lat":42.2948,"long":-85.4237},{"zip":"49055","city":"Gobles","state":"MI","lat":42.3702,"long":-85.8536},{"zip":"49056","city":"Grand Junction","state":"MI","lat":42.3761,"long":-86.0541},{"zip":"49057","city":"Hartford","state":"MI","lat":42.2088,"long":-86.1687}]
