[{"zip":"49255","city":"Montgomery","state":"MI","lat":41.7928,"long":-84.8496},{"zip":"49250","city":"Jonesville","state":"MI","lat":41.9798,"long":-84.6451},{"zip":"49252","city":"Litchfield","state":"MI","lat":42.0369,"long":-84.7673},{"zip":"49257","city":"Moscow","state":"MI","lat":42.0548,"long":-84.5039},{"zip":"49258","city":"Mosherville","state":"MI","lat":42.0603,"long":-84.6594},{"zip":"49251","city":"Leslie","state":"MI","lat":42.4603,"long":-84.4207},{"zip":"49254","city":"Michigan Center","state":"MI","lat":42.2271,"long":-84.3161},{"zip":"49259","city":"Munith","state":"MI","lat":42.3703,"long":-84.2485},{"zip":"49253","city":"Manitou Beach","state":"MI","lat":41.9671,"long":-84.2767},{"zip":"49256","city":"Morenci","state":"MI","lat":41.7386,"long":-84.2192}]
