[{"zip":"49311","city":"Bradley","state":"MI","lat":42.633,"long":-85.643},{"zip":"49314","city":"Burnips","state":"MI","lat":42.7312,"long":-85.8404},{"zip":"49310","city":"Blanchard","state":"MI","lat":43.5228,"long":-85.0589},{"zip":"49315","city":"Byron Center","state":"MI","lat":42.8016,"long":-85.7136},{"zip":"49316","city":"Caledonia","state":"MI","lat":42.8187,"long":-85.5244},{"zip":"49317","city":"Cannonsburg","state":"MI","lat":43.0712,"long":-85.4809},{"zip":"49319","city":"Cedar Springs","state":"MI","lat":43.2215,"long":-85.5452},{"zip":"49318","city":"Casnovia","state":"MI","lat":43.2381,"long":-85.8254},{"zip":"49312","city":"Brohman","state":"MI","lat":43.6853,"long":-85.8159}]
