[{"zip":"49323","city":"Dorr","state":"MI","lat":42.7231,"long":-85.7628},{"zip":"49328","city":"Hopkins","state":"MI","lat":42.6421,"long":-85.7322},{"zip":"49325","city":"Freeport","state":"MI","lat":42.7661,"long":-85.3133},{"zip":"49321","city":"Comstock Park","state":"MI","lat":43.0578,"long":-85.6845},{"zip":"49320","city":"Chippewa Lake","state":"MI","lat":43.7553,"long":-85.2783},{"zip":"49322","city":"Coral","state":"MI","lat":43.3645,"long":-85.3792},{"zip":"49326","city":"Gowen","state":"MI","lat":43.2239,"long":-85.3159},{"zip":"49329","city":"Howard City","state":"MI","lat":43.4083,"long":-85.4856},{"zip":"49327","city":"Grant","state":"MI","lat":43.3392,"long":-85.8368}]
