[{"zip":"49344","city":"Shelbyville","state":"MI","lat":42.5936,"long":-85.6282},{"zip":"49348","city":"Wayland","state":"MI","lat":42.6643,"long":-85.6191},{"zip":"49341","city":"Rockford","state":"MI","lat":43.1152,"long":-85.5136},{"zip":"49343","city":"Sand Lake","state":"MI","lat":43.2981,"long":-85.5367},{"zip":"49345","city":"Sparta","state":"MI","lat":43.1619,"long":-85.6877},{"zip":"49340","city":"Remus","state":"MI","lat":43.6032,"long":-85.1574},{"zip":"49342","city":"Rodney","state":"MI","lat":43.7379,"long":-85.3219},{"zip":"49346","city":"Stanwood","state":"MI","lat":43.6017,"long":-85.4446},{"zip":"49347","city":"Trufant","state":"MI","lat":43.3156,"long":-85.3685},{"zip":"49349","city":"White Cloud","state":"MI","lat":43.5398,"long":-85.7586}]
