[{"zip":"49666","city":"Mayfield","state":"MI","lat":44.6261,"long":-85.5287},{"zip":"49664","city":"Maple City","state":"MI","lat":44.859,"long":-85.8814},{"zip":"49660","city":"Manistee","state":"MI","lat":44.2635,"long":-86.1825},{"zip":"49667","city":"Merritt","state":"MI","lat":44.3433,"long":-84.9446},{"zip":"49665","city":"Marion","state":"MI","lat":44.0463,"long":-85.155},{"zip":"49663","city":"Manton","state":"MI","lat":44.4152,"long":-85.4202},{"zip":"49668","city":"Mesick","state":"MI","lat":44.4075,"long":-85.7061}]
