[{"zip":"49711","city":"Bay Shore","state":"MI","lat":45.3583,"long":-85.0973},{"zip":"49712","city":"Boyne City","state":"MI","lat":45.2052,"long":-85.0183},{"zip":"49713","city":"Boyne Falls","state":"MI","lat":45.2116,"long":-84.8916},{"zip":"49716","city":"Brutus","state":"MI","lat":45.5068,"long":-84.7467},{"zip":"49717","city":"Burt Lake","state":"MI","lat":45.4307,"long":-84.6912},{"zip":"49710","city":"Barbeau","state":"MI","lat":46.2848,"long":-84.2173},{"zip":"49715","city":"Brimley","state":"MI","lat":46.3891,"long":-84.6981},{"zip":"49718","city":"Carp Lake","state":"MI","lat":45.7424,"long":-84.7735},{"zip":"49719","city":"Cedarville","state":"MI","lat":46.0024,"long":-84.3488}]
