[{"zip":"49736","city":"Goetzville","state":"MI","lat":46.079,"long":-84.145},{"zip":"49733","city":"Frederic","state":"MI","lat":44.8382,"long":-84.6824},{"zip":"49738","city":"Grayling","state":"MI","lat":44.671,"long":-84.6913},{"zip":"49739","city":"Grayling","state":"MI","lat":44.683,"long":-84.6104},{"zip":"49737","city":"Good Hart","state":"MI","lat":45.5802,"long":-85.1137},{"zip":"49730","city":"Elmira","state":"MI","lat":45.0645,"long":-84.8562},{"zip":"49734","city":"Gaylord","state":"MI","lat":45.0275,"long":-84.6748},{"zip":"49735","city":"Gaylord","state":"MI","lat":45.0125,"long":-84.6723}]
