[{"zip":"49816","city":"Chatham","state":"MI","lat":46.3477,"long":-86.929},{"zip":"49818","city":"Cornell","state":"MI","lat":45.9104,"long":-87.2237},{"zip":"49815","city":"Channing","state":"MI","lat":46.1546,"long":-88.0772},{"zip":"49814","city":"Champion","state":"MI","lat":46.4685,"long":-87.8306},{"zip":"49819","city":"Arnold","state":"MI","lat":46.0508,"long":-87.4921},{"zip":"49812","city":"Carney","state":"MI","lat":45.5917,"long":-87.5439},{"zip":"49817","city":"Cooks","state":"MI","lat":45.8997,"long":-86.5307}]
