[{"zip":"49908","city":"Baraga","state":"MI","lat":46.8048,"long":-88.5758},{"zip":"49905","city":"Atlantic Mine","state":"MI","lat":47.0937,"long":-88.6613},{"zip":"49902","city":"Alpha","state":"MI","lat":46.0438,"long":-88.3771},{"zip":"49903","city":"Amasa","state":"MI","lat":46.2321,"long":-88.4508},{"zip":"49901","city":"Ahmeek","state":"MI","lat":47.2933,"long":-88.3897}]
