[{"zip":"50109","city":"Granger","state":"IA","lat":41.7611,"long":-93.8244},{"zip":"50103","city":"Garden Grove","state":"IA","lat":40.7711,"long":-93.6117},{"zip":"50108","city":"Grand River","state":"IA","lat":40.8137,"long":-93.9544},{"zip":"50107","city":"Grand Junction","state":"IA","lat":42.0296,"long":-94.2336},{"zip":"50102","city":"Garden City","state":"IA","lat":42.2455,"long":-93.3955},{"zip":"50104","city":"Gibson","state":"IA","lat":41.4868,"long":-92.3867},{"zip":"50106","city":"Gilman","state":"IA","lat":41.9012,"long":-92.8101},{"zip":"50105","city":"Gilbert","state":"IA","lat":42.1148,"long":-93.6399},{"zip":"50101","city":"Galt","state":"IA","lat":42.6912,"long":-93.6035}]
