[{"zip":"50152","city":"Luther","state":"IA","lat":41.9387,"long":-93.8371},{"zip":"50156","city":"Madrid","state":"IA","lat":41.8841,"long":-93.8448},{"zip":"50153","city":"Lynnville","state":"IA","lat":41.5698,"long":-92.7877},{"zip":"50151","city":"Lucas","state":"IA","lat":41.0585,"long":-93.4836},{"zip":"50155","city":"Macksburg","state":"IA","lat":41.2104,"long":-94.1825},{"zip":"50158","city":"Marshalltown","state":"IA","lat":42.0405,"long":-92.9127},{"zip":"50150","city":"Lovilia","state":"IA","lat":41.1272,"long":-92.9293},{"zip":"50157","city":"Malcom","state":"IA","lat":41.7695,"long":-92.5354},{"zip":"50154","city":"Mc Callsburg","state":"IA","lat":42.1665,"long":-93.3978}]
