[{"zip":"50167","city":"Minburn","state":"IA","lat":41.7562,"long":-94.015},{"zip":"50164","city":"Menlo","state":"IA","lat":41.5348,"long":-94.409},{"zip":"50168","city":"Mingo","state":"IA","lat":41.7898,"long":-93.288},{"zip":"50163","city":"Melcher Dallas","state":"IA","lat":41.225,"long":-93.2413},{"zip":"50162","city":"Melbourne","state":"IA","lat":41.9323,"long":-93.0856},{"zip":"50169","city":"Mitchellville","state":"IA","lat":41.6609,"long":-93.37},{"zip":"50161","city":"Maxwell","state":"IA","lat":41.8967,"long":-93.4001},{"zip":"50160","city":"Martensdale","state":"IA","lat":41.373,"long":-93.7358},{"zip":"50166","city":"Milo","state":"IA","lat":41.2904,"long":-93.4454},{"zip":"50165","city":"Millerton","state":"IA","lat":40.8494,"long":-93.3055}]
