[{"zip":"50482","city":"Ventura","state":"IA","lat":43.1262,"long":-93.4706},{"zip":"50484","city":"Woden","state":"IA","lat":43.2226,"long":-93.9109},{"zip":"50480","city":"Titonka","state":"IA","lat":43.2456,"long":-94.0367},{"zip":"50483","city":"Wesley","state":"IA","lat":43.0977,"long":-94.0038},{"zip":"50481","city":"Toeterville","state":"IA","lat":43.3564,"long":-92.789}]
