[{"zip":"50510","city":"Albert City","state":"IA","lat":42.7784,"long":-94.9824},{"zip":"50514","city":"Armstrong","state":"IA","lat":43.4024,"long":-94.4853},{"zip":"50519","city":"Bode","state":"IA","lat":42.8661,"long":-94.2781},{"zip":"50511","city":"Algona","state":"IA","lat":43.066,"long":-94.2306},{"zip":"50517","city":"Bancroft","state":"IA","lat":43.2935,"long":-94.2108},{"zip":"50515","city":"Ayrshire","state":"IA","lat":43.037,"long":-94.8478},{"zip":"50516","city":"Badger","state":"IA","lat":42.6144,"long":-94.1461},{"zip":"50518","city":"Barnum","state":"IA","lat":42.5159,"long":-94.3703}]
