[{"zip":"50538","city":"Farnhamville","state":"IA","lat":42.2692,"long":-94.4226},{"zip":"50531","city":"Dolliver","state":"IA","lat":43.4664,"long":-94.6242},{"zip":"50539","city":"Fenton","state":"IA","lat":43.242,"long":-94.4044},{"zip":"50536","city":"Emmetsburg","state":"IA","lat":43.1082,"long":-94.6825},{"zip":"50535","city":"Early","state":"IA","lat":42.4483,"long":-95.1726},{"zip":"50530","city":"Dayton","state":"IA","lat":42.2594,"long":-94.061},{"zip":"50532","city":"Duncombe","state":"IA","lat":42.4493,"long":-94.0592},{"zip":"50533","city":"Eagle Grove","state":"IA","lat":42.6609,"long":-93.9049}]
