[{"zip":"50551","city":"Jolley","state":"IA","lat":42.4871,"long":-94.757},{"zip":"50552","city":"Knierim","state":"IA","lat":42.4555,"long":-94.4569},{"zip":"50558","city":"Livermore","state":"IA","lat":42.8666,"long":-94.1747},{"zip":"50556","city":"Ledyard","state":"IA","lat":43.4346,"long":-94.1503},{"zip":"50559","city":"Lone Rock","state":"IA","lat":43.1666,"long":-94.3586},{"zip":"50554","city":"Laurens","state":"IA","lat":42.8409,"long":-94.8508},{"zip":"50557","city":"Lehigh","state":"IA","lat":42.3526,"long":-94.0342}]
