[{"zip":"50643","city":"Hudson","state":"IA","lat":42.3905,"long":-92.4549},{"zip":"50647","city":"Janesville","state":"IA","lat":42.6465,"long":-92.4791},{"zip":"50641","city":"Hazleton","state":"IA","lat":42.6076,"long":-91.9105},{"zip":"50644","city":"Independence","state":"IA","lat":42.4674,"long":-91.8803},{"zip":"50648","city":"Jesup","state":"IA","lat":42.4823,"long":-92.0456},{"zip":"50649","city":"Kesley","state":"IA","lat":42.6626,"long":-92.9112},{"zip":"50645","city":"Ionia","state":"IA","lat":43.0403,"long":-92.4865},{"zip":"50642","city":"Holland","state":"IA","lat":42.4011,"long":-92.7999}]
