[{"zip":"50651","city":"La Porte City","state":"IA","lat":42.3416,"long":-92.1862},{"zip":"50650","city":"Lamont","state":"IA","lat":42.5946,"long":-91.6701},{"zip":"50658","city":"Nashua","state":"IA","lat":42.9528,"long":-92.5298},{"zip":"50659","city":"New Hampton","state":"IA","lat":43.056,"long":-92.3131},{"zip":"50654","city":"Masonville","state":"IA","lat":42.4794,"long":-91.5913},{"zip":"50655","city":"Maynard","state":"IA","lat":42.7752,"long":-91.8908},{"zip":"50653","city":"Marble Rock","state":"IA","lat":42.9645,"long":-92.8917},{"zip":"50657","city":"Morrison","state":"IA","lat":42.3433,"long":-92.6738},{"zip":"50652","city":"Lincoln","state":"IA","lat":42.2643,"long":-92.693}]
