[{"zip":"50846","city":"Fontanelle","state":"IA","lat":41.2896,"long":-94.5419},{"zip":"50849","city":"Greenfield","state":"IA","lat":41.3133,"long":-94.4408},{"zip":"50841","city":"Corning","state":"IA","lat":40.9871,"long":-94.7358},{"zip":"50843","city":"Cumberland","state":"IA","lat":41.2632,"long":-94.871},{"zip":"50847","city":"Grant","state":"IA","lat":41.1427,"long":-94.9842},{"zip":"50845","city":"Diagonal","state":"IA","lat":40.8226,"long":-94.3552},{"zip":"50840","city":"Clearfield","state":"IA","lat":40.7935,"long":-94.4944},{"zip":"50848","city":"Gravity","state":"IA","lat":40.7909,"long":-94.7506},{"zip":"50842","city":"Cromwell","state":"IA","lat":41.0398,"long":-94.4616}]
