[{"zip":"51002","city":"Alta","state":"IA","lat":42.6771,"long":-95.3129},{"zip":"51005","city":"Aurelia","state":"IA","lat":42.6912,"long":-95.4381},{"zip":"51006","city":"Battle Creek","state":"IA","lat":42.3327,"long":-95.6045},{"zip":"51009","city":"Calumet","state":"IA","lat":42.9444,"long":-95.5515},{"zip":"51001","city":"Akron","state":"IA","lat":42.8354,"long":-96.5225},{"zip":"51008","city":"Brunsville","state":"IA","lat":42.8093,"long":-96.2626},{"zip":"51003","city":"Alton","state":"IA","lat":42.9782,"long":-96.0173},{"zip":"51004","city":"Anthon","state":"IA","lat":42.387,"long":-95.8948},{"zip":"51007","city":"Bronson","state":"IA","lat":42.4292,"long":-96.1986}]
