[{"zip":"51453","city":"Lohrville","state":"IA","lat":42.2619,"long":-94.5566},{"zip":"51451","city":"Lanesboro","state":"IA","lat":42.1845,"long":-94.6917},{"zip":"51452","city":"Lidderdale","state":"IA","lat":42.1254,"long":-94.7754},{"zip":"51455","city":"Manning","state":"IA","lat":41.9072,"long":-95.0556},{"zip":"51459","city":"Ralston","state":"IA","lat":42.0414,"long":-94.6321},{"zip":"51454","city":"Manilla","state":"IA","lat":41.8922,"long":-95.2391},{"zip":"51450","city":"Lake View","state":"IA","lat":42.3154,"long":-95.0486},{"zip":"51458","city":"Odebolt","state":"IA","lat":42.3095,"long":-95.2501}]
