[{"zip":"51552","city":"Marne","state":"IA","lat":41.4547,"long":-95.0973},{"zip":"51550","city":"Magnolia","state":"IA","lat":41.6921,"long":-95.8742},{"zip":"51555","city":"Missouri Valley","state":"IA","lat":41.5644,"long":-95.8913},{"zip":"51556","city":"Modale","state":"IA","lat":41.6371,"long":-95.9852},{"zip":"51557","city":"Mondamin","state":"IA","lat":41.7089,"long":-96.0072},{"zip":"51551","city":"Malvern","state":"IA","lat":41.0074,"long":-95.584},{"zip":"51554","city":"Mineola","state":"IA","lat":41.1414,"long":-95.7005},{"zip":"51558","city":"Moorhead","state":"IA","lat":41.9186,"long":-95.829},{"zip":"51553","city":"Minden","state":"IA","lat":41.4654,"long":-95.5519},{"zip":"51559","city":"Neola","state":"IA","lat":41.4564,"long":-95.6794}]
