[{"zip":"51639","city":"Farragut","state":"IA","lat":40.7215,"long":-95.4776},{"zip":"51630","city":"Blanchard","state":"IA","lat":40.6122,"long":-95.2054},{"zip":"51631","city":"Braddyville","state":"IA","lat":40.5991,"long":-94.9956},{"zip":"51632","city":"Clarinda","state":"IA","lat":40.7491,"long":-95.038},{"zip":"51636","city":"Coin","state":"IA","lat":40.6686,"long":-95.2217},{"zip":"51637","city":"College Springs","state":"IA","lat":40.6249,"long":-95.1157},{"zip":"51638","city":"Essex","state":"IA","lat":40.8404,"long":-95.2888}]
