[{"zip":"52140","city":"Dorchester","state":"IA","lat":43.4421,"long":-91.5076},{"zip":"52146","city":"Harpers Ferry","state":"IA","lat":43.1698,"long":-91.2188},{"zip":"52151","city":"Lansing","state":"IA","lat":43.3661,"long":-91.266},{"zip":"52160","city":"New Albin","state":"IA","lat":43.4899,"long":-91.2942},{"zip":"52162","city":"Postville","state":"IA","lat":43.0036,"long":-91.5478},{"zip":"52170","city":"Waterville","state":"IA","lat":43.2078,"long":-91.2976},{"zip":"52172","city":"Waukon","state":"IA","lat":43.264,"long":-91.48},{"zip":"52154","city":"Lawler","state":"IA","lat":43.0932,"long":-92.144},{"zip":"52156","city":"Luana","state":"IA","lat":43.0493,"long":-91.4583},{"zip":"52157","city":"Mc Gregor","state":"IA","lat":43.0237,"long":-91.1887},{"zip":"52158","city":"Marquette","state":"IA","lat":43.036,"long":-91.1931},{"zip":"52159","city":"Monona","state":"IA","lat":43.034,"long":-91.3934},{"zip":"52135","city":"Clermont","state":"IA","lat":43.013,"long":-91.6552},{"zip":"52141","city":"Elgin","state":"IA","lat":42.9548,"long":-91.6454},{"zip":"52142","city":"Fayette","state":"IA","lat":42.8494,"long":-91.8139},{"zip":"52147","city":"Hawkeye","state":"IA","lat":42.9487,"long":-91.9578},{"zip":"52164","city":"Randalia","state":"IA","lat":42.8626,"long":-91.8846},{"zip":"52166","city":"Saint Lucas","state":"IA","lat":43.0664,"long":-91.9335},{"zip":"52169","city":"Wadena","state":"IA","lat":42.855,"long":-91.6639},{"zip":"52171","city":"Waucoma","state":"IA","lat":43.0433,"long":-92.0302},{"zip":"52175","city":"West Union","state":"IA","lat":42.9438,"long":-91.8334},{"zip":"52134","city":"Chester","state":"IA","lat":43.473,"long":-92.4155},{"zip":"52136","city":"Cresco","state":"IA","lat":43.363,"long":-92.126},{"zip":"52155","city":"Lime Springs","state":"IA","lat":43.4556,"long":-92.2733},{"zip":"52163","city":"Protivin","state":"IA","lat":43.217,"long":-92.0927},{"zip":"52101","city":"Decorah","state":"IA","lat":43.3227,"long":-91.7939},{"zip":"52132","city":"Calmar","state":"IA","lat":43.1974,"long":-91.9126},{"zip":"52133","city":"Castalia","state":"IA","lat":43.1361,"long":-91.6643},{"zip":"52144","city":"Fort Atkinson","state":"IA","lat":43.1339,"long":-91.9134},{"zip":"52149","city":"Highlandville","state":"IA","lat":43.4638,"long":-91.6899},{"zip":"52161","city":"Ossian","state":"IA","lat":43.1379,"long":-91.7734},{"zip":"52165","city":"Ridgeway","state":"IA","lat":43.2979,"long":-92.0034},{"zip":"52168","city":"Spillville","state":"IA","lat":43.2032,"long":-91.9441}]
