[{"zip":"52151","city":"Lansing","state":"IA","lat":43.3661,"long":-91.266},{"zip":"52154","city":"Lawler","state":"IA","lat":43.0932,"long":-92.144},{"zip":"52156","city":"Luana","state":"IA","lat":43.0493,"long":-91.4583},{"zip":"52157","city":"Mc Gregor","state":"IA","lat":43.0237,"long":-91.1887},{"zip":"52158","city":"Marquette","state":"IA","lat":43.036,"long":-91.1931},{"zip":"52159","city":"Monona","state":"IA","lat":43.034,"long":-91.3934},{"zip":"52155","city":"Lime Springs","state":"IA","lat":43.4556,"long":-92.2733}]
