[{"zip":"52210","city":"Brandon","state":"IA","lat":42.3309,"long":-92.0059},{"zip":"52216","city":"Clarence","state":"IA","lat":41.8896,"long":-91.0605},{"zip":"52212","city":"Center Junction","state":"IA","lat":42.1161,"long":-91.0871},{"zip":"52213","city":"Center Point","state":"IA","lat":42.1898,"long":-91.7758},{"zip":"52214","city":"Central City","state":"IA","lat":42.1982,"long":-91.4914},{"zip":"52218","city":"Coggon","state":"IA","lat":42.2792,"long":-91.5413},{"zip":"52219","city":"Prairieburg","state":"IA","lat":42.2383,"long":-91.4224},{"zip":"52211","city":"Brooklyn","state":"IA","lat":41.7321,"long":-92.4285},{"zip":"52215","city":"Chelsea","state":"IA","lat":41.9131,"long":-92.4078},{"zip":"52217","city":"Clutier","state":"IA","lat":42.0789,"long":-92.3763}]
