[{"zip":"52229","city":"Garrison","state":"IA","lat":42.1588,"long":-92.1644},{"zip":"52223","city":"Delhi","state":"IA","lat":42.4297,"long":-91.331},{"zip":"52220","city":"Conroy","state":"IA","lat":41.7292,"long":-91.9977},{"zip":"52227","city":"Ely","state":"IA","lat":41.8943,"long":-91.5738},{"zip":"52228","city":"Fairfax","state":"IA","lat":41.9153,"long":-91.7801},{"zip":"52221","city":"Guernsey","state":"IA","lat":41.6378,"long":-92.3479},{"zip":"52222","city":"Deep River","state":"IA","lat":41.5717,"long":-92.3645},{"zip":"52224","city":"Dysart","state":"IA","lat":42.169,"long":-92.3187},{"zip":"52225","city":"Elberon","state":"IA","lat":42.0088,"long":-92.3314}]
