[{"zip":"52237","city":"Hopkinton","state":"IA","lat":42.3422,"long":-91.2461},{"zip":"52236","city":"Homestead","state":"IA","lat":41.7339,"long":-91.8795},{"zip":"52235","city":"Hills","state":"IA","lat":41.5557,"long":-91.5308},{"zip":"52231","city":"Harper","state":"IA","lat":41.3728,"long":-92.0388},{"zip":"52233","city":"Hiawatha","state":"IA","lat":42.0425,"long":-91.677},{"zip":"52232","city":"Hartwick","state":"IA","lat":41.808,"long":-92.3538}]
