[{"zip":"52249","city":"Keystone","state":"IA","lat":42.0156,"long":-92.2179},{"zip":"52240","city":"Iowa City","state":"IA","lat":41.6355,"long":-91.5016},{"zip":"52241","city":"Coralville","state":"IA","lat":41.6937,"long":-91.5906},{"zip":"52242","city":"Iowa City","state":"IA","lat":41.6627,"long":-91.5477},{"zip":"52243","city":"Iowa City","state":"IA","lat":41.6611,"long":-91.5302},{"zip":"52244","city":"Iowa City","state":"IA","lat":41.5727,"long":-91.6619},{"zip":"52245","city":"Iowa City","state":"IA","lat":41.6649,"long":-91.5151},{"zip":"52246","city":"Iowa City","state":"IA","lat":41.6438,"long":-91.5669},{"zip":"52248","city":"Keota","state":"IA","lat":41.3504,"long":-91.9641},{"zip":"52247","city":"Kalona","state":"IA","lat":41.4823,"long":-91.7057}]
