[{"zip":"52544","city":"Centerville","state":"IA","lat":40.7326,"long":-92.8728},{"zip":"52549","city":"Cincinnati","state":"IA","lat":40.6344,"long":-92.9219},{"zip":"52543","city":"Cedar","state":"IA","lat":41.2121,"long":-92.509},{"zip":"52542","city":"Cantril","state":"IA","lat":40.6546,"long":-92.0465},{"zip":"52548","city":"Chillicothe","state":"IA","lat":41.086,"long":-92.5303},{"zip":"52540","city":"Brighton","state":"IA","lat":41.1543,"long":-91.8284}]
