[{"zip":"52593","city":"Udell","state":"IA","lat":40.7808,"long":-92.7421},{"zip":"52594","city":"Unionville","state":"IA","lat":40.8416,"long":-92.6935},{"zip":"52591","city":"Sigourney","state":"IA","lat":41.3301,"long":-92.2019},{"zip":"52595","city":"University Park","state":"IA","lat":41.2864,"long":-92.6184},{"zip":"52590","city":"Seymour","state":"IA","lat":40.6724,"long":-93.1368}]
