[{"zip":"52623","city":"Danville","state":"IA","lat":40.854,"long":-91.314},{"zip":"52624","city":"Denmark","state":"IA","lat":40.7417,"long":-91.3374},{"zip":"52625","city":"Donnellson","state":"IA","lat":40.6612,"long":-91.5745},{"zip":"52627","city":"Fort Madison","state":"IA","lat":40.633,"long":-91.3398},{"zip":"52620","city":"Bonaparte","state":"IA","lat":40.7148,"long":-91.7897},{"zip":"52626","city":"Farmington","state":"IA","lat":40.6397,"long":-91.7447},{"zip":"52621","city":"Crawfordsville","state":"IA","lat":41.2093,"long":-91.5414}]
