[{"zip":"52650","city":"Sperry","state":"IA","lat":40.9419,"long":-91.185},{"zip":"52655","city":"West Burlington","state":"IA","lat":40.8321,"long":-91.1799},{"zip":"52652","city":"Swedesburg","state":"IA","lat":41.1043,"long":-91.547},{"zip":"52654","city":"Wayland","state":"IA","lat":41.1449,"long":-91.6589},{"zip":"52659","city":"Winfield","state":"IA","lat":41.1257,"long":-91.4379},{"zip":"52656","city":"West Point","state":"IA","lat":40.715,"long":-91.4397},{"zip":"52657","city":"Saint Paul","state":"IA","lat":40.7695,"long":-91.5171},{"zip":"52658","city":"Wever","state":"IA","lat":40.7067,"long":-91.2268},{"zip":"52653","city":"Wapello","state":"IA","lat":41.207,"long":-91.1719},{"zip":"52651","city":"Stockport","state":"IA","lat":40.8584,"long":-91.8141}]
