[{"zip":"52721","city":"Bennett","state":"IA","lat":41.7353,"long":-90.9656},{"zip":"52727","city":"Bryant","state":"IA","lat":41.9629,"long":-90.3388},{"zip":"52729","city":"Calamus","state":"IA","lat":41.8111,"long":-90.7416},{"zip":"52720","city":"Atalissa","state":"IA","lat":41.5614,"long":-91.1748},{"zip":"52722","city":"Bettendorf","state":"IA","lat":41.5509,"long":-90.4942},{"zip":"52726","city":"Blue Grass","state":"IA","lat":41.5112,"long":-90.738},{"zip":"52728","city":"Buffalo","state":"IA","lat":41.4564,"long":-90.7235}]
