[{"zip":"53032","city":"Horicon","state":"WI","lat":43.4469,"long":-88.631},{"zip":"53034","city":"Hustisford","state":"WI","lat":43.3305,"long":-88.603},{"zip":"53035","city":"Iron Ridge","state":"WI","lat":43.3934,"long":-88.5441},{"zip":"53039","city":"Juneau","state":"WI","lat":43.3792,"long":-88.6845},{"zip":"53036","city":"Ixonia","state":"WI","lat":43.1477,"long":-88.5886},{"zip":"53038","city":"Johnson Creek","state":"WI","lat":43.0751,"long":-88.7836},{"zip":"53031","city":"Hingham","state":"WI","lat":43.6394,"long":-87.9157},{"zip":"53033","city":"Hubertus","state":"WI","lat":43.2343,"long":-88.2311},{"zip":"53037","city":"Jackson","state":"WI","lat":43.3252,"long":-88.1626}]
