[{"zip":"53091","city":"Theresa","state":"WI","lat":43.5045,"long":-88.4478},{"zip":"53098","city":"Watertown","state":"WI","lat":43.2764,"long":-88.7154},{"zip":"53099","city":"Woodland","state":"WI","lat":43.3703,"long":-88.5187},{"zip":"53094","city":"Watertown","state":"WI","lat":43.193,"long":-88.7185},{"zip":"53092","city":"Mequon","state":"WI","lat":43.2364,"long":-87.9845},{"zip":"53097","city":"Mequon","state":"WI","lat":43.2461,"long":-88.0046},{"zip":"53093","city":"Waldo","state":"WI","lat":43.6571,"long":-87.9722},{"zip":"53090","city":"West Bend","state":"WI","lat":43.4438,"long":-88.1963},{"zip":"53095","city":"West Bend","state":"WI","lat":43.4224,"long":-88.1845}]
