[{"zip":"53137","city":"Helenville","state":"WI","lat":43.009,"long":-88.6726},{"zip":"53130","city":"Hales Corners","state":"WI","lat":42.941,"long":-88.0503},{"zip":"53132","city":"Franklin","state":"WI","lat":42.9017,"long":-88.0086},{"zip":"53139","city":"Kansasville","state":"WI","lat":42.7012,"long":-88.118},{"zip":"53138","city":"Honey Creek","state":"WI","lat":42.7483,"long":-88.3079}]
