[{"zip":"53515","city":"Black Earth","state":"WI","lat":43.1322,"long":-89.739},{"zip":"53517","city":"Blue Mounds","state":"WI","lat":43.005,"long":-89.8345},{"zip":"53518","city":"Blue River","state":"WI","lat":43.2366,"long":-90.5873},{"zip":"53510","city":"Belmont","state":"WI","lat":42.7308,"long":-90.3359},{"zip":"53516","city":"Blanchardville","state":"WI","lat":42.8062,"long":-89.8555},{"zip":"53511","city":"Beloit","state":"WI","lat":42.562,"long":-89.086},{"zip":"53512","city":"Beloit","state":"WI","lat":42.5083,"long":-89.0318}]
