[{"zip":"53523","city":"Cambridge","state":"WI","lat":42.9918,"long":-89.0209},{"zip":"53527","city":"Cottage Grove","state":"WI","lat":43.0784,"long":-89.2017},{"zip":"53528","city":"Cross Plains","state":"WI","lat":43.1132,"long":-89.6397},{"zip":"53529","city":"Dane","state":"WI","lat":43.2424,"long":-89.5117},{"zip":"53520","city":"Brodhead","state":"WI","lat":42.6111,"long":-89.3714},{"zip":"53521","city":"Brooklyn","state":"WI","lat":42.8423,"long":-89.3818},{"zip":"53522","city":"Browntown","state":"WI","lat":42.5579,"long":-89.7816},{"zip":"53526","city":"Cobb","state":"WI","lat":42.966,"long":-90.3324},{"zip":"53525","city":"Clinton","state":"WI","lat":42.5535,"long":-88.8705}]
