[{"zip":"53801","city":"Bagley","state":"WI","lat":42.9207,"long":-91.0685},{"zip":"53802","city":"Beetown","state":"WI","lat":42.795,"long":-90.8854},{"zip":"53804","city":"Bloomington","state":"WI","lat":42.8726,"long":-90.9099},{"zip":"53805","city":"Boscobel","state":"WI","lat":43.1393,"long":-90.7061},{"zip":"53806","city":"Cassville","state":"WI","lat":42.7288,"long":-90.9608},{"zip":"53807","city":"Cuba City","state":"WI","lat":42.5991,"long":-90.4749},{"zip":"53808","city":"Dickeyville","state":"WI","lat":42.6263,"long":-90.5931},{"zip":"53809","city":"Fennimore","state":"WI","lat":42.9886,"long":-90.655},{"zip":"53803","city":"Benton","state":"WI","lat":42.5545,"long":-90.3508}]
