[{"zip":"53810","city":"Glen Haven","state":"WI","lat":42.8204,"long":-91.0005},{"zip":"53811","city":"Hazel Green","state":"WI","lat":42.5359,"long":-90.5118},{"zip":"53812","city":"Kieler","state":"WI","lat":42.5814,"long":-90.6026},{"zip":"53813","city":"Lancaster","state":"WI","lat":42.8445,"long":-90.7109},{"zip":"53816","city":"Mount Hope","state":"WI","lat":42.9689,"long":-90.8665},{"zip":"53817","city":"Patch Grove","state":"WI","lat":42.9422,"long":-90.9646},{"zip":"53818","city":"Platteville","state":"WI","lat":42.7393,"long":-90.4854}]
