[{"zip":"53821","city":"Prairie Du Chien","state":"WI","lat":43.0426,"long":-91.1193},{"zip":"53826","city":"Wauzeka","state":"WI","lat":43.1143,"long":-90.9239},{"zip":"53820","city":"Potosi","state":"WI","lat":42.6884,"long":-90.7002},{"zip":"53824","city":"Sinsinawa","state":"WI","lat":42.5236,"long":-90.5393},{"zip":"53825","city":"Stitzer","state":"WI","lat":42.9214,"long":-90.6079},{"zip":"53827","city":"Woodman","state":"WI","lat":43.0577,"long":-90.8245}]
