[{"zip":"53927","city":"Dellwood","state":"WI","lat":43.9555,"long":-89.9418},{"zip":"53923","city":"Cambria","state":"WI","lat":43.5724,"long":-89.1156},{"zip":"53925","city":"Columbus","state":"WI","lat":43.3315,"long":-89.0271},{"zip":"53928","city":"Doylestown","state":"WI","lat":43.4266,"long":-89.1491},{"zip":"53922","city":"Burnett","state":"WI","lat":43.5116,"long":-88.7176},{"zip":"53926","city":"Dalton","state":"WI","lat":43.6718,"long":-89.1918},{"zip":"53929","city":"Elroy","state":"WI","lat":43.7516,"long":-90.2889},{"zip":"53920","city":"Briggsville","state":"WI","lat":43.6759,"long":-89.5803},{"zip":"53924","city":"Cazenovia","state":"WI","lat":43.4987,"long":-90.2796}]
