[{"zip":"53934","city":"Friendship","state":"WI","lat":43.9896,"long":-89.8149},{"zip":"53936","city":"Grand Marsh","state":"WI","lat":43.8869,"long":-89.7062},{"zip":"53932","city":"Fall River","state":"WI","lat":43.4008,"long":-89.0625},{"zip":"53935","city":"Friesland","state":"WI","lat":43.5901,"long":-89.0593},{"zip":"53933","city":"Fox Lake","state":"WI","lat":43.5815,"long":-88.9041},{"zip":"53931","city":"Fairwater","state":"WI","lat":43.7475,"long":-88.8665},{"zip":"53939","city":"Kingston","state":"WI","lat":43.6911,"long":-89.1302},{"zip":"53930","city":"Endeavor","state":"WI","lat":43.6963,"long":-89.4617},{"zip":"53937","city":"Hillpoint","state":"WI","lat":43.3951,"long":-90.1588}]
