[{"zip":"54003","city":"Beldenville","state":"WI","lat":44.7721,"long":-92.4372},{"zip":"54010","city":"East Ellsworth","state":"WI","lat":44.7348,"long":-92.4655},{"zip":"54011","city":"Ellsworth","state":"WI","lat":44.7302,"long":-92.489},{"zip":"54014","city":"Hager City","state":"WI","lat":44.627,"long":-92.5501},{"zip":"54021","city":"Prescott","state":"WI","lat":44.7476,"long":-92.7535},{"zip":"54022","city":"River Falls","state":"WI","lat":44.855,"long":-92.6313},{"zip":"54001","city":"Amery","state":"WI","lat":45.3486,"long":-92.4014},{"zip":"54004","city":"Clayton","state":"WI","lat":45.3063,"long":-92.1395},{"zip":"54005","city":"Clear Lake","state":"WI","lat":45.2365,"long":-92.2749},{"zip":"54006","city":"Cushing","state":"WI","lat":45.5604,"long":-92.6241},{"zip":"54009","city":"Dresser","state":"WI","lat":45.3546,"long":-92.5623},{"zip":"54020","city":"Osceola","state":"WI","lat":45.3218,"long":-92.6971},{"zip":"54024","city":"Saint Croix Falls","state":"WI","lat":45.5097,"long":-92.6117},{"zip":"54026","city":"Star Prairie","state":"WI","lat":45.2013,"long":-92.5514},{"zip":"54002","city":"Baldwin","state":"WI","lat":44.9657,"long":-92.3655},{"zip":"54007","city":"Deer Park","state":"WI","lat":45.169,"long":-92.3585},{"zip":"54013","city":"Glenwood City","state":"WI","lat":45.0623,"long":-92.1816},{"zip":"54015","city":"Hammond","state":"WI","lat":44.967,"long":-92.4472},{"zip":"54016","city":"Hudson","state":"WI","lat":44.9842,"long":-92.7271},{"zip":"54017","city":"New Richmond","state":"WI","lat":45.123,"long":-92.5366},{"zip":"54023","city":"Roberts","state":"WI","lat":44.9874,"long":-92.5598},{"zip":"54025","city":"Somerset","state":"WI","lat":45.1331,"long":-92.6865},{"zip":"54027","city":"Wilson","state":"WI","lat":44.9466,"long":-92.1965},{"zip":"54028","city":"Woodville","state":"WI","lat":44.9408,"long":-92.2848},{"zip":"54082","city":"Houlton","state":"WI","lat":45.0655,"long":-92.7572}]
