[{"zip":"54003","city":"Beldenville","state":"WI","lat":44.7721,"long":-92.4372},{"zip":"54001","city":"Amery","state":"WI","lat":45.3486,"long":-92.4014},{"zip":"54004","city":"Clayton","state":"WI","lat":45.3063,"long":-92.1395},{"zip":"54005","city":"Clear Lake","state":"WI","lat":45.2365,"long":-92.2749},{"zip":"54006","city":"Cushing","state":"WI","lat":45.5604,"long":-92.6241},{"zip":"54009","city":"Dresser","state":"WI","lat":45.3546,"long":-92.5623},{"zip":"54002","city":"Baldwin","state":"WI","lat":44.9657,"long":-92.3655},{"zip":"54007","city":"Deer Park","state":"WI","lat":45.169,"long":-92.3585}]
