[{"zip":"54010","city":"East Ellsworth","state":"WI","lat":44.7348,"long":-92.4655},{"zip":"54011","city":"Ellsworth","state":"WI","lat":44.7302,"long":-92.489},{"zip":"54014","city":"Hager City","state":"WI","lat":44.627,"long":-92.5501},{"zip":"54013","city":"Glenwood City","state":"WI","lat":45.0623,"long":-92.1816},{"zip":"54015","city":"Hammond","state":"WI","lat":44.967,"long":-92.4472},{"zip":"54016","city":"Hudson","state":"WI","lat":44.9842,"long":-92.7271},{"zip":"54017","city":"New Richmond","state":"WI","lat":45.123,"long":-92.5366}]
