[{"zip":"54151","city":"Niagara","state":"WI","lat":45.7653,"long":-88.0309},{"zip":"54156","city":"Pembine","state":"WI","lat":45.6074,"long":-87.9704},{"zip":"54157","city":"Peshtigo","state":"WI","lat":45.048,"long":-87.8103},{"zip":"54159","city":"Porterfield","state":"WI","lat":45.1934,"long":-87.8062},{"zip":"54150","city":"Neopit","state":"WI","lat":44.9808,"long":-88.8309},{"zip":"54153","city":"Oconto","state":"WI","lat":44.8914,"long":-87.8917},{"zip":"54154","city":"Oconto Falls","state":"WI","lat":44.8755,"long":-88.1555},{"zip":"54152","city":"Nichols","state":"WI","lat":44.5668,"long":-88.4582},{"zip":"54155","city":"Oneida","state":"WI","lat":44.5166,"long":-88.1859}]
