[{"zip":"54173","city":"Suamico","state":"WI","lat":44.6435,"long":-88.0317},{"zip":"54177","city":"Wausaukee","state":"WI","lat":45.3495,"long":-87.9099},{"zip":"54171","city":"Sobieski","state":"WI","lat":44.7105,"long":-88.1076},{"zip":"54174","city":"Suring","state":"WI","lat":45.0186,"long":-88.3628},{"zip":"54175","city":"Townsend","state":"WI","lat":45.3148,"long":-88.6107},{"zip":"54170","city":"Shiocton","state":"WI","lat":44.4972,"long":-88.5562}]
