[{"zip":"54405","city":"Abbotsford","state":"WI","lat":44.9641,"long":-90.2994},{"zip":"54409","city":"Antigo","state":"WI","lat":45.1314,"long":-89.1419},{"zip":"54401","city":"Wausau","state":"WI","lat":44.9654,"long":-89.7066},{"zip":"54402","city":"Wausau","state":"WI","lat":44.9009,"long":-89.7701},{"zip":"54403","city":"Wausau","state":"WI","lat":44.9529,"long":-89.5318},{"zip":"54408","city":"Aniwa","state":"WI","lat":45.0088,"long":-89.3578},{"zip":"54406","city":"Amherst","state":"WI","lat":44.4231,"long":-89.3035},{"zip":"54407","city":"Amherst Junction","state":"WI","lat":44.5065,"long":-89.3038},{"zip":"54404","city":"Marshfield","state":"WI","lat":44.6689,"long":-90.1718}]
