[{"zip":"54514","city":"Butternut","state":"WI","lat":46.0184,"long":-90.4821},{"zip":"54517","city":"Clam Lake","state":"WI","lat":46.1638,"long":-90.9024},{"zip":"54511","city":"Argonne","state":"WI","lat":45.7118,"long":-88.8104},{"zip":"54513","city":"Brantwood","state":"WI","lat":45.5514,"long":-90.116},{"zip":"54515","city":"Catawba","state":"WI","lat":45.5081,"long":-90.5146},{"zip":"54512","city":"Boulder Junction","state":"WI","lat":46.1112,"long":-89.6325},{"zip":"54519","city":"Conover","state":"WI","lat":46.044,"long":-89.2389}]
