[{"zip":"54527","city":"Glidden","state":"WI","lat":46.1337,"long":-90.5889},{"zip":"54520","city":"Crandon","state":"WI","lat":45.5416,"long":-88.9116},{"zip":"54525","city":"Gile","state":"WI","lat":46.4283,"long":-90.2252},{"zip":"54529","city":"Harshaw","state":"WI","lat":45.6762,"long":-89.6503},{"zip":"54524","city":"Fifield","state":"WI","lat":45.8143,"long":-90.453},{"zip":"54526","city":"Glen Flora","state":"WI","lat":45.4862,"long":-90.8479},{"zip":"54521","city":"Eagle River","state":"WI","lat":45.9161,"long":-89.2531}]
