[{"zip":"54728","city":"Chetek","state":"WI","lat":45.317,"long":-91.6542},{"zip":"54724","city":"Bloomer","state":"WI","lat":45.1025,"long":-91.49},{"zip":"54726","city":"Boyd","state":"WI","lat":44.9437,"long":-91.0294},{"zip":"54727","city":"Cadott","state":"WI","lat":44.963,"long":-91.1699},{"zip":"54729","city":"Chippewa Falls","state":"WI","lat":44.9369,"long":-91.3929},{"zip":"54725","city":"Boyceville","state":"WI","lat":45.0642,"long":-92.0248},{"zip":"54720","city":"Altoona","state":"WI","lat":44.8021,"long":-91.4382},{"zip":"54722","city":"Augusta","state":"WI","lat":44.6947,"long":-91.1232},{"zip":"54721","city":"Arkansaw","state":"WI","lat":44.6267,"long":-92.0566},{"zip":"54723","city":"Bay City","state":"WI","lat":44.6166,"long":-92.4469}]
