[{"zip":"55045","city":"Lindstrom","state":"MN","lat":45.3873,"long":-92.8421},{"zip":"55044","city":"Lakeville","state":"MN","lat":44.6749,"long":-93.2578},{"zip":"55040","city":"Isanti","state":"MN","lat":45.4682,"long":-93.2266},{"zip":"55046","city":"Lonsdale","state":"MN","lat":44.4477,"long":-93.4252},{"zip":"55049","city":"Medford","state":"MN","lat":44.1741,"long":-93.2437},{"zip":"55041","city":"Lake City","state":"MN","lat":44.4305,"long":-92.2838},{"zip":"55042","city":"Lake Elmo","state":"MN","lat":44.9946,"long":-92.9056},{"zip":"55043","city":"Lakeland","state":"MN","lat":44.9394,"long":-92.7716},{"zip":"55047","city":"Marine On Saint Croix","state":"MN","lat":45.1988,"long":-92.8258}]
