[{"zip":"55356","city":"Long Lake","state":"MN","lat":44.9912,"long":-93.5818},{"zip":"55357","city":"Loretto","state":"MN","lat":45.1061,"long":-93.6692},{"zip":"55359","city":"Maple Plain","state":"MN","lat":44.9787,"long":-93.7002},{"zip":"55350","city":"Hutchinson","state":"MN","lat":44.8946,"long":-94.3847},{"zip":"55354","city":"Lester Prairie","state":"MN","lat":44.8739,"long":-94.0551},{"zip":"55355","city":"Litchfield","state":"MN","lat":45.1263,"long":-94.5268},{"zip":"55352","city":"Jordan","state":"MN","lat":44.6713,"long":-93.6195},{"zip":"55353","city":"Kimball","state":"MN","lat":45.3436,"long":-94.3028},{"zip":"55358","city":"Maple Lake","state":"MN","lat":45.2202,"long":-93.9638}]
