[{"zip":"55383","city":"Norwood","state":"MN","lat":44.768,"long":-93.9275},{"zip":"55386","city":"Victoria","state":"MN","lat":44.8582,"long":-93.6561},{"zip":"55387","city":"Waconia","state":"MN","lat":44.851,"long":-93.7784},{"zip":"55388","city":"Watertown","state":"MN","lat":44.9595,"long":-93.8482},{"zip":"55384","city":"Spring Park","state":"MN","lat":44.9356,"long":-93.6341},{"zip":"55381","city":"Silver Lake","state":"MN","lat":44.9139,"long":-94.1974},{"zip":"55385","city":"Stewart","state":"MN","lat":44.7259,"long":-94.4516},{"zip":"55389","city":"Watkins","state":"MN","lat":45.3087,"long":-94.4297},{"zip":"55380","city":"Silver Creek","state":"MN","lat":45.3158,"long":-93.9798},{"zip":"55382","city":"South Haven","state":"MN","lat":45.2925,"long":-94.2119}]
