[{"zip":"55733","city":"Esko","state":"MN","lat":46.7126,"long":-92.3569},{"zip":"55730","city":"Grand Rapids","state":"MN","lat":47.2372,"long":-93.5302},{"zip":"55735","city":"Finlayson","state":"MN","lat":46.2121,"long":-92.9389},{"zip":"55731","city":"Ely","state":"MN","lat":47.9034,"long":-91.857},{"zip":"55732","city":"Embarrass","state":"MN","lat":47.6658,"long":-92.2101},{"zip":"55734","city":"Eveleth","state":"MN","lat":47.451,"long":-92.528},{"zip":"55736","city":"Floodwood","state":"MN","lat":46.9076,"long":-92.9167},{"zip":"55738","city":"Forbes","state":"MN","lat":47.2732,"long":-92.6756}]
