[{"zip":"55924","city":"Claremont","state":"MN","lat":44.0522,"long":-92.9888},{"zip":"55927","city":"Dodge Center","state":"MN","lat":44.0325,"long":-92.8554},{"zip":"55922","city":"Canton","state":"MN","lat":43.5667,"long":-91.913},{"zip":"55923","city":"Chatfield","state":"MN","lat":43.8362,"long":-92.1574},{"zip":"55921","city":"Caledonia","state":"MN","lat":43.6221,"long":-91.4837},{"zip":"55926","city":"Dexter","state":"MN","lat":43.716,"long":-92.7268},{"zip":"55920","city":"Byron","state":"MN","lat":44.0373,"long":-92.6308},{"zip":"55929","city":"Dover","state":"MN","lat":44.0015,"long":-92.1415},{"zip":"55925","city":"Dakota","state":"MN","lat":43.9148,"long":-91.394}]
