[{"zip":"55935","city":"Fountain","state":"MN","lat":43.7284,"long":-92.1423},{"zip":"55939","city":"Harmony","state":"MN","lat":43.5663,"long":-92.0145},{"zip":"55931","city":"Eitzen","state":"MN","lat":43.5084,"long":-91.4632},{"zip":"55933","city":"Elkton","state":"MN","lat":43.6348,"long":-92.7104},{"zip":"55936","city":"Grand Meadow","state":"MN","lat":43.7101,"long":-92.5692},{"zip":"55934","city":"Eyota","state":"MN","lat":44.0099,"long":-92.2648},{"zip":"55932","city":"Elgin","state":"MN","lat":44.1358,"long":-92.2535}]
