[{"zip":"56174","city":"Storden","state":"MN","lat":44.0524,"long":-95.3019},{"zip":"56178","city":"Tyler","state":"MN","lat":44.2773,"long":-96.1302},{"zip":"56175","city":"Tracy","state":"MN","lat":44.2342,"long":-95.6213},{"zip":"56171","city":"Sherburn","state":"MN","lat":43.6611,"long":-94.7269},{"zip":"56176","city":"Trimont","state":"MN","lat":43.7827,"long":-94.7186},{"zip":"56172","city":"Slayton","state":"MN","lat":43.9856,"long":-95.7554},{"zip":"56170","city":"Ruthton","state":"MN","lat":44.1682,"long":-96.0871},{"zip":"56173","city":"Steen","state":"MN","lat":43.5317,"long":-96.2439}]
