[{"zip":"56251","city":"Kandiyohi","state":"MN","lat":45.1426,"long":-94.9183},{"zip":"56253","city":"Lake Lillian","state":"MN","lat":44.966,"long":-94.9014},{"zip":"56256","city":"Madison","state":"MN","lat":44.9946,"long":-96.1645},{"zip":"56257","city":"Marietta","state":"MN","lat":44.9636,"long":-96.4094},{"zip":"56258","city":"Marshall","state":"MN","lat":44.4481,"long":-95.7795},{"zip":"56255","city":"Lucan","state":"MN","lat":44.4132,"long":-95.4119},{"zip":"56252","city":"Kerkhoven","state":"MN","lat":45.2096,"long":-95.3115}]
