[{"zip":"56367","city":"Rice","state":"MN","lat":45.7364,"long":-94.1658},{"zip":"56360","city":"Osakis","state":"MN","lat":45.8768,"long":-95.1332},{"zip":"56363","city":"Pease","state":"MN","lat":45.6974,"long":-93.6465},{"zip":"56364","city":"Pierz","state":"MN","lat":46.0081,"long":-94.0853},{"zip":"56361","city":"Parkers Prairie","state":"MN","lat":46.153,"long":-95.3289},{"zip":"56362","city":"Paynesville","state":"MN","lat":45.3988,"long":-94.7157},{"zip":"56368","city":"Richmond","state":"MN","lat":45.4605,"long":-94.5361},{"zip":"56369","city":"Rockville","state":"MN","lat":45.4719,"long":-94.3408}]
