[{"zip":"56452","city":"Hackensack","state":"MN","lat":46.9884,"long":-94.5033},{"zip":"56450","city":"Garrison","state":"MN","lat":46.2314,"long":-93.8341},{"zip":"56455","city":"Ironton","state":"MN","lat":46.4778,"long":-93.9789},{"zip":"56456","city":"Jenkins","state":"MN","lat":46.4807,"long":-94.0859},{"zip":"56459","city":"Lake Hubert","state":"MN","lat":46.4987,"long":-94.2519},{"zip":"56458","city":"Lake George","state":"MN","lat":47.215,"long":-95.0021},{"zip":"56453","city":"Hewitt","state":"MN","lat":46.325,"long":-95.0504}]
