[{"zip":"56544","city":"Frazee","state":"MN","lat":46.7565,"long":-95.5212},{"zip":"56546","city":"Georgetown","state":"MN","lat":47.0999,"long":-96.727},{"zip":"56547","city":"Glyndon","state":"MN","lat":46.882,"long":-96.5583},{"zip":"56549","city":"Hawley","state":"MN","lat":46.9777,"long":-96.4092},{"zip":"56541","city":"Flom","state":"MN","lat":47.1588,"long":-96.1309},{"zip":"56545","city":"Gary","state":"MN","lat":47.3675,"long":-96.2152},{"zip":"56548","city":"Halstad","state":"MN","lat":47.3551,"long":-96.798},{"zip":"56540","city":"Fertile","state":"MN","lat":47.5361,"long":-96.2803},{"zip":"56542","city":"Fosston","state":"MN","lat":47.5816,"long":-95.7431},{"zip":"56543","city":"Foxhome","state":"MN","lat":46.2584,"long":-96.3176}]
