[{"zip":"56569","city":"Ogema","state":"MN","lat":47.1029,"long":-95.9151},{"zip":"56560","city":"Moorhead","state":"MN","lat":46.8677,"long":-96.7572},{"zip":"56561","city":"Moorhead","state":"MN","lat":46.8739,"long":-96.7695},{"zip":"56562","city":"Moorhead","state":"MN","lat":46.8739,"long":-96.7695},{"zip":"56563","city":"Moorhead","state":"MN","lat":46.8739,"long":-96.7695},{"zip":"56566","city":"Naytahwaush","state":"MN","lat":47.2601,"long":-95.6283},{"zip":"56567","city":"New York Mills","state":"MN","lat":46.5559,"long":-95.4047},{"zip":"56568","city":"Nielsville","state":"MN","lat":47.5373,"long":-96.7574},{"zip":"56565","city":"Nashua","state":"MN","lat":46.0537,"long":-96.316}]
