[{"zip":"56755","city":"Saint Vincent","state":"MN","lat":48.9458,"long":-97.1703},{"zip":"56757","city":"Stephen","state":"MN","lat":48.4525,"long":-96.8674},{"zip":"56758","city":"Strandquist","state":"MN","lat":48.4526,"long":-96.4723},{"zip":"56754","city":"Saint Hilaire","state":"MN","lat":48.0109,"long":-96.2249},{"zip":"56750","city":"Red Lake Falls","state":"MN","lat":47.8823,"long":-96.2681},{"zip":"56751","city":"Roseau","state":"MN","lat":48.7048,"long":-95.7504},{"zip":"56756","city":"Salol","state":"MN","lat":48.8522,"long":-95.5356},{"zip":"56759","city":"Strathcona","state":"MN","lat":48.5459,"long":-96.0879}]
