[{"zip":"57037","city":"Irene","state":"SD","lat":43.1027,"long":-97.2558},{"zip":"57032","city":"Harrisburg","state":"SD","lat":43.446,"long":-96.6864},{"zip":"57034","city":"Hudson","state":"SD","lat":43.1284,"long":-96.5306},{"zip":"57039","city":"Lennox","state":"SD","lat":43.3451,"long":-96.8821},{"zip":"57030","city":"Garretson","state":"SD","lat":43.7162,"long":-96.5196},{"zip":"57033","city":"Hartford","state":"SD","lat":43.6155,"long":-96.9501},{"zip":"57035","city":"Humboldt","state":"SD","lat":43.612,"long":-97.0697},{"zip":"57036","city":"Hurley","state":"SD","lat":43.2893,"long":-97.1904},{"zip":"57038","city":"Jefferson","state":"SD","lat":42.6013,"long":-96.5784},{"zip":"57031","city":"Gayville","state":"SD","lat":42.8835,"long":-97.183}]
