[{"zip":"57217","city":"Bradley","state":"SD","lat":45.0751,"long":-97.6387},{"zip":"57219","city":"Bristol","state":"SD","lat":45.288,"long":-97.8086},{"zip":"57213","city":"Astoria","state":"SD","lat":44.5735,"long":-96.5416},{"zip":"57218","city":"Brandt","state":"SD","lat":44.6738,"long":-96.6435},{"zip":"57216","city":"Big Stone City","state":"SD","lat":45.285,"long":-96.5614},{"zip":"57212","city":"Arlington","state":"SD","lat":44.3668,"long":-97.0687},{"zip":"57214","city":"Badger","state":"SD","lat":44.4918,"long":-97.2184}]
