[{"zip":"57243","city":"Henry","state":"SD","lat":44.8858,"long":-97.4442},{"zip":"57245","city":"Kranzburg","state":"SD","lat":44.8923,"long":-96.9174},{"zip":"57246","city":"Labolt","state":"SD","lat":45.0415,"long":-96.6892},{"zip":"57241","city":"Hayti","state":"SD","lat":44.6647,"long":-97.2305},{"zip":"57242","city":"Hazel","state":"SD","lat":44.7572,"long":-97.3083},{"zip":"57248","city":"Lake Norden","state":"SD","lat":44.5844,"long":-97.2009},{"zip":"57249","city":"Lake Preston","state":"SD","lat":44.3692,"long":-97.3828},{"zip":"57247","city":"Lake City","state":"SD","lat":45.6899,"long":-97.3481}]
