[{"zip":"57468","city":"Pierpont","state":"SD","lat":45.496,"long":-97.8128},{"zip":"57466","city":"Onaka","state":"SD","lat":45.1965,"long":-99.4551},{"zip":"57467","city":"Orient","state":"SD","lat":44.8343,"long":-99.1058},{"zip":"57460","city":"Mansfield","state":"SD","lat":45.243,"long":-98.5629},{"zip":"57461","city":"Mellette","state":"SD","lat":45.1631,"long":-98.4824},{"zip":"57465","city":"Northville","state":"SD","lat":45.1611,"long":-98.6589},{"zip":"57469","city":"Redfield","state":"SD","lat":44.8719,"long":-98.5112}]
