[{"zip":"57621","city":"Bullhead","state":"SD","lat":45.7656,"long":-101.0807},{"zip":"57625","city":"Eagle Butte","state":"SD","lat":45.0016,"long":-101.2329},{"zip":"57626","city":"Faith","state":"SD","lat":44.9926,"long":-102.0541},{"zip":"57620","city":"Bison","state":"SD","lat":45.5161,"long":-102.4827},{"zip":"57622","city":"Cherry Creek","state":"SD","lat":44.6055,"long":-101.4999},{"zip":"57623","city":"Dupree","state":"SD","lat":45.0079,"long":-101.6337}]
