[{"zip":"58031","city":"Fingal","state":"ND","lat":46.7728,"long":-97.7812},{"zip":"58036","city":"Gardner","state":"ND","lat":47.1252,"long":-96.9901},{"zip":"58038","city":"Grandin","state":"ND","lat":47.2158,"long":-97.0207},{"zip":"58033","city":"Fort Ransom","state":"ND","lat":46.4494,"long":-97.9091},{"zip":"58030","city":"Fairmount","state":"ND","lat":46.0427,"long":-96.6308},{"zip":"58032","city":"Forman","state":"ND","lat":46.0721,"long":-97.6986},{"zip":"58035","city":"Galesburg","state":"ND","lat":47.27,"long":-97.4065}]
