[{"zip":"58049","city":"Kathryn","state":"ND","lat":46.7177,"long":-97.9763},{"zip":"58042","city":"Harwood","state":"ND","lat":46.9565,"long":-96.9654},{"zip":"58047","city":"Horace","state":"ND","lat":46.7101,"long":-96.8851},{"zip":"58048","city":"Hunter","state":"ND","lat":47.1905,"long":-97.217},{"zip":"58041","city":"Hankinson","state":"ND","lat":46.0558,"long":-96.8991},{"zip":"58040","city":"Gwinner","state":"ND","lat":46.2258,"long":-97.6626},{"zip":"58043","city":"Havana","state":"ND","lat":45.9644,"long":-97.6094},{"zip":"58046","city":"Hope","state":"ND","lat":47.3237,"long":-97.7134},{"zip":"58045","city":"Hillsboro","state":"ND","lat":47.3835,"long":-97.0603}]
