[{"zip":"58436","city":"Ellendale","state":"ND","lat":46.0073,"long":-98.5138},{"zip":"58439","city":"Forbes","state":"ND","lat":46.0109,"long":-98.8124},{"zip":"58431","city":"Dickey","state":"ND","lat":46.5426,"long":-98.4682},{"zip":"58433","city":"Edgeley","state":"ND","lat":46.3591,"long":-98.7157},{"zip":"58430","city":"Denhoff","state":"ND","lat":47.5709,"long":-100.263},{"zip":"58438","city":"Fessenden","state":"ND","lat":47.6286,"long":-99.6434}]
