[{"zip":"58441","city":"Fullerton","state":"ND","lat":46.1951,"long":-98.3882},{"zip":"58443","city":"Glenfield","state":"ND","lat":47.4569,"long":-98.6916},{"zip":"58445","city":"Grace City","state":"ND","lat":47.5536,"long":-98.8095},{"zip":"58448","city":"Hannaford","state":"ND","lat":47.3786,"long":-98.3502},{"zip":"58440","city":"Fredonia","state":"ND","lat":46.3701,"long":-99.1733},{"zip":"58442","city":"Gackle","state":"ND","lat":46.5913,"long":-99.2191},{"zip":"58444","city":"Goodrich","state":"ND","lat":47.471,"long":-100.119}]
