[{"zip":"58737","city":"Flaxton","state":"ND","lat":48.8772,"long":-102.3823},{"zip":"58730","city":"Crosby","state":"ND","lat":48.8836,"long":-103.274},{"zip":"58731","city":"Deering","state":"ND","lat":48.4057,"long":-101.0337},{"zip":"58736","city":"Drake","state":"ND","lat":47.9024,"long":-100.379},{"zip":"58733","city":"Des Lacs","state":"ND","lat":48.2557,"long":-101.5672},{"zip":"58734","city":"Donnybrook","state":"ND","lat":48.49,"long":-101.896},{"zip":"58735","city":"Douglas","state":"ND","lat":47.8659,"long":-101.5112}]
