[{"zip":"58748","city":"Kramer","state":"ND","lat":48.6867,"long":-100.6716},{"zip":"58741","city":"Granville","state":"ND","lat":48.2566,"long":-100.8082},{"zip":"58744","city":"Karlsruhe","state":"ND","lat":48.1009,"long":-100.5742},{"zip":"58740","city":"Glenburn","state":"ND","lat":48.4718,"long":-101.2297},{"zip":"58746","city":"Kenmare","state":"ND","lat":48.7182,"long":-102.0852}]
