[{"zip":"58833","city":"Ambrose","state":"ND","lat":48.8165,"long":-103.4673},{"zip":"58831","city":"Alexander","state":"ND","lat":47.7947,"long":-103.6546},{"zip":"58835","city":"Arnegard","state":"ND","lat":47.8088,"long":-103.4538},{"zip":"58838","city":"Cartwright","state":"ND","lat":47.7992,"long":-103.9487},{"zip":"58830","city":"Alamo","state":"ND","lat":48.5817,"long":-103.4699}]
