[{"zip":"59031","city":"Garryowen","state":"MT","lat":45.5187,"long":-107.4817},{"zip":"59034","city":"Hardin","state":"MT","lat":45.7498,"long":-107.6075},{"zip":"59035","city":"Fort Smith","state":"MT","lat":45.3127,"long":-107.9371},{"zip":"59032","city":"Grass Range","state":"MT","lat":47.0259,"long":-108.8271},{"zip":"59030","city":"Gardiner","state":"MT","lat":45.0849,"long":-110.5715},{"zip":"59039","city":"Ingomar","state":"MT","lat":46.5767,"long":-107.3723},{"zip":"59033","city":"Greycliff","state":"MT","lat":45.7633,"long":-109.7846},{"zip":"59038","city":"Hysham","state":"MT","lat":46.2765,"long":-107.3072},{"zip":"59036","city":"Harlowton","state":"MT","lat":46.4477,"long":-109.8435},{"zip":"59037","city":"Huntley","state":"MT","lat":45.8905,"long":-108.285}]
