[{"zip":"59050","city":"Lodge Grass","state":"MT","lat":45.3166,"long":-107.3675},{"zip":"59058","city":"Mosby","state":"MT","lat":46.9005,"long":-107.7891},{"zip":"59053","city":"Martinsdale","state":"MT","lat":46.4581,"long":-110.4324},{"zip":"59054","city":"Melstone","state":"MT","lat":46.5986,"long":-107.8692},{"zip":"59059","city":"Musselshell","state":"MT","lat":46.5186,"long":-108.0912},{"zip":"59057","city":"Molt","state":"MT","lat":45.8615,"long":-108.9731},{"zip":"59052","city":"Mc Leod","state":"MT","lat":45.5963,"long":-109.9357},{"zip":"59055","city":"Melville","state":"MT","lat":46.104,"long":-109.7808}]
