[{"zip":"59311","city":"Alzada","state":"MT","lat":45.1562,"long":-104.2617},{"zip":"59316","city":"Boyes","state":"MT","lat":45.268,"long":-105.0311},{"zip":"59319","city":"Capitol","state":"MT","lat":45.4361,"long":-104.0655},{"zip":"59315","city":"Bloomfield","state":"MT","lat":47.41,"long":-104.9596},{"zip":"59313","city":"Baker","state":"MT","lat":46.3552,"long":-104.2667},{"zip":"59318","city":"Brusett","state":"MT","lat":47.3423,"long":-107.5999},{"zip":"59314","city":"Biddle","state":"MT","lat":45.0994,"long":-105.3383},{"zip":"59317","city":"Broadus","state":"MT","lat":45.2572,"long":-105.2568},{"zip":"59312","city":"Angela","state":"MT","lat":46.73,"long":-106.2011}]
