[{"zip":"59332","city":"Hammond","state":"MT","lat":45.5671,"long":-104.5391},{"zip":"59336","city":"Ismay","state":"MT","lat":46.4132,"long":-105.2091},{"zip":"59338","city":"Kinsey","state":"MT","lat":46.5708,"long":-105.6569},{"zip":"59330","city":"Glendive","state":"MT","lat":47.1008,"long":-104.7287},{"zip":"59339","city":"Lindsay","state":"MT","lat":47.2024,"long":-105.2089},{"zip":"59337","city":"Jordan","state":"MT","lat":47.3208,"long":-106.9101},{"zip":"59333","city":"Hathaway","state":"MT","lat":46.2761,"long":-106.1967}]
