[{"zip":"59344","city":"Plevna","state":"MT","lat":46.4112,"long":-104.5713},{"zip":"59343","city":"Olive","state":"MT","lat":45.5506,"long":-105.528},{"zip":"59345","city":"Powderville","state":"MT","lat":45.7589,"long":-105.1153},{"zip":"59341","city":"Mildred","state":"MT","lat":46.6758,"long":-104.96},{"zip":"59349","city":"Terry","state":"MT","lat":46.829,"long":-105.3706},{"zip":"59347","city":"Rosebud","state":"MT","lat":46.4352,"long":-106.352}]
