[{"zip":"59421","city":"Cascade","state":"MT","lat":47.2912,"long":-111.7223},{"zip":"59420","city":"Carter","state":"MT","lat":47.781,"long":-110.9786},{"zip":"59424","city":"Coffee Creek","state":"MT","lat":47.3467,"long":-110.0908},{"zip":"59427","city":"Cut Bank","state":"MT","lat":48.6603,"long":-112.3654},{"zip":"59425","city":"Conrad","state":"MT","lat":48.1783,"long":-111.9397},{"zip":"59422","city":"Choteau","state":"MT","lat":47.838,"long":-112.2021}]
