[{"zip":"59480","city":"Stockett","state":"MT","lat":47.3217,"long":-111.1287},{"zip":"59483","city":"Sun River","state":"MT","lat":47.481,"long":-111.7242},{"zip":"59485","city":"Ulm","state":"MT","lat":47.3539,"long":-111.5954},{"zip":"59487","city":"Vaughn","state":"MT","lat":47.5624,"long":-111.577},{"zip":"59489","city":"Winifred","state":"MT","lat":47.6408,"long":-109.2364},{"zip":"59486","city":"Valier","state":"MT","lat":48.2795,"long":-112.3033},{"zip":"59482","city":"Sunburst","state":"MT","lat":48.8516,"long":-111.7442},{"zip":"59484","city":"Sweet Grass","state":"MT","lat":48.9961,"long":-111.9606}]
