[{"zip":"59542","city":"Turner","state":"MT","lat":48.8328,"long":-108.3961},{"zip":"59547","city":"Zurich","state":"MT","lat":48.5844,"long":-109.0304},{"zip":"59540","city":"Rudyard","state":"MT","lat":48.586,"long":-110.5552},{"zip":"59545","city":"Whitlash","state":"MT","lat":48.911,"long":-111.1075},{"zip":"59544","city":"Whitewater","state":"MT","lat":48.7595,"long":-107.6276},{"zip":"59546","city":"Zortman","state":"MT","lat":47.7698,"long":-108.592}]
