[{"zip":"59631","city":"Basin","state":"MT","lat":46.3296,"long":-112.1967},{"zip":"59632","city":"Boulder","state":"MT","lat":46.2306,"long":-112.1138},{"zip":"59634","city":"Clancy","state":"MT","lat":46.4652,"long":-111.9864},{"zip":"59638","city":"Jefferson City","state":"MT","lat":46.3679,"long":-112.0232},{"zip":"59633","city":"Canyon Creek","state":"MT","lat":46.7627,"long":-112.2795},{"zip":"59635","city":"East Helena","state":"MT","lat":46.5973,"long":-111.9051},{"zip":"59636","city":"Fort Harrison","state":"MT","lat":46.6197,"long":-112.1099},{"zip":"59639","city":"Lincoln","state":"MT","lat":46.9575,"long":-112.6651}]
