[{"zip":"59724","city":"Dell","state":"MT","lat":44.723,"long":-112.6972},{"zip":"59725","city":"Dillon","state":"MT","lat":45.2339,"long":-112.6405},{"zip":"59721","city":"Cardwell","state":"MT","lat":45.8941,"long":-111.7809},{"zip":"59720","city":"Cameron","state":"MT","lat":45.139,"long":-111.6508},{"zip":"59729","city":"Ennis","state":"MT","lat":45.3545,"long":-111.687},{"zip":"59722","city":"Deer Lodge","state":"MT","lat":46.3881,"long":-112.7476},{"zip":"59728","city":"Elliston","state":"MT","lat":46.5034,"long":-112.4007},{"zip":"59727","city":"Divide","state":"MT","lat":45.803,"long":-112.809}]
