[{"zip":"59756","city":"Warm Springs","state":"MT","lat":46.2183,"long":-112.8117},{"zip":"59752","city":"Three Forks","state":"MT","lat":45.8811,"long":-111.5436},{"zip":"59758","city":"West Yellowstone","state":"MT","lat":44.6621,"long":-111.1041},{"zip":"59759","city":"Whitehall","state":"MT","lat":45.8771,"long":-112.1245},{"zip":"59751","city":"Silver Star","state":"MT","lat":45.7,"long":-112.2535},{"zip":"59754","city":"Twin Bridges","state":"MT","lat":45.5311,"long":-112.3495},{"zip":"59755","city":"Virginia City","state":"MT","lat":45.2938,"long":-111.9461},{"zip":"59750","city":"Butte","state":"MT","lat":46.0033,"long":-112.7159}]
