[{"zip":"59842","city":"Haugan","state":"MT","lat":47.3833,"long":-115.3996},{"zip":"59846","city":"Huson","state":"MT","lat":47.066,"long":-114.4219},{"zip":"59847","city":"Lolo","state":"MT","lat":46.7585,"long":-114.1097},{"zip":"59843","city":"Helmville","state":"MT","lat":46.83,"long":-112.9413},{"zip":"59840","city":"Hamilton","state":"MT","lat":46.2395,"long":-114.1679},{"zip":"59841","city":"Pinesdale","state":"MT","lat":46.3329,"long":-114.2235},{"zip":"59844","city":"Heron","state":"MT","lat":48.0537,"long":-115.9407},{"zip":"59845","city":"Hot Springs","state":"MT","lat":47.5914,"long":-114.6597},{"zip":"59848","city":"Lonepine","state":"MT","lat":47.7251,"long":-114.657}]
