[{"zip":"59911","city":"Bigfork","state":"MT","lat":48.0633,"long":-114.0726},{"zip":"59912","city":"Columbia Falls","state":"MT","lat":48.3534,"long":-114.1784},{"zip":"59913","city":"Coram","state":"MT","lat":48.4342,"long":-114.0584},{"zip":"59916","city":"Essex","state":"MT","lat":48.278,"long":-113.6126},{"zip":"59919","city":"Hungry Horse","state":"MT","lat":48.3858,"long":-114.061},{"zip":"59910","city":"Big Arm","state":"MT","lat":47.7952,"long":-114.302},{"zip":"59914","city":"Dayton","state":"MT","lat":47.8607,"long":-114.2809},{"zip":"59915","city":"Elmo","state":"MT","lat":47.8305,"long":-114.3496},{"zip":"59917","city":"Eureka","state":"MT","lat":48.8428,"long":-115.0049},{"zip":"59918","city":"Fortine","state":"MT","lat":48.7586,"long":-114.8809}]
