[{"zip":"60070","city":"Prospect Heights","state":"IL","lat":42.1058,"long":-87.9395},{"zip":"60074","city":"Palatine","state":"IL","lat":42.1458,"long":-88.023},{"zip":"60076","city":"Skokie","state":"IL","lat":42.0362,"long":-87.7328},{"zip":"60077","city":"Skokie","state":"IL","lat":42.0345,"long":-87.7541},{"zip":"60078","city":"Palatine","state":"IL","lat":42.1103,"long":-88.0342},{"zip":"60073","city":"Round Lake","state":"IL","lat":42.3668,"long":-88.0888},{"zip":"60075","city":"Russell","state":"IL","lat":42.4906,"long":-87.9126},{"zip":"60079","city":"Waukegan","state":"IL","lat":42.3636,"long":-87.8448},{"zip":"60071","city":"Richmond","state":"IL","lat":42.4669,"long":-88.29},{"zip":"60072","city":"Ringwood","state":"IL","lat":42.4048,"long":-88.3054}]
