[{"zip":"60141","city":"Hines","state":"IL","lat":41.8623,"long":-87.8355},{"zip":"60145","city":"Kingston","state":"IL","lat":42.1057,"long":-88.7695},{"zip":"60146","city":"Kirkland","state":"IL","lat":42.1014,"long":-88.8685},{"zip":"60143","city":"Itasca","state":"IL","lat":41.972,"long":-88.0202},{"zip":"60148","city":"Lombard","state":"IL","lat":41.8721,"long":-88.016},{"zip":"60140","city":"Hampshire","state":"IL","lat":42.0807,"long":-88.517},{"zip":"60144","city":"Kaneville","state":"IL","lat":41.8353,"long":-88.522},{"zip":"60147","city":"Lafox","state":"IL","lat":41.937,"long":-88.4202},{"zip":"60142","city":"Huntley","state":"IL","lat":42.1756,"long":-88.4268}]
