[{"zip":"60430","city":"Homewood","state":"IL","lat":41.5556,"long":-87.6616},{"zip":"60438","city":"Lansing","state":"IL","lat":41.566,"long":-87.5446},{"zip":"60439","city":"Lemont","state":"IL","lat":41.7074,"long":-87.9756},{"zip":"60437","city":"Kinsman","state":"IL","lat":41.1631,"long":-88.5535},{"zip":"60431","city":"Joliet","state":"IL","lat":41.4712,"long":-87.9391},{"zip":"60432","city":"Joliet","state":"IL","lat":41.5378,"long":-88.0572},{"zip":"60433","city":"Joliet","state":"IL","lat":41.5119,"long":-88.0569},{"zip":"60434","city":"Joliet","state":"IL","lat":41.5254,"long":-88.0842},{"zip":"60435","city":"Joliet","state":"IL","lat":41.5454,"long":-88.1299},{"zip":"60436","city":"Joliet","state":"IL","lat":41.4884,"long":-88.1572}]
