[{"zip":"60452","city":"Oak Forest","state":"IL","lat":41.6077,"long":-87.7542},{"zip":"60453","city":"Oak Lawn","state":"IL","lat":41.7143,"long":-87.7516},{"zip":"60454","city":"Oak Lawn","state":"IL","lat":41.8119,"long":-87.6873},{"zip":"60455","city":"Bridgeview","state":"IL","lat":41.7431,"long":-87.8066},{"zip":"60456","city":"Hometown","state":"IL","lat":41.7311,"long":-87.7315},{"zip":"60457","city":"Hickory Hills","state":"IL","lat":41.7262,"long":-87.8289},{"zip":"60458","city":"Justice","state":"IL","lat":41.7447,"long":-87.8346},{"zip":"60459","city":"Burbank","state":"IL","lat":41.7447,"long":-87.7699},{"zip":"60450","city":"Morris","state":"IL","lat":41.3672,"long":-88.4178},{"zip":"60451","city":"New Lenox","state":"IL","lat":41.5067,"long":-87.9631}]
