[{"zip":"60471","city":"Richton Park","state":"IL","lat":41.4819,"long":-87.7238},{"zip":"60472","city":"Robbins","state":"IL","lat":41.6423,"long":-87.7089},{"zip":"60473","city":"South Holland","state":"IL","lat":41.5979,"long":-87.5938},{"zip":"60475","city":"Steger","state":"IL","lat":41.4686,"long":-87.6386},{"zip":"60476","city":"Thornton","state":"IL","lat":41.5727,"long":-87.6078},{"zip":"60477","city":"Tinley Park","state":"IL","lat":41.5825,"long":-87.805},{"zip":"60478","city":"Country Club Hills","state":"IL","lat":41.5637,"long":-87.7247},{"zip":"60474","city":"South Wilmington","state":"IL","lat":41.1728,"long":-88.2767},{"zip":"60479","city":"Verona","state":"IL","lat":41.2501,"long":-88.517},{"zip":"60470","city":"Ransom","state":"IL","lat":41.153,"long":-88.6502}]
