[{"zip":"60558","city":"Western Springs","state":"IL","lat":41.8049,"long":-87.8995},{"zip":"60550","city":"Shabbona","state":"IL","lat":41.7638,"long":-88.8752},{"zip":"60552","city":"Somonauk","state":"IL","lat":41.6383,"long":-88.6816},{"zip":"60556","city":"Waterman","state":"IL","lat":41.7504,"long":-88.7754},{"zip":"60555","city":"Warrenville","state":"IL","lat":41.828,"long":-88.1921},{"zip":"60559","city":"Westmont","state":"IL","lat":41.7728,"long":-87.9757},{"zip":"60554","city":"Sugar Grove","state":"IL","lat":41.7741,"long":-88.4397},{"zip":"60551","city":"Sheridan","state":"IL","lat":41.5164,"long":-88.6706},{"zip":"60557","city":"Wedron","state":"IL","lat":41.4409,"long":-88.7703},{"zip":"60553","city":"Steward","state":"IL","lat":41.8475,"long":-89.0151}]
