[{"zip":"61074","city":"Savanna","state":"IL","lat":42.0956,"long":-90.1401},{"zip":"61078","city":"Shannon","state":"IL","lat":42.161,"long":-89.7481},{"zip":"61075","city":"Scales Mound","state":"IL","lat":42.4715,"long":-90.258},{"zip":"61070","city":"Rock City","state":"IL","lat":42.4103,"long":-89.4759},{"zip":"61071","city":"Rock Falls","state":"IL","lat":41.7665,"long":-89.6925},{"zip":"61072","city":"Rockton","state":"IL","lat":42.4544,"long":-89.0887},{"zip":"61073","city":"Roscoe","state":"IL","lat":42.4217,"long":-88.9943},{"zip":"61077","city":"Seward","state":"IL","lat":42.2368,"long":-89.358},{"zip":"61079","city":"Shirland","state":"IL","lat":42.4445,"long":-89.1976}]
