[{"zip":"61312","city":"Arlington","state":"IL","lat":41.4437,"long":-89.2219},{"zip":"61314","city":"Buda","state":"IL","lat":41.314,"long":-89.6795},{"zip":"61315","city":"Bureau","state":"IL","lat":41.2894,"long":-89.3686},{"zip":"61317","city":"Cherry","state":"IL","lat":41.4264,"long":-89.2126},{"zip":"61320","city":"Dalzell","state":"IL","lat":41.3547,"long":-89.1705},{"zip":"61322","city":"Depue","state":"IL","lat":41.3092,"long":-89.3252},{"zip":"61323","city":"Dover","state":"IL","lat":41.4362,"long":-89.396},{"zip":"61328","city":"Kasbeer","state":"IL","lat":41.3669,"long":-89.5131},{"zip":"61329","city":"Ladd","state":"IL","lat":41.3825,"long":-89.219},{"zip":"61330","city":"La Moille","state":"IL","lat":41.5376,"long":-89.297},{"zip":"61337","city":"Malden","state":"IL","lat":41.4245,"long":-89.3693},{"zip":"61338","city":"Manlius","state":"IL","lat":41.4555,"long":-89.6697},{"zip":"61344","city":"Mineral","state":"IL","lat":41.4036,"long":-89.8201},{"zip":"61345","city":"Neponset","state":"IL","lat":41.2905,"long":-89.7944},{"zip":"61346","city":"New Bedford","state":"IL","lat":41.5122,"long":-89.7199},{"zip":"61349","city":"Ohio","state":"IL","lat":41.5371,"long":-89.4574},{"zip":"61356","city":"Princeton","state":"IL","lat":41.3629,"long":-89.427},{"zip":"61359","city":"Seatonville","state":"IL","lat":41.3613,"long":-89.2691},{"zip":"61361","city":"Sheffield","state":"IL","lat":41.3949,"long":-89.7115},{"zip":"61362","city":"Spring Valley","state":"IL","lat":41.3279,"long":-89.2042},{"zip":"61368","city":"Tiskilwa","state":"IL","lat":41.2891,"long":-89.508},{"zip":"61374","city":"Van Orin","state":"IL","lat":41.55,"long":-89.3534},{"zip":"61376","city":"Walnut","state":"IL","lat":41.5394,"long":-89.6092},{"zip":"61379","city":"Wyanet","state":"IL","lat":41.3785,"long":-89.5744},{"zip":"61301","city":"La Salle","state":"IL","lat":41.3442,"long":-89.0955},{"zip":"61316","city":"Cedar Point","state":"IL","lat":41.2617,"long":-89.1237},{"zip":"61321","city":"Dana","state":"IL","lat":40.9547,"long":-88.9628},{"zip":"61325","city":"Grand Ridge","state":"IL","lat":41.2386,"long":-88.8168},{"zip":"61332","city":"Leonore","state":"IL","lat":41.1895,"long":-88.9806},{"zip":"61334","city":"Lostant","state":"IL","lat":41.145,"long":-89.075},{"zip":"61341","city":"Marseilles","state":"IL","lat":41.3302,"long":-88.6947},{"zip":"61342","city":"Mendota","state":"IL","lat":41.5443,"long":-89.1083},{"zip":"61348","city":"Oglesby","state":"IL","lat":41.2928,"long":-89.0553},{"zip":"61350","city":"Ottawa","state":"IL","lat":41.3526,"long":-88.8416},{"zip":"61354","city":"Peru","state":"IL","lat":41.333,"long":-89.1265},{"zip":"61358","city":"Rutland","state":"IL","lat":40.9844,"long":-89.0388},{"zip":"61360","city":"Seneca","state":"IL","lat":41.3152,"long":-88.61},{"zip":"61364","city":"Streator","state":"IL","lat":41.1225,"long":-88.8307},{"zip":"61370","city":"Tonica","state":"IL","lat":41.2327,"long":-89.089},{"zip":"61371","city":"Triumph","state":"IL","lat":41.4991,"long":-89.0219},{"zip":"61372","city":"Troy Grove","state":"IL","lat":41.4518,"long":-89.0705},{"zip":"61373","city":"Utica","state":"IL","lat":41.363,"long":-89.0008},{"zip":"61310","city":"Amboy","state":"IL","lat":41.7042,"long":-89.3472},{"zip":"61318","city":"Compton","state":"IL","lat":41.685,"long":-89.0877},{"zip":"61324","city":"Eldena","state":"IL","lat":41.7711,"long":-89.4123},{"zip":"61331","city":"Lee Center","state":"IL","lat":41.7488,"long":-89.2827},{"zip":"61353","city":"Paw Paw","state":"IL","lat":41.6852,"long":-88.9674},{"zip":"61367","city":"Sublette","state":"IL","lat":41.6331,"long":-89.2354},{"zip":"61378","city":"West Brooklyn","state":"IL","lat":41.7292,"long":-89.1909},{"zip":"61311","city":"Ancona","state":"IL","lat":41.0426,"long":-88.8642},{"zip":"61313","city":"Blackstone","state":"IL","lat":41.0719,"long":-88.6498},{"zip":"61319","city":"Cornell","state":"IL","lat":41.031,"long":-88.7668},{"zip":"61333","city":"Long Point","state":"IL","lat":40.9896,"long":-88.8811},{"zip":"61369","city":"Toluca","state":"IL","lat":41.0046,"long":-89.1348},{"zip":"61375","city":"Varna","state":"IL","lat":41.0327,"long":-89.2483},{"zip":"61377","city":"Wenona","state":"IL","lat":41.0548,"long":-89.0416},{"zip":"61326","city":"Granville","state":"IL","lat":41.2642,"long":-89.225},{"zip":"61327","city":"Hennepin","state":"IL","lat":41.2352,"long":-89.3218},{"zip":"61335","city":"Mc Nabb","state":"IL","lat":41.173,"long":-89.2187},{"zip":"61336","city":"Magnolia","state":"IL","lat":41.1164,"long":-89.227},{"zip":"61340","city":"Mark","state":"IL","lat":41.266,"long":-89.2491},{"zip":"61363","city":"Standard","state":"IL","lat":41.2567,"long":-89.1778}]
