[{"zip":"61374","city":"Van Orin","state":"IL","lat":41.55,"long":-89.3534},{"zip":"61376","city":"Walnut","state":"IL","lat":41.5394,"long":-89.6092},{"zip":"61379","city":"Wyanet","state":"IL","lat":41.3785,"long":-89.5744},{"zip":"61370","city":"Tonica","state":"IL","lat":41.2327,"long":-89.089},{"zip":"61371","city":"Triumph","state":"IL","lat":41.4991,"long":-89.0219},{"zip":"61372","city":"Troy Grove","state":"IL","lat":41.4518,"long":-89.0705},{"zip":"61373","city":"Utica","state":"IL","lat":41.363,"long":-89.0008},{"zip":"61378","city":"West Brooklyn","state":"IL","lat":41.7292,"long":-89.1909},{"zip":"61375","city":"Varna","state":"IL","lat":41.0327,"long":-89.2483},{"zip":"61377","city":"Wenona","state":"IL","lat":41.0548,"long":-89.0416}]
