[{"zip":"61427","city":"Cuba","state":"IL","lat":40.4995,"long":-90.1811},{"zip":"61425","city":"Carman","state":"IL","lat":40.7551,"long":-91.0564},{"zip":"61428","city":"Dahinda","state":"IL","lat":40.9551,"long":-90.1398},{"zip":"61420","city":"Blandinsville","state":"IL","lat":40.5516,"long":-90.8595},{"zip":"61422","city":"Bushnell","state":"IL","lat":40.5539,"long":-90.506},{"zip":"61424","city":"Camp Grove","state":"IL","lat":41.078,"long":-89.6332},{"zip":"61421","city":"Bradford","state":"IL","lat":41.1532,"long":-89.6521},{"zip":"61426","city":"Castleton","state":"IL","lat":41.1183,"long":-89.7071},{"zip":"61423","city":"Cameron","state":"IL","lat":40.889,"long":-90.5001}]
