[{"zip":"61460","city":"Media","state":"IL","lat":40.7618,"long":-90.857},{"zip":"61469","city":"Oquawka","state":"IL","lat":40.9442,"long":-90.9302},{"zip":"61468","city":"Ophiem","state":"IL","lat":41.2525,"long":-90.3876},{"zip":"61467","city":"Oneida","state":"IL","lat":41.0832,"long":-90.2391},{"zip":"61465","city":"New Windsor","state":"IL","lat":41.1987,"long":-90.4598},{"zip":"61466","city":"North Henderson","state":"IL","lat":41.1006,"long":-90.4736},{"zip":"61462","city":"Monmouth","state":"IL","lat":40.9107,"long":-90.6448}]
