[{"zip":"61777","city":"Wapella","state":"IL","lat":40.2323,"long":-88.9673},{"zip":"61778","city":"Waynesville","state":"IL","lat":40.2437,"long":-89.1143},{"zip":"61773","city":"Sibley","state":"IL","lat":40.5823,"long":-88.3815},{"zip":"61775","city":"Strawn","state":"IL","lat":40.6476,"long":-88.404},{"zip":"61770","city":"Saybrook","state":"IL","lat":40.432,"long":-88.5247},{"zip":"61772","city":"Shirley","state":"IL","lat":40.4174,"long":-89.0822},{"zip":"61774","city":"Stanford","state":"IL","lat":40.4376,"long":-89.2164},{"zip":"61776","city":"Towanda","state":"IL","lat":40.5533,"long":-88.8886},{"zip":"61771","city":"Secor","state":"IL","lat":40.7224,"long":-89.1271}]
