[{"zip":"61815","city":"Bondville","state":"IL","lat":40.1134,"long":-88.3695},{"zip":"61816","city":"Broadlands","state":"IL","lat":39.9142,"long":-87.9948},{"zip":"61813","city":"Bement","state":"IL","lat":39.9222,"long":-88.5688},{"zip":"61818","city":"Cerro Gordo","state":"IL","lat":39.8681,"long":-88.7256},{"zip":"61810","city":"Allerton","state":"IL","lat":39.9188,"long":-87.9312},{"zip":"61811","city":"Alvin","state":"IL","lat":40.3007,"long":-87.608},{"zip":"61812","city":"Armstrong","state":"IL","lat":40.2175,"long":-87.8943},{"zip":"61814","city":"Bismarck","state":"IL","lat":40.2552,"long":-87.6138},{"zip":"61817","city":"Catlin","state":"IL","lat":40.0699,"long":-87.7113}]
