[{"zip":"61953","city":"Tuscola","state":"IL","lat":39.7995,"long":-88.2816},{"zip":"61956","city":"Villa Grove","state":"IL","lat":39.8687,"long":-88.1616},{"zip":"61955","city":"Vermilion","state":"IL","lat":39.5811,"long":-87.5889},{"zip":"61951","city":"Sullivan","state":"IL","lat":39.5934,"long":-88.6038},{"zip":"61957","city":"Windsor","state":"IL","lat":39.4302,"long":-88.5857}]
