[{"zip":"62346","city":"La Prairie","state":"IL","lat":40.1572,"long":-90.9844},{"zip":"62347","city":"Liberty","state":"IL","lat":39.8892,"long":-91.0869},{"zip":"62348","city":"Lima","state":"IL","lat":40.1775,"long":-91.3785},{"zip":"62349","city":"Loraine","state":"IL","lat":40.1532,"long":-91.213},{"zip":"62341","city":"Hamilton","state":"IL","lat":40.3964,"long":-91.339},{"zip":"62340","city":"Griggsville","state":"IL","lat":39.7084,"long":-90.7249},{"zip":"62343","city":"Hull","state":"IL","lat":39.7186,"long":-91.2338},{"zip":"62345","city":"Kinderhook","state":"IL","lat":39.6953,"long":-91.1637},{"zip":"62344","city":"Huntsville","state":"IL","lat":40.1544,"long":-90.8531}]
