[{"zip":"62555","city":"Owaneco","state":"IL","lat":39.4775,"long":-89.1951},{"zip":"62556","city":"Palmer","state":"IL","lat":39.4699,"long":-89.3733},{"zip":"62557","city":"Pana","state":"IL","lat":39.3971,"long":-89.1048},{"zip":"62551","city":"Niantic","state":"IL","lat":39.8582,"long":-89.1701},{"zip":"62554","city":"Oreana","state":"IL","lat":39.9351,"long":-88.8547},{"zip":"62558","city":"Pawnee","state":"IL","lat":39.6086,"long":-89.5678},{"zip":"62550","city":"Moweaqua","state":"IL","lat":39.6248,"long":-89.019},{"zip":"62553","city":"Oconee","state":"IL","lat":39.2884,"long":-89.0836}]
