[{"zip":"62634","city":"Elkhart","state":"IL","lat":40.0132,"long":-89.452},{"zip":"62635","city":"Emden","state":"IL","lat":40.2967,"long":-89.4714},{"zip":"62630","city":"Chesterfield","state":"IL","lat":39.2608,"long":-90.0784},{"zip":"62633","city":"Easton","state":"IL","lat":40.2279,"long":-89.8903},{"zip":"62631","city":"Concord","state":"IL","lat":39.823,"long":-90.3722},{"zip":"62638","city":"Franklin","state":"IL","lat":39.6222,"long":-90.0889},{"zip":"62639","city":"Frederick","state":"IL","lat":40.07,"long":-90.429}]
