[{"zip":"62880","city":"Saint Peter","state":"IL","lat":38.8697,"long":-88.856},{"zip":"62885","city":"Shobonier","state":"IL","lat":38.8446,"long":-89.079},{"zip":"62884","city":"Sesser","state":"IL","lat":38.0894,"long":-89.0574},{"zip":"62883","city":"Scheller","state":"IL","lat":38.1731,"long":-89.0927},{"zip":"62889","city":"Texico","state":"IL","lat":38.425,"long":-88.8702},{"zip":"62881","city":"Salem","state":"IL","lat":38.6264,"long":-88.9481},{"zip":"62882","city":"Sandoval","state":"IL","lat":38.6131,"long":-89.114},{"zip":"62888","city":"Tamaroa","state":"IL","lat":38.138,"long":-89.2231},{"zip":"62886","city":"Sims","state":"IL","lat":38.3923,"long":-88.5306},{"zip":"62887","city":"Springerton","state":"IL","lat":38.1699,"long":-88.3726}]
