[{"zip":"62924","city":"De Soto","state":"IL","lat":37.8147,"long":-89.2218},{"zip":"62927","city":"Dowell","state":"IL","lat":37.9398,"long":-89.2379},{"zip":"62923","city":"Cypress","state":"IL","lat":37.365,"long":-88.9747},{"zip":"62928","city":"Eddyville","state":"IL","lat":37.4829,"long":-88.5791},{"zip":"62920","city":"Cobden","state":"IL","lat":37.5424,"long":-89.2457},{"zip":"62926","city":"Dongola","state":"IL","lat":37.3712,"long":-89.1349},{"zip":"62921","city":"Colp","state":"IL","lat":37.8053,"long":-89.0801},{"zip":"62922","city":"Creal Springs","state":"IL","lat":37.6195,"long":-88.8367}]
