[{"zip":"62990","city":"Thebes","state":"IL","lat":37.221,"long":-89.4599},{"zip":"62993","city":"Unity","state":"IL","lat":37.1528,"long":-89.3256},{"zip":"62999","city":"Zeigler","state":"IL","lat":37.8991,"long":-89.0523},{"zip":"62994","city":"Vergennes","state":"IL","lat":37.9051,"long":-89.3269},{"zip":"62995","city":"Vienna","state":"IL","lat":37.4205,"long":-88.8879},{"zip":"62997","city":"Willisville","state":"IL","lat":37.9848,"long":-89.5899},{"zip":"62992","city":"Ullin","state":"IL","lat":37.277,"long":-89.1834},{"zip":"62996","city":"Villa Ridge","state":"IL","lat":37.1578,"long":-89.1825},{"zip":"62998","city":"Wolf Lake","state":"IL","lat":37.512,"long":-89.4408}]
