[{"zip":"63013","city":"Beaufort","state":"MO","lat":38.4294,"long":-91.1709},{"zip":"63014","city":"Berger","state":"MO","lat":38.6444,"long":-91.3374},{"zip":"63015","city":"Catawissa","state":"MO","lat":38.4047,"long":-90.7806},{"zip":"63010","city":"Arnold","state":"MO","lat":38.4305,"long":-90.387},{"zip":"63012","city":"Barnhart","state":"MO","lat":38.3384,"long":-90.4142},{"zip":"63016","city":"Cedar Hill","state":"MO","lat":38.3573,"long":-90.6498},{"zip":"63019","city":"Crystal City","state":"MO","lat":38.23,"long":-90.3825},{"zip":"63011","city":"Ballwin","state":"MO","lat":38.6091,"long":-90.5598},{"zip":"63017","city":"Chesterfield","state":"MO","lat":38.6491,"long":-90.5358}]
