[{"zip":"63080","city":"Sullivan","state":"MO","lat":38.2307,"long":-91.1567},{"zip":"63084","city":"Union","state":"MO","lat":38.4456,"long":-91.0206},{"zip":"63089","city":"Villa Ridge","state":"MO","lat":38.4601,"long":-90.8822},{"zip":"63087","city":"Valles Mines","state":"MO","lat":37.9998,"long":-90.4407},{"zip":"63088","city":"Valley Park","state":"MO","lat":38.5576,"long":-90.4924}]
