[{"zip":"63345","city":"Farber","state":"MO","lat":39.2742,"long":-91.5798},{"zip":"63343","city":"Elsberry","state":"MO","lat":39.159,"long":-90.816},{"zip":"63347","city":"Foley","state":"MO","lat":39.053,"long":-90.7775},{"zip":"63349","city":"Hawk Point","state":"MO","lat":38.9766,"long":-91.1211},{"zip":"63344","city":"Eolia","state":"MO","lat":39.2431,"long":-91.0093},{"zip":"63341","city":"Defiance","state":"MO","lat":38.6616,"long":-90.8302},{"zip":"63346","city":"Flinthill","state":"MO","lat":38.7509,"long":-90.5368},{"zip":"63348","city":"Foristell","state":"MO","lat":38.7626,"long":-90.9343},{"zip":"63342","city":"Dutzow","state":"MO","lat":38.606,"long":-90.9962}]
