[{"zip":"63370","city":"Olney","state":"MO","lat":39.0776,"long":-91.2317},{"zip":"63377","city":"Silex","state":"MO","lat":39.1166,"long":-91.037},{"zip":"63379","city":"Troy","state":"MO","lat":39.0012,"long":-90.9624},{"zip":"63373","city":"Portage Des Sioux","state":"MO","lat":38.9259,"long":-90.3863},{"zip":"63376","city":"Saint Peters","state":"MO","lat":38.7802,"long":-90.6228},{"zip":"63378","city":"Treloar","state":"MO","lat":38.6445,"long":-91.1879}]
