[{"zip":"63382","city":"Vandalia","state":"MO","lat":39.2949,"long":-91.4883},{"zip":"63388","city":"Williamsburg","state":"MO","lat":38.8874,"long":-91.7689},{"zip":"63381","city":"Truxton","state":"MO","lat":38.967,"long":-91.2126},{"zip":"63387","city":"Whiteside","state":"MO","lat":39.1853,"long":-91.0168},{"zip":"63389","city":"Winfield","state":"MO","lat":38.9897,"long":-90.8213},{"zip":"63384","city":"Wellsville","state":"MO","lat":39.0765,"long":-91.5645},{"zip":"63385","city":"Wentzville","state":"MO","lat":38.802,"long":-90.8534},{"zip":"63386","city":"West Alton","state":"MO","lat":38.8758,"long":-90.2384},{"zip":"63380","city":"Truesdale","state":"MO","lat":38.8117,"long":-91.1304},{"zip":"63383","city":"Warrenton","state":"MO","lat":38.805,"long":-91.174}]
