[{"zip":"63453","city":"Luray","state":"MO","lat":40.4931,"long":-91.8912},{"zip":"63458","city":"Newark","state":"MO","lat":39.9931,"long":-91.973},{"zip":"63452","city":"Lewistown","state":"MO","lat":40.0867,"long":-91.8157},{"zip":"63457","city":"Monticello","state":"MO","lat":40.1184,"long":-91.7121},{"zip":"63454","city":"Maywood","state":"MO","lat":39.9333,"long":-91.6148},{"zip":"63456","city":"Monroe City","state":"MO","lat":39.6546,"long":-91.723},{"zip":"63459","city":"New London","state":"MO","lat":39.5917,"long":-91.396},{"zip":"63450","city":"Lentner","state":"MO","lat":39.7123,"long":-92.1489},{"zip":"63451","city":"Leonard","state":"MO","lat":39.9076,"long":-92.1947}]
