[{"zip":"63465","city":"Revere","state":"MO","lat":40.5172,"long":-91.6753},{"zip":"63466","city":"Saint Patrick","state":"MO","lat":40.4312,"long":-91.6851},{"zip":"63460","city":"Novelty","state":"MO","lat":40.0125,"long":-92.2082},{"zip":"63464","city":"Plevna","state":"MO","lat":39.9765,"long":-92.0852},{"zip":"63461","city":"Palmyra","state":"MO","lat":39.7913,"long":-91.5368},{"zip":"63463","city":"Philadelphia","state":"MO","lat":39.8359,"long":-91.7538},{"zip":"63462","city":"Perry","state":"MO","lat":39.4207,"long":-91.6641},{"zip":"63467","city":"Saverton","state":"MO","lat":39.65,"long":-91.2705},{"zip":"63468","city":"Shelbina","state":"MO","lat":39.6947,"long":-92.0371},{"zip":"63469","city":"Shelbyville","state":"MO","lat":39.8108,"long":-92.0498}]
