[{"zip":"63533","city":"Brashear","state":"MO","lat":40.1959,"long":-92.4333},{"zip":"63531","city":"Baring","state":"MO","lat":40.2509,"long":-92.2311},{"zip":"63537","city":"Edina","state":"MO","lat":40.1795,"long":-92.1455},{"zip":"63530","city":"Atlanta","state":"MO","lat":39.9146,"long":-92.475},{"zip":"63532","city":"Bevier","state":"MO","lat":39.7497,"long":-92.5619},{"zip":"63534","city":"Callao","state":"MO","lat":39.7448,"long":-92.6351},{"zip":"63538","city":"Elmer","state":"MO","lat":39.9415,"long":-92.6424},{"zip":"63539","city":"Ethel","state":"MO","lat":39.9146,"long":-92.7664},{"zip":"63535","city":"Coatsville","state":"MO","lat":40.5665,"long":-92.6388},{"zip":"63536","city":"Downing","state":"MO","lat":40.4875,"long":-92.3694}]
