[{"zip":"63540","city":"Gibbs","state":"MO","lat":40.104,"long":-92.4066},{"zip":"63546","city":"Greentop","state":"MO","lat":40.3446,"long":-92.5567},{"zip":"63547","city":"Hurdland","state":"MO","lat":40.1609,"long":-92.2791},{"zip":"63549","city":"La Plata","state":"MO","lat":40.0208,"long":-92.5077},{"zip":"63541","city":"Glenwood","state":"MO","lat":40.5149,"long":-92.5886},{"zip":"63548","city":"Lancaster","state":"MO","lat":40.5253,"long":-92.5264},{"zip":"63543","city":"Gorin","state":"MO","lat":40.3622,"long":-92.014},{"zip":"63544","city":"Green Castle","state":"MO","lat":40.2703,"long":-92.878},{"zip":"63545","city":"Green City","state":"MO","lat":40.2601,"long":-92.9532}]
