[{"zip":"63565","city":"Unionville","state":"MO","lat":40.4815,"long":-92.9951},{"zip":"63567","city":"Worthington","state":"MO","lat":40.4084,"long":-92.6888},{"zip":"63561","city":"Queen City","state":"MO","lat":40.4152,"long":-92.5663},{"zip":"63563","city":"Rutledge","state":"MO","lat":40.329,"long":-92.0976},{"zip":"63560","city":"Pollock","state":"MO","lat":40.3385,"long":-93.1115},{"zip":"63566","city":"Winigan","state":"MO","lat":40.0371,"long":-92.9301}]
