[{"zip":"63760","city":"Leopold","state":"MO","lat":37.2609,"long":-89.9227},{"zip":"63764","city":"Marble Hill","state":"MO","lat":37.3061,"long":-89.9823},{"zip":"63766","city":"Millersville","state":"MO","lat":37.4401,"long":-89.795},{"zip":"63769","city":"Oak Ridge","state":"MO","lat":37.5258,"long":-89.7508},{"zip":"63767","city":"Morley","state":"MO","lat":37.0411,"long":-89.6076},{"zip":"63763","city":"Mc Gee","state":"MO","lat":37.1196,"long":-90.445}]
