[{"zip":"63770","city":"Old Appleton","state":"MO","lat":37.5975,"long":-89.703},{"zip":"63779","city":"Pocahontas","state":"MO","lat":37.5007,"long":-89.6396},{"zip":"63775","city":"Perryville","state":"MO","lat":37.7174,"long":-89.8737},{"zip":"63776","city":"Mc Bride","state":"MO","lat":37.7348,"long":-89.8116},{"zip":"63771","city":"Oran","state":"MO","lat":37.087,"long":-89.6734},{"zip":"63774","city":"Perkins","state":"MO","lat":37.0564,"long":-89.5499}]
