[{"zip":"63781","city":"Sedgewickville","state":"MO","lat":37.537,"long":-89.9272},{"zip":"63782","city":"Sturdivant","state":"MO","lat":37.071,"long":-90.0092},{"zip":"63787","city":"Zalma","state":"MO","lat":37.1365,"long":-90.0757},{"zip":"63785","city":"Whitewater","state":"MO","lat":37.2781,"long":-89.8061},{"zip":"63783","city":"Uniontown","state":"MO","lat":37.6073,"long":-89.6798},{"zip":"63780","city":"Scott City","state":"MO","lat":37.2077,"long":-89.5181},{"zip":"63784","city":"Vanduser","state":"MO","lat":36.9912,"long":-89.6885}]
