[{"zip":"63932","city":"Broseley","state":"MO","lat":36.6899,"long":-90.2508},{"zip":"63938","city":"Fagus","state":"MO","lat":36.5114,"long":-90.267},{"zip":"63937","city":"Ellsinore","state":"MO","lat":36.9453,"long":-90.7485},{"zip":"63933","city":"Campbell","state":"MO","lat":36.5197,"long":-90.0829},{"zip":"63931","city":"Briar","state":"MO","lat":36.661,"long":-90.8508},{"zip":"63935","city":"Doniphan","state":"MO","lat":36.6501,"long":-90.8106},{"zip":"63939","city":"Fairdealing","state":"MO","lat":36.6704,"long":-90.6335},{"zip":"63936","city":"Dudley","state":"MO","lat":36.811,"long":-90.121},{"zip":"63934","city":"Clubb","state":"MO","lat":37.1196,"long":-90.445}]
