[{"zip":"63940","city":"Fisk","state":"MO","lat":36.7836,"long":-90.2168},{"zip":"63945","city":"Harviell","state":"MO","lat":36.6723,"long":-90.5583},{"zip":"63941","city":"Fremont","state":"MO","lat":36.9172,"long":-91.144},{"zip":"63943","city":"Grandin","state":"MO","lat":36.828,"long":-90.7942},{"zip":"63942","city":"Gatewood","state":"MO","lat":36.5626,"long":-91.0703},{"zip":"63944","city":"Greenville","state":"MO","lat":37.1108,"long":-90.4514}]
