[{"zip":"64012","city":"Belton","state":"MO","lat":38.8161,"long":-94.5328},{"zip":"64013","city":"Blue Springs","state":"MO","lat":39.017,"long":-94.2816},{"zip":"64014","city":"Blue Springs","state":"MO","lat":39.0152,"long":-94.2604},{"zip":"64015","city":"Blue Springs","state":"MO","lat":39.015,"long":-94.3118},{"zip":"64016","city":"Buckner","state":"MO","lat":39.1303,"long":-94.2062},{"zip":"64019","city":"Centerview","state":"MO","lat":38.7897,"long":-93.8702},{"zip":"64011","city":"Bates City","state":"MO","lat":39.0219,"long":-94.0798},{"zip":"64018","city":"Camden Point","state":"MO","lat":39.4515,"long":-94.7444},{"zip":"64017","city":"Camden","state":"MO","lat":39.2048,"long":-94.0259}]
