[{"zip":"64459","city":"Helena","state":"MO","lat":39.9295,"long":-94.6465},{"zip":"64454","city":"Gower","state":"MO","lat":39.602,"long":-94.5965},{"zip":"64453","city":"Gentry","state":"MO","lat":40.3411,"long":-94.4142},{"zip":"64458","city":"Hatfield","state":"MO","lat":40.5219,"long":-94.1691},{"zip":"64451","city":"Forest City","state":"MO","lat":39.9897,"long":-95.1916},{"zip":"64455","city":"Graham","state":"MO","lat":40.2012,"long":-95.0121},{"zip":"64457","city":"Guilford","state":"MO","lat":40.1746,"long":-94.6951},{"zip":"64456","city":"Grant City","state":"MO","lat":40.4924,"long":-94.3979}]
