[{"zip":"64644","city":"Hamilton","state":"MO","lat":39.7364,"long":-93.9909},{"zip":"64649","city":"Kidder","state":"MO","lat":39.7803,"long":-94.1024},{"zip":"64643","city":"Hale","state":"MO","lat":39.5953,"long":-93.3445},{"zip":"64640","city":"Gallatin","state":"MO","lat":39.9025,"long":-93.9787},{"zip":"64642","city":"Gilman City","state":"MO","lat":40.145,"long":-93.832},{"zip":"64647","city":"Jameson","state":"MO","lat":40.0046,"long":-93.9597},{"zip":"64648","city":"Jamesport","state":"MO","lat":39.9837,"long":-93.78},{"zip":"64641","city":"Galt","state":"MO","lat":40.144,"long":-93.3953},{"zip":"64645","city":"Harris","state":"MO","lat":40.3075,"long":-93.3501},{"zip":"64646","city":"Humphreys","state":"MO","lat":40.1144,"long":-93.3015}]
