[{"zip":"64779","city":"Rich Hill","state":"MO","lat":38.0944,"long":-94.3635},{"zip":"64770","city":"Montrose","state":"MO","lat":38.2597,"long":-93.9952},{"zip":"64776","city":"Osceola","state":"MO","lat":38.0286,"long":-93.7536},{"zip":"64771","city":"Moundville","state":"MO","lat":37.7476,"long":-94.4496},{"zip":"64772","city":"Nevada","state":"MO","lat":37.8409,"long":-94.3571},{"zip":"64778","city":"Richards","state":"MO","lat":37.9061,"long":-94.5592}]
