[{"zip":"65063","city":"New Bloomfield","state":"MO","lat":38.71,"long":-92.083},{"zip":"65067","city":"Portland","state":"MO","lat":38.7109,"long":-91.7177},{"zip":"65065","city":"Osage Beach","state":"MO","lat":38.138,"long":-92.6664},{"zip":"65068","city":"Prairie Home","state":"MO","lat":38.8253,"long":-92.5974},{"zip":"65061","city":"Morrison","state":"MO","lat":38.606,"long":-91.658},{"zip":"65062","city":"Mount Sterling","state":"MO","lat":38.4956,"long":-91.6515},{"zip":"65066","city":"Owensville","state":"MO","lat":38.3511,"long":-91.4867},{"zip":"65064","city":"Olean","state":"MO","lat":38.4109,"long":-92.5294},{"zip":"65069","city":"Rhineland","state":"MO","lat":38.7942,"long":-91.5737}]
