[{"zip":"65348","city":"Otterville","state":"MO","lat":38.7161,"long":-93.0108},{"zip":"65345","city":"Mora","state":"MO","lat":38.5207,"long":-93.2272},{"zip":"65340","city":"Marshall","state":"MO","lat":39.1614,"long":-93.2444},{"zip":"65344","city":"Miami","state":"MO","lat":39.2821,"long":-93.1968},{"zip":"65347","city":"Nelson","state":"MO","lat":39.0104,"long":-93.0311},{"zip":"65349","city":"Slater","state":"MO","lat":39.2163,"long":-93.0547}]
