[{"zip":"65550","city":"Newburg","state":"MO","lat":37.9008,"long":-91.8807},{"zip":"65559","city":"Saint James","state":"MO","lat":38.0056,"long":-91.6076},{"zip":"65556","city":"Richland","state":"MO","lat":37.8528,"long":-92.3962},{"zip":"65552","city":"Plato","state":"MO","lat":37.5122,"long":-92.1709},{"zip":"65555","city":"Raymondville","state":"MO","lat":37.3569,"long":-91.8131},{"zip":"65557","city":"Roby","state":"MO","lat":37.5156,"long":-92.139}]
