[{"zip":"65623","city":"Butterfield","state":"MO","lat":36.749,"long":-93.9064},{"zip":"65625","city":"Cassville","state":"MO","lat":36.6784,"long":-93.8467},{"zip":"65620","city":"Bruner","state":"MO","lat":36.999,"long":-92.9692},{"zip":"65629","city":"Chadwick","state":"MO","lat":36.922,"long":-93.0451},{"zip":"65622","city":"Buffalo","state":"MO","lat":37.6429,"long":-93.0906},{"zip":"65626","city":"Caulfield","state":"MO","lat":36.6035,"long":-92.0678},{"zip":"65624","city":"Cape Fair","state":"MO","lat":36.7311,"long":-93.5674},{"zip":"65627","city":"Cedarcreek","state":"MO","lat":36.571,"long":-93.0172}]
