[{"zip":"65669","city":"Highlandville","state":"MO","lat":36.9408,"long":-93.268},{"zip":"65661","city":"Greenfield","state":"MO","lat":37.4197,"long":-93.8407},{"zip":"65668","city":"Hermitage","state":"MO","lat":37.8969,"long":-93.2979},{"zip":"65664","city":"Halltown","state":"MO","lat":37.1944,"long":-93.6275},{"zip":"65666","city":"Hardenville","state":"MO","lat":36.5892,"long":-92.3713},{"zip":"65663","city":"Half Way","state":"MO","lat":37.6018,"long":-93.242},{"zip":"65660","city":"Graff","state":"MO","lat":37.3262,"long":-92.2647},{"zip":"65662","city":"Grovespring","state":"MO","lat":37.4947,"long":-92.6001},{"zip":"65667","city":"Hartville","state":"MO","lat":37.2735,"long":-92.5181}]
