[{"zip":"65720","city":"Oldfield","state":"MO","lat":36.9404,"long":-92.9528},{"zip":"65721","city":"Ozark","state":"MO","lat":37.0169,"long":-93.2022},{"zip":"65724","city":"Pittsburg","state":"MO","lat":37.8442,"long":-93.3356},{"zip":"65722","city":"Phillipsburg","state":"MO","lat":37.5832,"long":-92.7416},{"zip":"65723","city":"Pierce City","state":"MO","lat":36.973,"long":-94.0024},{"zip":"65729","city":"Pontiac","state":"MO","lat":36.5156,"long":-92.6038},{"zip":"65725","city":"Pleasant Hope","state":"MO","lat":37.4615,"long":-93.2617},{"zip":"65727","city":"Polk","state":"MO","lat":37.7292,"long":-93.2994},{"zip":"65728","city":"Ponce De Leon","state":"MO","lat":36.7471,"long":-93.4586},{"zip":"65726","city":"Point Lookout","state":"MO","lat":36.6165,"long":-93.2418}]
