[{"zip":"65772","city":"Washburn","state":"MO","lat":36.5807,"long":-93.992},{"zip":"65770","city":"Walnut Grove","state":"MO","lat":37.3943,"long":-93.5044},{"zip":"65774","city":"Weaubleau","state":"MO","lat":37.8906,"long":-93.5419},{"zip":"65779","city":"Wheatland","state":"MO","lat":37.9103,"long":-93.3981},{"zip":"65775","city":"West Plains","state":"MO","lat":36.7284,"long":-91.8717},{"zip":"65777","city":"Moody","state":"MO","lat":36.533,"long":-91.9898},{"zip":"65778","city":"Myrtle","state":"MO","lat":36.5217,"long":-91.2706},{"zip":"65773","city":"Wasola","state":"MO","lat":36.7573,"long":-92.5093},{"zip":"65771","city":"Walnut Shade","state":"MO","lat":36.7704,"long":-93.2148}]
