[{"zip":"66023","city":"Effingham","state":"KS","lat":39.5222,"long":-95.4008},{"zip":"66024","city":"Elwood","state":"KS","lat":39.7573,"long":-94.8824},{"zip":"66025","city":"Eudora","state":"KS","lat":38.933,"long":-95.1022},{"zip":"66021","city":"Edgerton","state":"KS","lat":38.7811,"long":-95.0094},{"zip":"66020","city":"Easton","state":"KS","lat":39.3391,"long":-95.0999},{"zip":"66027","city":"Fort Leavenworth","state":"KS","lat":39.3485,"long":-94.9265},{"zip":"66026","city":"Fontana","state":"KS","lat":38.4102,"long":-94.8718}]
