[{"zip":"66716","city":"Bronson","state":"KS","lat":37.9214,"long":-95.0303},{"zip":"66713","city":"Baxter Springs","state":"KS","lat":37.0281,"long":-94.7393},{"zip":"66711","city":"Arcadia","state":"KS","lat":37.6341,"long":-94.6548},{"zip":"66712","city":"Arma","state":"KS","lat":37.5573,"long":-94.6949},{"zip":"66710","city":"Altoona","state":"KS","lat":37.5197,"long":-95.6483},{"zip":"66714","city":"Benedict","state":"KS","lat":37.6118,"long":-95.7038},{"zip":"66717","city":"Buffalo","state":"KS","lat":37.7011,"long":-95.7014}]
