[{"zip":"66751","city":"La Harpe","state":"KS","lat":37.917,"long":-95.2991},{"zip":"66755","city":"Moran","state":"KS","lat":37.9342,"long":-95.1647},{"zip":"66754","city":"Mapleton","state":"KS","lat":38.0228,"long":-94.8735},{"zip":"66753","city":"Mc Cune","state":"KS","lat":37.3468,"long":-95.0376},{"zip":"66756","city":"Mulberry","state":"KS","lat":37.5442,"long":-94.6839},{"zip":"66757","city":"Neodesha","state":"KS","lat":37.4257,"long":-95.6765},{"zip":"66759","city":"New Albany","state":"KS","lat":37.569,"long":-95.9379},{"zip":"66758","city":"Neosho Falls","state":"KS","lat":37.9669,"long":-95.5497}]
