[{"zip":"67154","city":"Whitewater","state":"KS","lat":37.9612,"long":-97.1308},{"zip":"67155","city":"Wilmore","state":"KS","lat":37.3318,"long":-99.1846},{"zip":"67156","city":"Winfield","state":"KS","lat":37.2416,"long":-96.98},{"zip":"67150","city":"Waldron","state":"KS","lat":37.0022,"long":-98.1826},{"zip":"67151","city":"Walton","state":"KS","lat":38.1239,"long":-97.2361},{"zip":"67159","city":"Zenda","state":"KS","lat":37.4373,"long":-98.2874},{"zip":"67152","city":"Wellington","state":"KS","lat":37.2778,"long":-97.391}]
