[{"zip":"67432","city":"Clay Center","state":"KS","lat":39.3844,"long":-97.1278},{"zip":"67431","city":"Chapman","state":"KS","lat":38.9722,"long":-97.017},{"zip":"67439","city":"Ellsworth","state":"KS","lat":38.7312,"long":-98.2057},{"zip":"67438","city":"Durham","state":"KS","lat":38.5038,"long":-97.2555},{"zip":"67430","city":"Cawker City","state":"KS","lat":39.5115,"long":-98.4335},{"zip":"67437","city":"Downs","state":"KS","lat":39.5028,"long":-98.5441},{"zip":"67436","city":"Delphos","state":"KS","lat":39.2731,"long":-97.7717}]
