[{"zip":"67525","city":"Claflin","state":"KS","lat":38.5409,"long":-98.5372},{"zip":"67526","city":"Ellinwood","state":"KS","lat":38.3565,"long":-98.5849},{"zip":"67521","city":"Brownell","state":"KS","lat":38.6239,"long":-99.7328},{"zip":"67523","city":"Burdett","state":"KS","lat":38.2104,"long":-99.5275},{"zip":"67529","city":"Garfield","state":"KS","lat":38.0649,"long":-99.2374},{"zip":"67522","city":"Buhler","state":"KS","lat":38.1309,"long":-97.7691},{"zip":"67524","city":"Chase","state":"KS","lat":38.3635,"long":-98.3556},{"zip":"67520","city":"Bison","state":"KS","lat":38.5193,"long":-99.1986}]
