[{"zip":"67627","city":"Catharine","state":"KS","lat":38.9276,"long":-99.2161},{"zip":"67625","city":"Bogue","state":"KS","lat":39.3782,"long":-99.6788},{"zip":"67622","city":"Almena","state":"KS","lat":39.8891,"long":-99.7042},{"zip":"67629","city":"Clayton","state":"KS","lat":39.7375,"long":-100.1776},{"zip":"67623","city":"Alton","state":"KS","lat":39.4514,"long":-98.9539},{"zip":"67621","city":"Agra","state":"KS","lat":39.8037,"long":-99.1255},{"zip":"67626","city":"Bunker Hill","state":"KS","lat":38.8758,"long":-98.704},{"zip":"67628","city":"Cedar","state":"KS","lat":39.6602,"long":-98.9369}]
