[{"zip":"68366","city":"Greenwood","state":"NE","lat":40.9706,"long":-96.4258},{"zip":"68361","city":"Geneva","state":"NE","lat":40.5277,"long":-97.6096},{"zip":"68365","city":"Grafton","state":"NE","lat":40.6402,"long":-97.7403},{"zip":"68368","city":"Hallam","state":"NE","lat":40.5739,"long":-96.7998},{"zip":"68360","city":"Garland","state":"NE","lat":40.9412,"long":-96.9702},{"zip":"68364","city":"Goehner","state":"NE","lat":40.8322,"long":-97.2212},{"zip":"68362","city":"Gilead","state":"NE","lat":40.147,"long":-97.4271},{"zip":"68367","city":"Gresham","state":"NE","lat":41.021,"long":-97.4079}]
