[{"zip":"68455","city":"Union","state":"NE","lat":40.8245,"long":-95.9037},{"zip":"68452","city":"Ong","state":"NE","lat":40.3968,"long":-97.861},{"zip":"68458","city":"Virginia","state":"NE","lat":40.2309,"long":-96.5121},{"zip":"68450","city":"Tecumseh","state":"NE","lat":40.3697,"long":-96.205},{"zip":"68454","city":"Unadilla","state":"NE","lat":40.6917,"long":-96.2825},{"zip":"68457","city":"Verdon","state":"NE","lat":40.1425,"long":-95.7162},{"zip":"68453","city":"Tobias","state":"NE","lat":40.4262,"long":-97.3184},{"zip":"68456","city":"Utica","state":"NE","lat":40.9168,"long":-97.3344}]
