[{"zip":"68736","city":"Fordyce","state":"NE","lat":42.7309,"long":-97.3567},{"zip":"68739","city":"Hartington","state":"NE","lat":42.6235,"long":-97.2837},{"zip":"68731","city":"Dakota City","state":"NE","lat":42.3807,"long":-96.4536},{"zip":"68733","city":"Emerson","state":"NE","lat":42.2852,"long":-96.7159},{"zip":"68732","city":"Dixon","state":"NE","lat":42.4185,"long":-96.9774},{"zip":"68734","city":"Emmet","state":"NE","lat":42.4747,"long":-98.8238},{"zip":"68735","city":"Ewing","state":"NE","lat":42.1851,"long":-98.3981},{"zip":"68730","city":"Crofton","state":"NE","lat":42.737,"long":-97.5406},{"zip":"68738","city":"Hadar","state":"NE","lat":42.105,"long":-97.4492}]
