[{"zip":"68746","city":"Lynch","state":"NE","lat":42.8373,"long":-98.4504},{"zip":"68745","city":"Laurel","state":"NE","lat":42.427,"long":-97.0874},{"zip":"68749","city":"Magnet","state":"NE","lat":42.455,"long":-97.4701},{"zip":"68741","city":"Hubbard","state":"NE","lat":42.3576,"long":-96.6031},{"zip":"68743","city":"Jackson","state":"NE","lat":42.4529,"long":-96.5743},{"zip":"68742","city":"Inman","state":"NE","lat":42.3761,"long":-98.5384},{"zip":"68748","city":"Madison","state":"NE","lat":41.8308,"long":-97.472},{"zip":"68747","city":"Mclean","state":"NE","lat":42.3921,"long":-97.4751},{"zip":"68740","city":"Hoskins","state":"NE","lat":42.1408,"long":-97.3084}]
