[{"zip":"68761","city":"Oakdale","state":"NE","lat":42.0697,"long":-97.9692},{"zip":"68764","city":"Orchard","state":"NE","lat":42.3399,"long":-98.2409},{"zip":"68763","city":"Oneill","state":"NE","lat":42.4857,"long":-98.6456},{"zip":"68766","city":"Page","state":"NE","lat":42.4119,"long":-98.3964},{"zip":"68760","city":"Niobrara","state":"NE","lat":42.7391,"long":-97.9248},{"zip":"68765","city":"Osmond","state":"NE","lat":42.3539,"long":-97.582},{"zip":"68767","city":"Pierce","state":"NE","lat":42.1943,"long":-97.5256},{"zip":"68769","city":"Plainview","state":"NE","lat":42.3467,"long":-97.7786},{"zip":"68768","city":"Pilger","state":"NE","lat":41.9761,"long":-97.0779}]
