[{"zip":"68812","city":"Amherst","state":"NE","lat":40.8495,"long":-99.2609},{"zip":"68813","city":"Anselmo","state":"NE","lat":41.6208,"long":-99.8644},{"zip":"68814","city":"Ansley","state":"NE","lat":41.3019,"long":-99.3645},{"zip":"68810","city":"Alda","state":"NE","lat":40.8711,"long":-98.4681},{"zip":"68818","city":"Aurora","state":"NE","lat":40.8528,"long":-98.0201},{"zip":"68816","city":"Archer","state":"NE","lat":41.1782,"long":-98.1182},{"zip":"68817","city":"Ashton","state":"NE","lat":41.2672,"long":-98.8034},{"zip":"68815","city":"Arcadia","state":"NE","lat":41.4293,"long":-99.1205}]
