[{"zip":"68821","city":"Brewster","state":"NE","lat":41.9467,"long":-99.8292},{"zip":"68822","city":"Broken Bow","state":"NE","lat":41.4126,"long":-99.6355},{"zip":"68825","city":"Callaway","state":"NE","lat":41.2485,"long":-99.9932},{"zip":"68828","city":"Comstock","state":"NE","lat":41.5606,"long":-99.2504},{"zip":"68823","city":"Burwell","state":"NE","lat":41.808,"long":-99.0995},{"zip":"68824","city":"Cairo","state":"NE","lat":41.0002,"long":-98.6165},{"zip":"68820","city":"Boelus","state":"NE","lat":41.1003,"long":-98.6976},{"zip":"68826","city":"Central City","state":"NE","lat":41.1213,"long":-98.0017},{"zip":"68827","city":"Chapman","state":"NE","lat":40.9856,"long":-98.2217}]
