[{"zip":"68870","city":"Riverdale","state":"NE","lat":40.8524,"long":-99.1611},{"zip":"68876","city":"Shelton","state":"NE","lat":40.7717,"long":-98.7435},{"zip":"68874","city":"Sargent","state":"NE","lat":41.6508,"long":-99.3816},{"zip":"68878","city":"Sumner","state":"NE","lat":40.9504,"long":-99.52},{"zip":"68875","city":"Scotia","state":"NE","lat":41.4837,"long":-98.6893},{"zip":"68872","city":"Saint Libory","state":"NE","lat":41.0867,"long":-98.3589},{"zip":"68873","city":"Saint Paul","state":"NE","lat":41.2242,"long":-98.444},{"zip":"68879","city":"Taylor","state":"NE","lat":41.9141,"long":-99.4543},{"zip":"68871","city":"Rockville","state":"NE","lat":41.1108,"long":-98.8578}]
