[{"zip":"68925","city":"Ayr","state":"NE","lat":40.4411,"long":-98.439},{"zip":"68929","city":"Bloomington","state":"NE","lat":40.1383,"long":-99.0094},{"zip":"68922","city":"Arapahoe","state":"NE","lat":40.3027,"long":-99.8997},{"zip":"68926","city":"Beaver City","state":"NE","lat":40.129,"long":-99.8065},{"zip":"68920","city":"Alma","state":"NE","lat":40.1189,"long":-99.3601},{"zip":"68924","city":"Axtell","state":"NE","lat":40.5269,"long":-99.1169},{"zip":"68923","city":"Atlanta","state":"NE","lat":40.3667,"long":-99.4732},{"zip":"68927","city":"Bertrand","state":"NE","lat":40.5608,"long":-99.5759},{"zip":"68928","city":"Bladen","state":"NE","lat":40.299,"long":-98.6046}]
