[{"zip":"68941","city":"Glenvil","state":"NE","lat":40.4931,"long":-98.2465},{"zip":"68944","city":"Harvard","state":"NE","lat":40.6265,"long":-98.0846},{"zip":"68947","city":"Hildreth","state":"NE","lat":40.3217,"long":-99.0571},{"zip":"68946","city":"Hendley","state":"NE","lat":40.1063,"long":-99.9715},{"zip":"68948","city":"Holbrook","state":"NE","lat":40.3019,"long":-100.0136},{"zip":"68945","city":"Heartwell","state":"NE","lat":40.5716,"long":-98.7851},{"zip":"68943","city":"Hardy","state":"NE","lat":40.0285,"long":-97.9271},{"zip":"68940","city":"Funk","state":"NE","lat":40.502,"long":-99.245},{"zip":"68949","city":"Holdrege","state":"NE","lat":40.4475,"long":-99.3672},{"zip":"68942","city":"Guide Rock","state":"NE","lat":40.0812,"long":-98.3391}]
