[{"zip":"69023","city":"Champion","state":"NE","lat":40.46,"long":-101.7485},{"zip":"69027","city":"Enders","state":"NE","lat":40.4655,"long":-101.5222},{"zip":"69033","city":"Imperial","state":"NE","lat":40.5251,"long":-101.6468},{"zip":"69045","city":"Wauneta","state":"NE","lat":40.4409,"long":-101.3812},{"zip":"69029","city":"Farnam","state":"NE","lat":40.7129,"long":-100.2069},{"zip":"69021","city":"Benkelman","state":"NE","lat":40.098,"long":-101.5344},{"zip":"69030","city":"Haigler","state":"NE","lat":40.0642,"long":-101.9371},{"zip":"69037","city":"Max","state":"NE","lat":40.198,"long":-101.4116},{"zip":"69041","city":"Parks","state":"NE","lat":40.1398,"long":-101.7399},{"zip":"69025","city":"Curtis","state":"NE","lat":40.6131,"long":-100.5104},{"zip":"69028","city":"Eustis","state":"NE","lat":40.6625,"long":-100.0296},{"zip":"69038","city":"Maywood","state":"NE","lat":40.6575,"long":-100.6221},{"zip":"69039","city":"Moorefield","state":"NE","lat":40.5786,"long":-100.3108},{"zip":"69042","city":"Stockville","state":"NE","lat":40.4948,"long":-100.3849},{"zip":"69022","city":"Cambridge","state":"NE","lat":40.2808,"long":-100.1676},{"zip":"69046","city":"Wilsonville","state":"NE","lat":40.1089,"long":-100.1211},{"zip":"69032","city":"Hayes Center","state":"NE","lat":40.5173,"long":-101.0252},{"zip":"69024","city":"Culbertson","state":"NE","lat":40.2237,"long":-100.85},{"zip":"69040","city":"Palisade","state":"NE","lat":40.3387,"long":-101.1295},{"zip":"69043","city":"Stratton","state":"NE","lat":40.1445,"long":-101.2183},{"zip":"69044","city":"Trenton","state":"NE","lat":40.1681,"long":-101.0201},{"zip":"69001","city":"Mc Cook","state":"NE","lat":40.2049,"long":-100.6279},{"zip":"69020","city":"Bartley","state":"NE","lat":40.2581,"long":-100.2908},{"zip":"69026","city":"Danbury","state":"NE","lat":40.0377,"long":-100.4242},{"zip":"69034","city":"Indianola","state":"NE","lat":40.2357,"long":-100.4298},{"zip":"69036","city":"Lebanon","state":"NE","lat":40.0506,"long":-100.2763}]
