[{"zip":"69337","city":"Chadron","state":"NE","lat":42.8193,"long":-102.9953},{"zip":"69339","city":"Crawford","state":"NE","lat":42.6758,"long":-103.4053},{"zip":"69333","city":"Ashby","state":"NE","lat":41.9776,"long":-101.9636},{"zip":"69331","city":"Angora","state":"NE","lat":41.8934,"long":-103.085},{"zip":"69334","city":"Bayard","state":"NE","lat":41.7579,"long":-103.3019},{"zip":"69336","city":"Bridgeport","state":"NE","lat":41.6766,"long":-103.0701},{"zip":"69335","city":"Bingham","state":"NE","lat":42.0211,"long":-102.0885}]
