[{"zip":"72003","city":"Almyra","state":"AR","lat":34.4146,"long":-91.431},{"zip":"72026","city":"Casscoe","state":"AR","lat":34.5095,"long":-91.299},{"zip":"72038","city":"Crocketts Bluff","state":"AR","lat":34.4528,"long":-91.2692},{"zip":"72042","city":"De Witt","state":"AR","lat":34.2853,"long":-91.3336},{"zip":"72048","city":"Ethel","state":"AR","lat":34.2435,"long":-91.1398},{"zip":"72055","city":"Gillett","state":"AR","lat":34.1218,"long":-91.38},{"zip":"72073","city":"Humphrey","state":"AR","lat":34.4034,"long":-91.679},{"zip":"72140","city":"Saint Charles","state":"AR","lat":34.3878,"long":-91.1463},{"zip":"72160","city":"Stuttgart","state":"AR","lat":34.4854,"long":-91.5487},{"zip":"72166","city":"Tichnor","state":"AR","lat":34.0893,"long":-91.2437},{"zip":"71635","city":"Crossett","state":"AR","lat":33.156,"long":-91.9975},{"zip":"71642","city":"Fountain Hill","state":"AR","lat":33.3631,"long":-91.9088},{"zip":"71646","city":"Hamburg","state":"AR","lat":33.2058,"long":-91.8023},{"zip":"71658","city":"Montrose","state":"AR","lat":33.3075,"long":-91.5228},{"zip":"71661","city":"Parkdale","state":"AR","lat":33.1213,"long":-91.5428},{"zip":"71663","city":"Portland","state":"AR","lat":33.2318,"long":-91.5139},{"zip":"71676","city":"Wilmot","state":"AR","lat":33.0576,"long":-91.5723},{"zip":"72537","city":"Gamaliel","state":"AR","lat":36.4618,"long":-92.2284},{"zip":"72544","city":"Henderson","state":"AR","lat":36.4105,"long":-92.1951},{"zip":"72617","city":"Big Flat","state":"AR","lat":36.0068,"long":-92.3917},{"zip":"72623","city":"Clarkridge","state":"AR","lat":36.4724,"long":-92.3296},{"zip":"72626","city":"Cotter","state":"AR","lat":36.2712,"long":-92.5354},{"zip":"72635","city":"Gassville","state":"AR","lat":36.3175,"long":-92.4736},{"zip":"72642","city":"Lakeview","state":"AR","lat":36.373,"long":-92.5422},{"zip":"72651","city":"Midway","state":"AR","lat":36.3933,"long":-92.4881},{"zip":"72653","city":"Mountain Home","state":"AR","lat":36.3312,"long":-92.3753},{"zip":"72654","city":"Mountain Home","state":"AR","lat":36.3353,"long":-92.3852},{"zip":"72658","city":"Norfork","state":"AR","lat":36.2066,"long":-92.273},{"zip":"72659","city":"Norfork","state":"AR","lat":36.2095,"long":-92.2843},{"zip":"72711","city":"Avoca","state":"AR","lat":36.4047,"long":-94.0713},{"zip":"72712","city":"Bentonville","state":"AR","lat":36.3577,"long":-94.2224},{"zip":"72714","city":"Bella Vista","state":"AR","lat":36.4676,"long":-94.2166},{"zip":"72715","city":"Bella Vista","state":"AR","lat":36.4677,"long":-94.3209},{"zip":"72716","city":"Bentonville","state":"AR","lat":36.3729,"long":-94.2088},{"zip":"72718","city":"Cave Springs","state":"AR","lat":36.2738,"long":-94.2183},{"zip":"72719","city":"Centerton","state":"AR","lat":36.367,"long":-94.3089},{"zip":"72722","city":"Decatur","state":"AR","lat":36.3347,"long":-94.4534},{"zip":"72732","city":"Garfield","state":"AR","lat":36.4288,"long":-93.9512},{"zip":"72733","city":"Gateway","state":"AR","lat":36.4864,"long":-93.9277},{"zip":"72734","city":"Gentry","state":"AR","lat":36.2652,"long":-94.4751},{"zip":"72736","city":"Gravette","state":"AR","lat":36.4155,"long":-94.4779},{"zip":"72739","city":"Hiwasse","state":"AR","lat":36.4416,"long":-94.339},{"zip":"72745","city":"Lowell","state":"AR","lat":36.2554,"long":-94.1308},{"zip":"72747","city":"Maysville","state":"AR","lat":36.3811,"long":-94.5783},{"zip":"72751","city":"Pea Ridge","state":"AR","lat":36.4539,"long":-94.118},{"zip":"72756","city":"Rogers","state":"AR","lat":36.3363,"long":-94.1148},{"zip":"72757","city":"Rogers","state":"AR","lat":36.332,"long":-94.1185},{"zip":"72758","city":"Rogers","state":"AR","lat":36.3169,"long":-94.1545},{"zip":"72761","city":"Siloam Springs","state":"AR","lat":36.18,"long":-94.528},{"zip":"72768","city":"Sulphur Springs","state":"AR","lat":36.4794,"long":-94.4521},{"zip":"72260","city":"Little Rock","state":"AR","lat":34.7399,"long":-92.34},{"zip":"72601","city":"Harrison","state":"AR","lat":36.2417,"long":-93.1062},{"zip":"72602","city":"Harrison","state":"AR","lat":36.2298,"long":-93.1077},{"zip":"72611","city":"Alpena","state":"AR","lat":36.2998,"long":-93.2792},{"zip":"72615","city":"Bergman","state":"AR","lat":36.3083,"long":-93.0321},{"zip":"72630","city":"Diamond City","state":"AR","lat":36.4645,"long":-92.9202},{"zip":"72633","city":"Everton","state":"AR","lat":36.1534,"long":-92.915},{"zip":"72644","city":"Lead Hill","state":"AR","lat":36.3848,"long":-93.0039},{"zip":"72662","city":"Omaha","state":"AR","lat":36.4612,"long":-93.1888},{"zip":"72682","city":"Valley Springs","state":"AR","lat":36.1351,"long":-92.7541},{"zip":"71631","city":"Banks","state":"AR","lat":33.5497,"long":-92.2604},{"zip":"71647","city":"Hermitage","state":"AR","lat":33.39,"long":-92.156},{"zip":"71651","city":"Jersey","state":"AR","lat":33.3889,"long":-92.2966},{"zip":"71671","city":"Warren","state":"AR","lat":33.614,"long":-92.0778},{"zip":"71744","city":"Hampton","state":"AR","lat":33.5376,"long":-92.5295},{"zip":"71745","city":"Harrell","state":"AR","lat":33.5101,"long":-92.3988},{"zip":"71766","city":"Thornton","state":"AR","lat":33.7768,"long":-92.4862},{"zip":"72613","city":"Beaver","state":"AR","lat":36.4311,"long":-93.6994},{"zip":"72616","city":"Berryville","state":"AR","lat":36.3519,"long":-93.5587},{"zip":"72631","city":"Eureka Springs","state":"AR","lat":36.435,"long":-93.7673},{"zip":"72632","city":"Eureka Springs","state":"AR","lat":36.4175,"long":-93.7379},{"zip":"72638","city":"Green Forest","state":"AR","lat":36.3224,"long":-93.4059},{"zip":"72660","city":"Oak Grove","state":"AR","lat":36.4613,"long":-93.4321},{"zip":"71638","city":"Dermott","state":"AR","lat":33.5241,"long":-91.4394},{"zip":"71640","city":"Eudora","state":"AR","lat":33.1213,"long":-91.2716},{"zip":"71653","city":"Lake Village","state":"AR","lat":33.3274,"long":-91.2825},{"zip":"71721","city":"Beirne","state":"AR","lat":33.8887,"long":-93.2041},{"zip":"71728","city":"Curtis","state":"AR","lat":34.0103,"long":-93.0976},{"zip":"71743","city":"Gurdon","state":"AR","lat":33.9125,"long":-93.1417},{"zip":"71772","city":"Whelen Springs","state":"AR","lat":33.8309,"long":-93.1263},{"zip":"71920","city":"Alpine","state":"AR","lat":34.229,"long":-93.3791},{"zip":"71921","city":"Amity","state":"AR","lat":34.2594,"long":-93.4206},{"zip":"71923","city":"Arkadelphia","state":"AR","lat":34.1153,"long":-93.069},{"zip":"71962","city":"Okolona","state":"AR","lat":34.0551,"long":-93.2897},{"zip":"71998","city":"Arkadelphia","state":"AR","lat":34.0555,"long":-93.1894},{"zip":"71999","city":"Arkadelphia","state":"AR","lat":34.0555,"long":-93.1894},{"zip":"72422","city":"Corning","state":"AR","lat":36.4155,"long":-90.587},{"zip":"72424","city":"Datto","state":"AR","lat":36.3897,"long":-90.7231},{"zip":"72430","city":"Greenway","state":"AR","lat":36.3348,"long":-90.2253},{"zip":"72435","city":"Knobel","state":"AR","lat":36.3176,"long":-90.599},{"zip":"72441","city":"Mc Dougal","state":"AR","lat":36.437,"long":-90.3837},{"zip":"72453","city":"Peach Orchard","state":"AR","lat":36.283,"long":-90.6702},{"zip":"72454","city":"Piggott","state":"AR","lat":36.387,"long":-90.1926},{"zip":"72456","city":"Pollard","state":"AR","lat":36.4317,"long":-90.2751},{"zip":"72461","city":"Rector","state":"AR","lat":36.2672,"long":-90.2702},{"zip":"72464","city":"Saint Francis","state":"AR","lat":36.4534,"long":-90.1454},{"zip":"72470","city":"Success","state":"AR","lat":36.4536,"long":-90.7281},{"zip":"72044","city":"Edgemont","state":"AR","lat":35.6321,"long":-92.157},{"zip":"72067","city":"Higden","state":"AR","lat":35.5685,"long":-92.1341},{"zip":"72130","city":"Prim","state":"AR","lat":35.6674,"long":-92.0933},{"zip":"72131","city":"Quitman","state":"AR","lat":35.405,"long":-92.1333},{"zip":"72179","city":"Wilburn","state":"AR","lat":35.5106,"long":-91.8648},{"zip":"72523","city":"Concord","state":"AR","lat":35.6414,"long":-91.8333},{"zip":"72530","city":"Drasco","state":"AR","lat":35.6616,"long":-91.9398},{"zip":"72543","city":"Heber Springs","state":"AR","lat":35.5103,"long":-92.0392},{"zip":"72545","city":"Heber Springs","state":"AR","lat":35.5352,"long":-92.0213},{"zip":"72546","city":"Ida","state":"AR","lat":35.5816,"long":-91.9305},{"zip":"72581","city":"Tumbling Shoals","state":"AR","lat":35.547,"long":-91.9704},{"zip":"71652","city":"Kingsland","state":"AR","lat":33.86,"long":-92.3014},{"zip":"71660","city":"New Edinburg","state":"AR","lat":33.7588,"long":-92.1939},{"zip":"71665","city":"Rison","state":"AR","lat":33.9453,"long":-92.1188},{"zip":"71740","city":"Emerson","state":"AR","lat":33.0891,"long":-93.1987},{"zip":"71752","city":"Mc Neil","state":"AR","lat":33.3622,"long":-93.193},{"zip":"71753","city":"Magnolia","state":"AR","lat":33.2647,"long":-93.2392},{"zip":"71754","city":"Magnolia","state":"AR","lat":33.2426,"long":-93.23},{"zip":"71770","city":"Waldo","state":"AR","lat":33.36,"long":-93.2949},{"zip":"71861","city":"Taylor","state":"AR","lat":33.108,"long":-93.446},{"zip":"72027","city":"Center Ridge","state":"AR","lat":35.3981,"long":-92.5582},{"zip":"72030","city":"Cleveland","state":"AR","lat":35.3955,"long":-92.702},{"zip":"72063","city":"Hattieville","state":"AR","lat":35.2907,"long":-92.7783},{"zip":"72080","city":"Jerusalem","state":"AR","lat":35.5699,"long":-92.8251},{"zip":"72107","city":"Menifee","state":"AR","lat":35.1356,"long":-92.5498},{"zip":"72110","city":"Morrilton","state":"AR","lat":35.1692,"long":-92.7354},{"zip":"72127","city":"Plumerville","state":"AR","lat":35.1575,"long":-92.6204},{"zip":"72156","city":"Solgohachia","state":"AR","lat":35.2701,"long":-92.6754},{"zip":"72157","city":"Springfield","state":"AR","lat":35.2749,"long":-92.5457},{"zip":"72401","city":"Jonesboro","state":"AR","lat":35.833,"long":-90.6965},{"zip":"72402","city":"Jonesboro","state":"AR","lat":35.8088,"long":-90.6529},{"zip":"72403","city":"Jonesboro","state":"AR","lat":35.8305,"long":-90.7039},{"zip":"72404","city":"Jonesboro","state":"AR","lat":35.7792,"long":-90.766},{"zip":"72411","city":"Bay","state":"AR","lat":35.7456,"long":-90.5507},{"zip":"72414","city":"Black Oak","state":"AR","lat":35.8368,"long":-90.4005},{"zip":"72416","city":"Bono","state":"AR","lat":35.9086,"long":-90.7848},{"zip":"72417","city":"Brookland","state":"AR","lat":35.9165,"long":-90.5762},{"zip":"72419","city":"Caraway","state":"AR","lat":35.759,"long":-90.3358},{"zip":"72421","city":"Cash","state":"AR","lat":35.8301,"long":-90.941},{"zip":"72427","city":"Egypt","state":"AR","lat":35.864,"long":-90.9428},{"zip":"72437","city":"Lake City","state":"AR","lat":35.8171,"long":-90.4423},{"zip":"72447","city":"Monette","state":"AR","lat":35.9002,"long":-90.3437},{"zip":"72467","city":"State University","state":"AR","lat":35.8422,"long":-90.6735},{"zip":"72921","city":"Alma","state":"AR","lat":35.5,"long":-94.2073},{"zip":"72932","city":"Cedarville","state":"AR","lat":35.603,"long":-94.3749},{"zip":"72934","city":"Chester","state":"AR","lat":35.6898,"long":-94.202},{"zip":"72935","city":"Dyer","state":"AR","lat":35.4923,"long":-94.1377},{"zip":"72946","city":"Mountainburg","state":"AR","lat":35.6464,"long":-94.1497},{"zip":"72947","city":"Mulberry","state":"AR","lat":35.5172,"long":-93.9885},{"zip":"72948","city":"Natural Dam","state":"AR","lat":35.6743,"long":-94.4124},{"zip":"72952","city":"Rudy","state":"AR","lat":35.5468,"long":-94.2913},{"zip":"72955","city":"Uniontown","state":"AR","lat":35.5748,"long":-94.4349},{"zip":"72956","city":"Van Buren","state":"AR","lat":35.454,"long":-94.3278},{"zip":"72957","city":"Van Buren","state":"AR","lat":35.4368,"long":-94.3483},{"zip":"72301","city":"West Memphis","state":"AR","lat":35.1484,"long":-90.1779},{"zip":"72303","city":"West Memphis","state":"AR","lat":35.1465,"long":-90.1845},{"zip":"72325","city":"Clarkedale","state":"AR","lat":35.3093,"long":-90.2362},{"zip":"72327","city":"Crawfordsville","state":"AR","lat":35.2119,"long":-90.3351},{"zip":"72331","city":"Earle","state":"AR","lat":35.2799,"long":-90.4503},{"zip":"72332","city":"Edmondson","state":"AR","lat":35.1042,"long":-90.3133},{"zip":"72339","city":"Gilmore","state":"AR","lat":35.4057,"long":-90.2714},{"zip":"72364","city":"Marion","state":"AR","lat":35.2077,"long":-90.1989},{"zip":"72376","city":"Proctor","state":"AR","lat":35.0834,"long":-90.255},{"zip":"72384","city":"Turrell","state":"AR","lat":35.3439,"long":-90.2978},{"zip":"72324","city":"Cherry Valley","state":"AR","lat":35.3991,"long":-90.7613},{"zip":"72347","city":"Hickory Ridge","state":"AR","lat":35.3995,"long":-90.9823},{"zip":"72373","city":"Parkin","state":"AR","lat":35.2586,"long":-90.5564},{"zip":"72387","city":"Vanndale","state":"AR","lat":35.3245,"long":-90.7712},{"zip":"72396","city":"Wynne","state":"AR","lat":35.233,"long":-90.793},{"zip":"71725","city":"Carthage","state":"AR","lat":34.0751,"long":-92.5554},{"zip":"71742","city":"Fordyce","state":"AR","lat":33.8176,"long":-92.4225},{"zip":"71748","city":"Ivan","state":"AR","lat":33.9118,"long":-92.4246},{"zip":"71763","city":"Sparkman","state":"AR","lat":33.9143,"long":-92.8532},{"zip":"71630","city":"Arkansas City","state":"AR","lat":33.6143,"long":-91.2325},{"zip":"71639","city":"Dumas","state":"AR","lat":33.8921,"long":-91.4861},{"zip":"71654","city":"Mc Gehee","state":"AR","lat":33.6297,"long":-91.3928},{"zip":"71662","city":"Pickens","state":"AR","lat":33.842,"long":-91.5022},{"zip":"71666","city":"Rohwer","state":"AR","lat":33.7609,"long":-91.2757},{"zip":"71670","city":"Tillar","state":"AR","lat":33.6981,"long":-91.4433},{"zip":"71674","city":"Watson","state":"AR","lat":33.8907,"long":-91.2815},{"zip":"72379","city":"Snow Lake","state":"AR","lat":34.0665,"long":-91.0071},{"zip":"71655","city":"Monticello","state":"AR","lat":33.625,"long":-91.7948},{"zip":"71656","city":"Monticello","state":"AR","lat":33.629,"long":-91.791},{"zip":"71657","city":"Monticello","state":"AR","lat":33.629,"long":-91.791},{"zip":"71675","city":"Wilmar","state":"AR","lat":33.6213,"long":-91.9257},{"zip":"71677","city":"Winchester","state":"AR","lat":33.7471,"long":-91.4649},{"zip":"72032","city":"Conway","state":"AR","lat":35.0842,"long":-92.4236},{"zip":"72033","city":"Conway","state":"AR","lat":35.1053,"long":-92.3549},{"zip":"72034","city":"Conway","state":"AR","lat":35.0823,"long":-92.4683},{"zip":"72035","city":"Conway","state":"AR","lat":35.1053,"long":-92.3549},{"zip":"72039","city":"Damascus","state":"AR","lat":35.3673,"long":-92.4096},{"zip":"72047","city":"Enola","state":"AR","lat":35.2087,"long":-92.2123},{"zip":"72058","city":"Greenbrier","state":"AR","lat":35.2295,"long":-92.3578},{"zip":"72061","city":"Guy","state":"AR","lat":35.3239,"long":-92.2878},{"zip":"72106","city":"Mayflower","state":"AR","lat":34.9669,"long":-92.4001},{"zip":"72111","city":"Mount Vernon","state":"AR","lat":35.2265,"long":-92.124},{"zip":"72173","city":"Vilonia","state":"AR","lat":35.0719,"long":-92.1832},{"zip":"72181","city":"Wooster","state":"AR","lat":35.1645,"long":-92.453},{"zip":"72820","city":"Alix","state":"AR","lat":35.41,"long":-93.7286},{"zip":"72821","city":"Altus","state":"AR","lat":35.4346,"long":-93.7598},{"zip":"72928","city":"Branch","state":"AR","lat":35.2971,"long":-93.9454},{"zip":"72930","city":"Cecil","state":"AR","lat":35.4252,"long":-94.0409},{"zip":"72933","city":"Charleston","state":"AR","lat":35.3115,"long":-94.0337},{"zip":"72949","city":"Ozark","state":"AR","lat":35.5246,"long":-93.8374},{"zip":"72515","city":"Bexar","state":"AR","lat":36.2901,"long":-92.055},{"zip":"72520","city":"Camp","state":"AR","lat":36.4025,"long":-91.7262},{"zip":"72531","city":"Elizabeth","state":"AR","lat":36.3238,"long":-92.0934},{"zip":"72538","city":"Gepp","state":"AR","lat":36.4364,"long":-92.0995},{"zip":"72539","city":"Glencoe","state":"AR","lat":36.2942,"long":-91.7474},{"zip":"72554","city":"Mammoth Spring","state":"AR","lat":36.4076,"long":-91.5757},{"zip":"72576","city":"Salem","state":"AR","lat":36.3766,"long":-91.8759},{"zip":"72578","city":"Sturkie","state":"AR","lat":36.4747,"long":-91.8891},{"zip":"72583","city":"Viola","state":"AR","lat":36.3924,"long":-91.9932},{"zip":"71901","city":"Hot Springs National Park","state":"AR","lat":34.5268,"long":-92.9587},{"zip":"71902","city":"Hot Springs National Park","state":"AR","lat":34.5814,"long":-93.0994},{"zip":"71903","city":"Hot Springs National Park","state":"AR","lat":34.5814,"long":-93.0994},{"zip":"71909","city":"Hot Springs Village","state":"AR","lat":34.6484,"long":-92.983},{"zip":"71910","city":"Hot Springs Village","state":"AR","lat":34.672,"long":-92.9988},{"zip":"71913","city":"Hot Springs National Park","state":"AR","lat":34.4689,"long":-93.043},{"zip":"71914","city":"Hot Springs National Park","state":"AR","lat":34.5137,"long":-92.9685},{"zip":"71949","city":"Jessieville","state":"AR","lat":34.7094,"long":-93.0382},{"zip":"71956","city":"Mountain Pine","state":"AR","lat":34.5976,"long":-93.1539},{"zip":"71964","city":"Pearcy","state":"AR","lat":34.4351,"long":-93.242},{"zip":"71968","city":"Royal","state":"AR","lat":34.515,"long":-93.2897},{"zip":"72087","city":"Lonsdale","state":"AR","lat":34.5562,"long":-92.834},{"zip":"72057","city":"Grapevine","state":"AR","lat":34.1309,"long":-92.3109},{"zip":"72084","city":"Leola","state":"AR","lat":34.1856,"long":-92.5979},{"zip":"72128","city":"Poyen","state":"AR","lat":34.3023,"long":-92.6095},{"zip":"72129","city":"Prattsville","state":"AR","lat":34.3079,"long":-92.5131},{"zip":"72150","city":"Sheridan","state":"AR","lat":34.3165,"long":-92.3657},{"zip":"72412","city":"Beech Grove","state":"AR","lat":36.1281,"long":-90.6914},{"zip":"72425","city":"Delaplaine","state":"AR","lat":36.1995,"long":-90.7345},{"zip":"72436","city":"Lafe","state":"AR","lat":36.2359,"long":-90.4811},{"zip":"72443","city":"Marmaduke","state":"AR","lat":36.1951,"long":-90.3837},{"zip":"72450","city":"Paragould","state":"AR","lat":36.06,"long":-90.5251},{"zip":"72451","city":"Paragould","state":"AR","lat":36.0584,"long":-90.4973},{"zip":"72474","city":"Walcott","state":"AR","lat":36.0413,"long":-90.6718},{"zip":"71801","city":"Hope","state":"AR","lat":33.6736,"long":-93.6068},{"zip":"71802","city":"Hope","state":"AR","lat":33.6671,"long":-93.5916},{"zip":"71825","city":"Blevins","state":"AR","lat":33.8718,"long":-93.5771},{"zip":"71831","city":"Columbus","state":"AR","lat":33.7935,"long":-93.807},{"zip":"71838","city":"Fulton","state":"AR","lat":33.6299,"long":-93.8086},{"zip":"71847","city":"Mc Caskill","state":"AR","lat":33.923,"long":-93.6266},{"zip":"71855","city":"Ozan","state":"AR","lat":33.9028,"long":-93.7714},{"zip":"71862","city":"Washington","state":"AR","lat":33.7546,"long":-93.6735},{"zip":"71929","city":"Bismarck","state":"AR","lat":34.311,"long":-93.1872},{"zip":"71933","city":"Bonnerdale","state":"AR","lat":34.3498,"long":-93.3194},{"zip":"71941","city":"Donaldson","state":"AR","lat":34.2212,"long":-92.9094},{"zip":"71942","city":"Friendship","state":"AR","lat":34.2235,"long":-93.0024},{"zip":"72019","city":"Benton","state":"AR","lat":34.604,"long":-92.6259},{"zip":"72104","city":"Malvern","state":"AR","lat":34.3557,"long":-92.8292},{"zip":"72105","city":"Jones Mill","state":"AR","lat":34.4374,"long":-92.8943},{"zip":"71833","city":"Dierks","state":"AR","lat":34.1323,"long":-94.0152},{"zip":"71851","city":"Mineral Springs","state":"AR","lat":33.8639,"long":-93.9188},{"zip":"71852","city":"Nashville","state":"AR","lat":33.9576,"long":-93.8707},{"zip":"71859","city":"Saratoga","state":"AR","lat":33.7599,"long":-93.8767},{"zip":"71971","city":"Umpire","state":"AR","lat":34.2921,"long":-94.0314},{"zip":"72165","city":"Thida","state":"AR","lat":35.5762,"long":-91.4539},{"zip":"72501","city":"Batesville","state":"AR","lat":35.7826,"long":-91.6352},{"zip":"72503","city":"Batesville","state":"AR","lat":35.7346,"long":-91.5343},{"zip":"72522","city":"Charlotte","state":"AR","lat":35.8184,"long":-91.4387},{"zip":"72524","city":"Cord","state":"AR","lat":35.8184,"long":-91.3375},{"zip":"72526","city":"Cushman","state":"AR","lat":35.8729,"long":-91.754},{"zip":"72527","city":"Desha","state":"AR","lat":35.7411,"long":-91.6985},{"zip":"72534","city":"Floral","state":"AR","lat":35.6023,"long":-91.7341},{"zip":"72550","city":"Locust Grove","state":"AR","lat":35.7177,"long":-91.7414},{"zip":"72553","city":"Magness","state":"AR","lat":35.6941,"long":-91.4753},{"zip":"72562","city":"Newark","state":"AR","lat":35.7118,"long":-91.4394},{"zip":"72564","city":"Oil Trough","state":"AR","lat":35.6131,"long":-91.4703},{"zip":"72568","city":"Pleasant Plains","state":"AR","lat":35.5893,"long":-91.632},{"zip":"72571","city":"Rosie","state":"AR","lat":35.6638,"long":-91.534},{"zip":"72575","city":"Salado","state":"AR","lat":35.6919,"long":-91.5989},{"zip":"72579","city":"Sulphur Rock","state":"AR","lat":35.7545,"long":-91.5073},{"zip":"72512","city":"Horseshoe Bend","state":"AR","lat":36.2025,"long":-91.7553},{"zip":"72517","city":"Brockwell","state":"AR","lat":36.1358,"long":-91.9513},{"zip":"72519","city":"Calico Rock","state":"AR","lat":36.1202,"long":-92.1867},{"zip":"72528","city":"Dolph","state":"AR","lat":36.2229,"long":-92.1177},{"zip":"72536","city":"Franklin","state":"AR","lat":36.1703,"long":-91.776},{"zip":"72540","city":"Guion","state":"AR","lat":35.9266,"long":-91.9103},{"zip":"72556","city":"Melbourne","state":"AR","lat":36.0635,"long":-91.9079},{"zip":"72561","city":"Mount Pleasant","state":"AR","lat":35.9759,"long":-91.785},{"zip":"72565","city":"Oxford","state":"AR","lat":36.2114,"long":-91.9258},{"zip":"72566","city":"Pineville","state":"AR","lat":36.1677,"long":-92.1073},{"zip":"72573","city":"Sage","state":"AR","lat":36.0688,"long":-91.791},{"zip":"72584","city":"Violet Hill","state":"AR","lat":36.163,"long":-91.8471},{"zip":"72585","city":"Wideman","state":"AR","lat":36.1865,"long":-92.0088},{"zip":"72587","city":"Wiseman","state":"AR","lat":36.2345,"long":-91.8154},{"zip":"72005","city":"Amagon","state":"AR","lat":35.562,"long":-91.1104},{"zip":"72014","city":"Beedeville","state":"AR","lat":35.4291,"long":-91.1057},{"zip":"72043","city":"Diaz","state":"AR","lat":35.6336,"long":-91.2592},{"zip":"72075","city":"Jacksonport","state":"AR","lat":35.6414,"long":-91.3072},{"zip":"72112","city":"Newport","state":"AR","lat":35.5988,"long":-91.2571},{"zip":"72169","city":"Tupelo","state":"AR","lat":35.3844,"long":-91.2232},{"zip":"72431","city":"Grubbs","state":"AR","lat":35.6498,"long":-91.074},{"zip":"72471","city":"Swifton","state":"AR","lat":35.8274,"long":-91.1264},{"zip":"72473","city":"Tuckerman","state":"AR","lat":35.7307,"long":-91.2003},{"zip":"71601","city":"Pine Bluff","state":"AR","lat":34.209,"long":-91.9859},{"zip":"71602","city":"White Hall","state":"AR","lat":34.274,"long":-92.091},{"zip":"71603","city":"Pine Bluff","state":"AR","lat":34.1897,"long":-92.0448},{"zip":"71611","city":"Pine Bluff","state":"AR","lat":34.2615,"long":-91.9551},{"zip":"71612","city":"White Hall","state":"AR","lat":34.274,"long":-92.091},{"zip":"71613","city":"Pine Bluff","state":"AR","lat":34.1579,"long":-92.0713},{"zip":"71659","city":"Moscow","state":"AR","lat":34.1537,"long":-91.8112},{"zip":"72004","city":"Altheimer","state":"AR","lat":34.3062,"long":-91.8289},{"zip":"72079","city":"Jefferson","state":"AR","lat":34.3934,"long":-92.2029},{"zip":"72132","city":"Redfield","state":"AR","lat":34.4526,"long":-92.1758},{"zip":"72133","city":"Reydell","state":"AR","lat":34.1715,"long":-91.5656},{"zip":"72152","city":"Sherrill","state":"AR","lat":34.3581,"long":-91.9933},{"zip":"72168","city":"Tucker","state":"AR","lat":34.4414,"long":-91.9163},{"zip":"72175","city":"Wabbaseka","state":"AR","lat":34.3936,"long":-91.7549},{"zip":"72182","city":"Wright","state":"AR","lat":34.4291,"long":-92.0599},{"zip":"72830","city":"Clarksville","state":"AR","lat":35.4908,"long":-93.4911},{"zip":"72832","city":"Coal Hill","state":"AR","lat":35.4371,"long":-93.672},{"zip":"72839","city":"Hagarville","state":"AR","lat":35.6155,"long":-93.2726},{"zip":"72840","city":"Hartman","state":"AR","lat":35.4436,"long":-93.6142},{"zip":"72845","city":"Knoxville","state":"AR","lat":35.3749,"long":-93.3618},{"zip":"72846","city":"Lamar","state":"AR","lat":35.4349,"long":-93.3552},{"zip":"72852","city":"Oark","state":"AR","lat":35.7095,"long":-93.5585},{"zip":"72854","city":"Ozone","state":"AR","lat":35.6575,"long":-93.4311},{"zip":"71826","city":"Bradley","state":"AR","lat":33.107,"long":-93.6275},{"zip":"71827","city":"Buckner","state":"AR","lat":33.3753,"long":-93.447},{"zip":"71839","city":"Garland City","state":"AR","lat":33.3352,"long":-93.7316},{"zip":"71845","city":"Lewisville","state":"AR","lat":33.3736,"long":-93.5953},{"zip":"71860","city":"Stamps","state":"AR","lat":33.3569,"long":-93.5013},{"zip":"72410","city":"Alicia","state":"AR","lat":35.9423,"long":-91.081},{"zip":"72415","city":"Black Rock","state":"AR","lat":36.1149,"long":-91.1176},{"zip":"72433","city":"Hoxie","state":"AR","lat":36.0326,"long":-90.9715},{"zip":"72434","city":"Imboden","state":"AR","lat":36.1976,"long":-91.1854},{"zip":"72440","city":"Lynn","state":"AR","lat":35.9813,"long":-91.2676},{"zip":"72445","city":"Minturn","state":"AR","lat":35.9728,"long":-91.0235},{"zip":"72457","city":"Portia","state":"AR","lat":36.0865,"long":-91.0673},{"zip":"72458","city":"Powhatan","state":"AR","lat":36.08,"long":-91.1482},{"zip":"72459","city":"Ravenden","state":"AR","lat":36.2029,"long":-91.2593},{"zip":"72465","city":"Sedgwick","state":"AR","lat":35.9643,"long":-90.8954},{"zip":"72466","city":"Smithville","state":"AR","lat":36.0908,"long":-91.2745},{"zip":"72469","city":"Strawberry","state":"AR","lat":35.9673,"long":-91.2935},{"zip":"72476","city":"Walnut Ridge","state":"AR","lat":36.0244,"long":-90.9288},{"zip":"72572","city":"Saffell","state":"AR","lat":35.8781,"long":-91.3004},{"zip":"72311","city":"Aubrey","state":"AR","lat":34.7195,"long":-90.8969},{"zip":"72320","city":"Brickeys","state":"AR","lat":34.8548,"long":-90.5377},{"zip":"72341","city":"Haynes","state":"AR","lat":34.8838,"long":-90.7666},{"zip":"72352","city":"La Grange","state":"AR","lat":34.7697,"long":-90.7552},{"zip":"72360","city":"Marianna","state":"AR","lat":34.7759,"long":-90.7785},{"zip":"72368","city":"Moro","state":"AR","lat":34.803,"long":-91.006},{"zip":"71643","city":"Gould","state":"AR","lat":34.0345,"long":-91.5768},{"zip":"71644","city":"Grady","state":"AR","lat":34.1032,"long":-91.7057},{"zip":"71667","city":"Star City","state":"AR","lat":33.9405,"long":-91.8653},{"zip":"71678","city":"Yorktown","state":"AR","lat":33.9787,"long":-91.6991},{"zip":"71820","city":"Alleene","state":"AR","lat":33.7944,"long":-94.2681},{"zip":"71822","city":"Ashdown","state":"AR","lat":33.6787,"long":-94.1351},{"zip":"71836","city":"Foreman","state":"AR","lat":33.7176,"long":-94.3881},{"zip":"71853","city":"Ogden","state":"AR","lat":33.5826,"long":-94.0427},{"zip":"71865","city":"Wilton","state":"AR","lat":33.7475,"long":-94.1518},{"zip":"71866","city":"Winthrop","state":"AR","lat":33.8583,"long":-94.3952},{"zip":"72826","city":"Blue Mountain","state":"AR","lat":35.1602,"long":-93.6183},{"zip":"72835","city":"Delaware","state":"AR","lat":35.278,"long":-93.3462},{"zip":"72851","city":"New Blaine","state":"AR","lat":35.3189,"long":-93.4446},{"zip":"72855","city":"Paris","state":"AR","lat":35.2941,"long":-93.7265},{"zip":"72863","city":"Scranton","state":"AR","lat":35.3585,"long":-93.5454},{"zip":"72865","city":"Subiaco","state":"AR","lat":35.3153,"long":-93.5991},{"zip":"72927","city":"Booneville","state":"AR","lat":35.1364,"long":-93.9274},{"zip":"72943","city":"Magazine","state":"AR","lat":35.1587,"long":-93.8003},{"zip":"72951","city":"Ratcliff","state":"AR","lat":35.2917,"long":-93.8899},{"zip":"72007","city":"Austin","state":"AR","lat":34.9921,"long":-91.9798},{"zip":"72023","city":"Cabot","state":"AR","lat":34.9457,"long":-92.0318},{"zip":"72024","city":"Carlisle","state":"AR","lat":34.7933,"long":-91.7459},{"zip":"72037","city":"Coy","state":"AR","lat":34.5387,"long":-91.874},{"zip":"72046","city":"England","state":"AR","lat":34.5575,"long":-91.9484},{"zip":"72072","city":"Humnoke","state":"AR","lat":34.4857,"long":-91.7624},{"zip":"72083","city":"Keo","state":"AR","lat":34.6041,"long":-92.0078},{"zip":"72086","city":"Lonoke","state":"AR","lat":34.7832,"long":-91.9214},{"zip":"72176","city":"Ward","state":"AR","lat":34.9532,"long":-91.9004},{"zip":"72721","city":"Combs","state":"AR","lat":35.8607,"long":-93.8112},{"zip":"72738","city":"Hindsville","state":"AR","lat":36.1422,"long":-93.8633},{"zip":"72740","city":"Huntsville","state":"AR","lat":36.1043,"long":-93.7279},{"zip":"72742","city":"Kingston","state":"AR","lat":36.0485,"long":-93.5044},{"zip":"72752","city":"Pettigrew","state":"AR","lat":35.8346,"long":-93.6181},{"zip":"72760","city":"Saint Paul","state":"AR","lat":35.8496,"long":-93.7347},{"zip":"72773","city":"Wesley","state":"AR","lat":36.0114,"long":-93.8526},{"zip":"72776","city":"Witter","state":"AR","lat":35.9356,"long":-93.621},{"zip":"72619","city":"Bull Shoals","state":"AR","lat":36.371,"long":-92.5938},{"zip":"72634","city":"Flippin","state":"AR","lat":36.2682,"long":-92.578},{"zip":"72661","city":"Oakland","state":"AR","lat":36.4442,"long":-92.5832},{"zip":"72668","city":"Peel","state":"AR","lat":36.435,"long":-92.7615},{"zip":"72672","city":"Pyatt","state":"AR","lat":36.2486,"long":-92.8416},{"zip":"72677","city":"Summit","state":"AR","lat":36.2523,"long":-92.6907},{"zip":"72687","city":"Yellville","state":"AR","lat":36.2253,"long":-92.7245},{"zip":"71834","city":"Doddridge","state":"AR","lat":33.1054,"long":-93.9543},{"zip":"71837","city":"Fouke","state":"AR","lat":33.3025,"long":-93.901},{"zip":"71840","city":"Genoa","state":"AR","lat":33.3837,"long":-93.9096},{"zip":"71854","city":"Texarkana","state":"AR","lat":33.431,"long":-93.8765},{"zip":"72310","city":"Armorel","state":"AR","lat":35.9201,"long":-89.7981},{"zip":"72313","city":"Bassett","state":"AR","lat":35.5365,"long":-90.1268},{"zip":"72315","city":"Blytheville","state":"AR","lat":35.9273,"long":-89.919},{"zip":"72316","city":"Blytheville","state":"AR","lat":35.9273,"long":-89.919},{"zip":"72319","city":"Gosnell","state":"AR","lat":35.9598,"long":-89.972},{"zip":"72321","city":"Burdette","state":"AR","lat":35.8173,"long":-89.9393},{"zip":"72329","city":"Driver","state":"AR","lat":35.6253,"long":-90.0138},{"zip":"72330","city":"Dyess","state":"AR","lat":35.5954,"long":-90.2157},{"zip":"72338","city":"Frenchmans Bayou","state":"AR","lat":35.4591,"long":-90.1884},{"zip":"72350","city":"Joiner","state":"AR","lat":35.5052,"long":-90.1478},{"zip":"72351","city":"Keiser","state":"AR","lat":35.6737,"long":-90.0963},{"zip":"72358","city":"Luxora","state":"AR","lat":35.7608,"long":-89.922},{"zip":"72370","city":"Osceola","state":"AR","lat":35.7019,"long":-89.9798},{"zip":"72391","city":"West Ridge","state":"AR","lat":35.6831,"long":-90.2626},{"zip":"72395","city":"Wilson","state":"AR","lat":35.566,"long":-90.0427},{"zip":"72426","city":"Dell","state":"AR","lat":35.8554,"long":-90.0418},{"zip":"72428","city":"Etowah","state":"AR","lat":35.7337,"long":-90.1838},{"zip":"72438","city":"Leachville","state":"AR","lat":35.9332,"long":-90.1955},{"zip":"72442","city":"Manila","state":"AR","lat":35.8439,"long":-90.1806},{"zip":"72021","city":"Brinkley","state":"AR","lat":34.8781,"long":-91.1886},{"zip":"72029","city":"Clarendon","state":"AR","lat":34.6601,"long":-91.2564},{"zip":"72069","city":"Holly Grove","state":"AR","lat":34.5993,"long":-91.1844},{"zip":"72108","city":"Monroe","state":"AR","lat":34.7348,"long":-91.1046},{"zip":"72134","city":"Roe","state":"AR","lat":34.6286,"long":-91.3771},{"zip":"71935","city":"Caddo Gap","state":"AR","lat":34.3913,"long":-93.7637},{"zip":"71957","city":"Mount Ida","state":"AR","lat":34.5612,"long":-93.5749},{"zip":"71960","city":"Norman","state":"AR","lat":34.4596,"long":-93.6743},{"zip":"71961","city":"Oden","state":"AR","lat":34.6113,"long":-93.8211},{"zip":"71965","city":"Pencil Bluff","state":"AR","lat":34.6399,"long":-93.7429},{"zip":"71966","city":"Oden","state":"AR","lat":34.619,"long":-93.7769},{"zip":"71969","city":"Sims","state":"AR","lat":34.6462,"long":-93.6741},{"zip":"71970","city":"Story","state":"AR","lat":34.6687,"long":-93.5376},{"zip":"71722","city":"Bluff City","state":"AR","lat":33.7038,"long":-93.1588},{"zip":"71828","city":"Cale","state":"AR","lat":33.7008,"long":-93.2941},{"zip":"71835","city":"Emmet","state":"AR","lat":33.6929,"long":-93.4232},{"zip":"71857","city":"Prescott","state":"AR","lat":33.804,"long":-93.3725},{"zip":"71858","city":"Rosston","state":"AR","lat":33.5926,"long":-93.2766},{"zip":"71864","city":"Willisville","state":"AR","lat":33.7008,"long":-93.2941},{"zip":"72624","city":"Compton","state":"AR","lat":36.0979,"long":-93.3099},{"zip":"72628","city":"Deer","state":"AR","lat":35.853,"long":-93.3174},{"zip":"72640","city":"Hasty","state":"AR","lat":36.0152,"long":-93.046},{"zip":"72641","city":"Jasper","state":"AR","lat":36.0038,"long":-93.2048},{"zip":"72648","city":"Marble Falls","state":"AR","lat":36.0695,"long":-93.1566},{"zip":"72655","city":"Mount Judea","state":"AR","lat":35.9407,"long":-93.0654},{"zip":"72666","city":"Parthenon","state":"AR","lat":35.9451,"long":-93.2677},{"zip":"72670","city":"Ponca","state":"AR","lat":36.0242,"long":-93.3646},{"zip":"72683","city":"Vendor","state":"AR","lat":35.9473,"long":-93.0774},{"zip":"72685","city":"Western Grove","state":"AR","lat":36.083,"long":-92.9716},{"zip":"71701","city":"Camden","state":"AR","lat":33.5948,"long":-92.8513},{"zip":"71711","city":"Camden","state":"AR","lat":33.589,"long":-92.8426},{"zip":"71720","city":"Bearden","state":"AR","lat":33.7298,"long":-92.618},{"zip":"71726","city":"Chidester","state":"AR","lat":33.6652,"long":-92.9969},{"zip":"71751","city":"Louann","state":"AR","lat":33.4169,"long":-92.777},{"zip":"71764","city":"Stephens","state":"AR","lat":33.455,"long":-93.0214},{"zip":"72001","city":"Adona","state":"AR","lat":35.047,"long":-92.9033},{"zip":"72016","city":"Bigelow","state":"AR","lat":34.9847,"long":-92.6308},{"zip":"72025","city":"Casa","state":"AR","lat":35.0322,"long":-93.047},{"zip":"72070","city":"Houston","state":"AR","lat":35.0362,"long":-92.6913},{"zip":"72125","city":"Perry","state":"AR","lat":35.0443,"long":-92.7958},{"zip":"72126","city":"Perryville","state":"AR","lat":34.9701,"long":-92.8472},{"zip":"72312","city":"Barton","state":"AR","lat":34.5467,"long":-90.7679},{"zip":"72328","city":"Crumrod","state":"AR","lat":34.1335,"long":-90.9751},{"zip":"72333","city":"Elaine","state":"AR","lat":34.3118,"long":-90.8939},{"zip":"72342","city":"Helena","state":"AR","lat":34.5325,"long":-90.6298},{"zip":"72353","city":"Lambrook","state":"AR","lat":34.3286,"long":-90.9652},{"zip":"72355","city":"Lexa","state":"AR","lat":34.5979,"long":-90.7523},{"zip":"72366","city":"Marvell","state":"AR","lat":34.5485,"long":-90.9413},{"zip":"72367","city":"Mellwood","state":"AR","lat":34.2198,"long":-90.9504},{"zip":"72369","city":"Oneida","state":"AR","lat":34.4542,"long":-90.7684},{"zip":"72374","city":"Poplar Grove","state":"AR","lat":34.5394,"long":-90.8813},{"zip":"72383","city":"Turner","state":"AR","lat":34.4762,"long":-91.0187},{"zip":"72389","city":"Wabash","state":"AR","lat":34.3466,"long":-90.8869},{"zip":"72390","city":"West Helena","state":"AR","lat":34.5496,"long":-90.6545},{"zip":"71922","city":"Antoine","state":"AR","lat":34.0362,"long":-93.4207},{"zip":"71940","city":"Delight","state":"AR","lat":34.0238,"long":-93.5247},{"zip":"71943","city":"Glenwood","state":"AR","lat":34.3192,"long":-93.5559},{"zip":"71950","city":"Kirby","state":"AR","lat":34.2513,"long":-93.741},{"zip":"71952","city":"Langley","state":"AR","lat":34.314,"long":-93.8509},{"zip":"71958","city":"Murfreesboro","state":"AR","lat":34.1017,"long":-93.7109},{"zip":"71959","city":"Newhope","state":"AR","lat":34.2273,"long":-93.8905},{"zip":"72354","city":"Lepanto","state":"AR","lat":35.6069,"long":-90.3359},{"zip":"72365","city":"Marked Tree","state":"AR","lat":35.5349,"long":-90.4194},{"zip":"72377","city":"Rivervale","state":"AR","lat":35.674,"long":-90.3401},{"zip":"72386","city":"Tyronza","state":"AR","lat":35.4865,"long":-90.3519},{"zip":"72429","city":"Fisher","state":"AR","lat":35.514,"long":-90.955},{"zip":"72432","city":"Harrisburg","state":"AR","lat":35.5722,"long":-90.7038},{"zip":"72472","city":"Trumann","state":"AR","lat":35.5882,"long":-90.562},{"zip":"72475","city":"Waldenburg","state":"AR","lat":35.5631,"long":-90.9207},{"zip":"72479","city":"Weiner","state":"AR","lat":35.6291,"long":-90.9289},{"zip":"71932","city":"Board Camp","state":"AR","lat":34.5372,"long":-94.0972},{"zip":"71937","city":"Cove","state":"AR","lat":34.4192,"long":-94.3923},{"zip":"71944","city":"Grannis","state":"AR","lat":34.237,"long":-94.3255},{"zip":"71945","city":"Hatfield","state":"AR","lat":34.4877,"long":-94.3714},{"zip":"71953","city":"Mena","state":"AR","lat":34.5814,"long":-94.221},{"zip":"71972","city":"Vandervoort","state":"AR","lat":34.3941,"long":-94.2535},{"zip":"71973","city":"Wickes","state":"AR","lat":34.3088,"long":-94.3403},{"zip":"72679","city":"Tilly","state":"AR","lat":35.7341,"long":-92.8391},{"zip":"72801","city":"Russellville","state":"AR","lat":35.2842,"long":-93.1315},{"zip":"72802","city":"Russellville","state":"AR","lat":35.3067,"long":-93.0712},{"zip":"72811","city":"Russellville","state":"AR","lat":35.2784,"long":-93.1338},{"zip":"72812","city":"Russellville","state":"AR","lat":35.4231,"long":-93.0544},{"zip":"72823","city":"Atkins","state":"AR","lat":35.2449,"long":-92.9507},{"zip":"72837","city":"Dover","state":"AR","lat":35.4074,"long":-93.1355},{"zip":"72843","city":"Hector","state":"AR","lat":35.5499,"long":-92.9616},{"zip":"72847","city":"London","state":"AR","lat":35.3744,"long":-93.2736},{"zip":"72856","city":"Pelsor","state":"AR","lat":35.7854,"long":-93.0812},{"zip":"72858","city":"Pottsville","state":"AR","lat":35.2398,"long":-93.0564},{"zip":"72017","city":"Biscoe","state":"AR","lat":34.8733,"long":-91.3945},{"zip":"72040","city":"Des Arc","state":"AR","lat":34.9751,"long":-91.5113},{"zip":"72041","city":"De Valls Bluff","state":"AR","lat":34.7447,"long":-91.4982},{"zip":"72064","city":"Hazen","state":"AR","lat":34.7838,"long":-91.5767},{"zip":"72066","city":"Hickory Plains","state":"AR","lat":34.9901,"long":-91.7368},{"zip":"72170","city":"Ulm","state":"AR","lat":34.5772,"long":-91.4633},{"zip":"72002","city":"Alexander","state":"AR","lat":34.6313,"long":-92.4727},{"zip":"72053","city":"College Station","state":"AR","lat":34.7093,"long":-92.2283},{"zip":"72065","city":"Hensley","state":"AR","lat":34.5208,"long":-92.2758},{"zip":"72076","city":"Jacksonville","state":"AR","lat":34.919,"long":-92.1419},{"zip":"72078","city":"Jacksonville","state":"AR","lat":34.8662,"long":-92.1101},{"zip":"72099","city":"Little Rock Air Force Base","state":"AR","lat":34.9074,"long":-92.1397},{"zip":"72103","city":"Mabelvale","state":"AR","lat":34.6478,"long":-92.3849},{"zip":"72113","city":"Maumelle","state":"AR","lat":34.8491,"long":-92.4059},{"zip":"72114","city":"North Little Rock","state":"AR","lat":34.7666,"long":-92.2629},{"zip":"72115","city":"North Little Rock","state":"AR","lat":34.7695,"long":-92.2671},{"zip":"72116","city":"North Little Rock","state":"AR","lat":34.8059,"long":-92.2305},{"zip":"72117","city":"North Little Rock","state":"AR","lat":34.7658,"long":-92.1524},{"zip":"72118","city":"North Little Rock","state":"AR","lat":34.8337,"long":-92.3289},{"zip":"72119","city":"North Little Rock","state":"AR","lat":34.8017,"long":-92.2598},{"zip":"72120","city":"Sherwood","state":"AR","lat":34.8807,"long":-92.2303},{"zip":"72124","city":"North Little Rock","state":"AR","lat":34.7519,"long":-92.3925},{"zip":"72135","city":"Roland","state":"AR","lat":34.8829,"long":-92.5192},{"zip":"72142","city":"Scott","state":"AR","lat":34.6942,"long":-92.1157},{"zip":"72164","city":"Sweet Home","state":"AR","lat":34.6873,"long":-92.2399},{"zip":"72180","city":"Woodson","state":"AR","lat":34.5338,"long":-92.2089},{"zip":"72183","city":"Wrightsville","state":"AR","lat":34.6012,"long":-92.1938},{"zip":"72190","city":"North Little Rock","state":"AR","lat":34.7519,"long":-92.3925},{"zip":"72199","city":"North Little Rock","state":"AR","lat":34.8272,"long":-92.2847},{"zip":"72201","city":"Little Rock","state":"AR","lat":34.7483,"long":-92.2819},{"zip":"72202","city":"Little Rock","state":"AR","lat":34.7363,"long":-92.2741},{"zip":"72203","city":"Little Rock","state":"AR","lat":34.8835,"long":-92.3908},{"zip":"72204","city":"Little Rock","state":"AR","lat":34.7269,"long":-92.344},{"zip":"72205","city":"Little Rock","state":"AR","lat":34.751,"long":-92.3455},{"zip":"72206","city":"Little Rock","state":"AR","lat":34.6836,"long":-92.2776},{"zip":"72207","city":"Little Rock","state":"AR","lat":34.7721,"long":-92.3565},{"zip":"72209","city":"Little Rock","state":"AR","lat":34.6725,"long":-92.3529},{"zip":"72210","city":"Little Rock","state":"AR","lat":34.7076,"long":-92.466},{"zip":"72211","city":"Little Rock","state":"AR","lat":34.7413,"long":-92.4222},{"zip":"72212","city":"Little Rock","state":"AR","lat":34.7871,"long":-92.4222},{"zip":"72214","city":"Little Rock","state":"AR","lat":34.7621,"long":-92.2282},{"zip":"72215","city":"Little Rock","state":"AR","lat":34.7519,"long":-92.3925},{"zip":"72216","city":"Little Rock","state":"AR","lat":34.8178,"long":-92.2357},{"zip":"72217","city":"Little Rock","state":"AR","lat":34.8302,"long":-92.1702},{"zip":"72219","city":"Little Rock","state":"AR","lat":34.7519,"long":-92.3925},{"zip":"72221","city":"Little Rock","state":"AR","lat":34.7519,"long":-92.3925},{"zip":"72222","city":"Little Rock","state":"AR","lat":34.7519,"long":-92.3925},{"zip":"72223","city":"Little Rock","state":"AR","lat":34.7902,"long":-92.5044},{"zip":"72225","city":"Little Rock","state":"AR","lat":34.7519,"long":-92.3925},{"zip":"72227","city":"Little Rock","state":"AR","lat":34.7757,"long":-92.3724},{"zip":"72231","city":"Little Rock","state":"AR","lat":34.8019,"long":-92.1894},{"zip":"72295","city":"Little Rock","state":"AR","lat":34.7519,"long":-92.3925},{"zip":"72413","city":"Biggers","state":"AR","lat":36.2844,"long":-90.8538},{"zip":"72444","city":"Maynard","state":"AR","lat":36.4386,"long":-90.8749},{"zip":"72449","city":"O Kean","state":"AR","lat":36.1797,"long":-90.8241},{"zip":"72455","city":"Pocahontas","state":"AR","lat":36.2829,"long":-90.9968},{"zip":"72460","city":"Ravenden Springs","state":"AR","lat":36.3104,"long":-91.2094},{"zip":"72462","city":"Reyno","state":"AR","lat":36.3744,"long":-90.7676},{"zip":"72478","city":"Warm Springs","state":"AR","lat":36.4803,"long":-91.0515},{"zip":"72322","city":"Caldwell","state":"AR","lat":35.0562,"long":-90.8288},{"zip":"72326","city":"Colt","state":"AR","lat":35.0881,"long":-90.8895},{"zip":"72335","city":"Forrest City","state":"AR","lat":35.0091,"long":-90.7886},{"zip":"72336","city":"Forrest City","state":"AR","lat":35.0081,"long":-90.7898},{"zip":"72340","city":"Goodwin","state":"AR","lat":34.9358,"long":-91.0292},{"zip":"72346","city":"Heth","state":"AR","lat":35.0973,"long":-90.4586},{"zip":"72348","city":"Hughes","state":"AR","lat":34.9454,"long":-90.4741},{"zip":"72359","city":"Madison","state":"AR","lat":35.0252,"long":-90.7086},{"zip":"72372","city":"Palestine","state":"AR","lat":34.9663,"long":-90.9049},{"zip":"72392","city":"Wheatley","state":"AR","lat":34.9207,"long":-91.1086},{"zip":"72394","city":"Widener","state":"AR","lat":35.0592,"long":-90.6293},{"zip":"72011","city":"Bauxite","state":"AR","lat":34.5091,"long":-92.4828},{"zip":"72015","city":"Benton","state":"AR","lat":34.4933,"long":-92.5896},{"zip":"72018","city":"Benton","state":"AR","lat":34.5645,"long":-92.5868},{"zip":"72022","city":"Bryant","state":"AR","lat":34.6068,"long":-92.492},{"zip":"72089","city":"Bryant","state":"AR","lat":34.5959,"long":-92.489},{"zip":"72122","city":"Paron","state":"AR","lat":34.7853,"long":-92.7482},{"zip":"72158","city":"Benton","state":"AR","lat":34.635,"long":-92.6597},{"zip":"72167","city":"Traskwood","state":"AR","lat":34.4508,"long":-92.6547},{"zip":"72841","city":"Harvey","state":"AR","lat":34.8762,"long":-93.764},{"zip":"72926","city":"Boles","state":"AR","lat":34.7654,"long":-94.0629},{"zip":"72944","city":"Mansfield","state":"AR","lat":35.0432,"long":-94.2204},{"zip":"72950","city":"Parks","state":"AR","lat":34.8003,"long":-93.9509},{"zip":"72958","city":"Waldron","state":"AR","lat":34.9026,"long":-94.0772},{"zip":"72636","city":"Gilbert","state":"AR","lat":35.9879,"long":-92.7163},{"zip":"72639","city":"Harriet","state":"AR","lat":35.9991,"long":-92.5042},{"zip":"72645","city":"Leslie","state":"AR","lat":35.8272,"long":-92.5663},{"zip":"72650","city":"Marshall","state":"AR","lat":35.9267,"long":-92.6402},{"zip":"72669","city":"Pindall","state":"AR","lat":36.0675,"long":-92.8864},{"zip":"72675","city":"Saint Joe","state":"AR","lat":35.9877,"long":-92.7928},{"zip":"72686","city":"Witts Springs","state":"AR","lat":35.7681,"long":-92.8668},{"zip":"72901","city":"Fort Smith","state":"AR","lat":35.3653,"long":-94.411},{"zip":"72902","city":"Fort Smith","state":"AR","lat":35.3862,"long":-94.4091},{"zip":"72903","city":"Fort Smith","state":"AR","lat":35.3427,"long":-94.3784},{"zip":"72904","city":"Fort Smith","state":"AR","lat":35.4051,"long":-94.3872},{"zip":"72905","city":"Fort Smith","state":"AR","lat":35.3859,"long":-94.3985},{"zip":"72906","city":"Fort Smith","state":"AR","lat":35.3859,"long":-94.3985},{"zip":"72908","city":"Fort Smith","state":"AR","lat":35.3219,"long":-94.4028},{"zip":"72913","city":"Fort Smith","state":"AR","lat":35.3859,"long":-94.3985},{"zip":"72914","city":"Fort Smith","state":"AR","lat":35.3859,"long":-94.3985},{"zip":"72916","city":"Fort Smith","state":"AR","lat":35.2502,"long":-94.3703},{"zip":"72917","city":"Fort Smith","state":"AR","lat":35.3859,"long":-94.3985},{"zip":"72918","city":"Fort Smith","state":"AR","lat":35.3859,"long":-94.3985},{"zip":"72919","city":"Fort Smith","state":"AR","lat":35.3859,"long":-94.3985},{"zip":"72923","city":"Barling","state":"AR","lat":35.333,"long":-94.3082},{"zip":"72936","city":"Greenwood","state":"AR","lat":35.1955,"long":-94.253},{"zip":"72937","city":"Hackett","state":"AR","lat":35.1945,"long":-94.3983},{"zip":"72938","city":"Hartford","state":"AR","lat":35.0222,"long":-94.3819},{"zip":"72940","city":"Huntington","state":"AR","lat":35.0963,"long":-94.3313},{"zip":"72941","city":"Lavaca","state":"AR","lat":35.3661,"long":-94.1917},{"zip":"72945","city":"Midland","state":"AR","lat":35.0932,"long":-94.3533},{"zip":"71823","city":"Ben Lomond","state":"AR","lat":33.8115,"long":-94.1251},{"zip":"71832","city":"De Queen","state":"AR","lat":34.0442,"long":-94.3386},{"zip":"71841","city":"Gillham","state":"AR","lat":34.157,"long":-94.3165},{"zip":"71842","city":"Horatio","state":"AR","lat":33.9392,"long":-94.2959},{"zip":"71846","city":"Lockesburg","state":"AR","lat":33.9306,"long":-94.1276},{"zip":"72482","city":"Williford","state":"AR","lat":36.2453,"long":-91.3792},{"zip":"72513","city":"Ash Flat","state":"AR","lat":36.2201,"long":-91.6421},{"zip":"72521","city":"Cave City","state":"AR","lat":35.9517,"long":-91.5444},{"zip":"72525","city":"Cherokee Village","state":"AR","lat":36.311,"long":-91.597},{"zip":"72529","city":"Cherokee Village","state":"AR","lat":36.3011,"long":-91.5281},{"zip":"72532","city":"Evening Shade","state":"AR","lat":36.0855,"long":-91.598},{"zip":"72542","city":"Hardy","state":"AR","lat":36.3227,"long":-91.411},{"zip":"72569","city":"Poughkeepsie","state":"AR","lat":36.0767,"long":-91.4793},{"zip":"72577","city":"Sidney","state":"AR","lat":36.0664,"long":-91.642},{"zip":"72051","city":"Fox","state":"AR","lat":35.7682,"long":-92.3043},{"zip":"72533","city":"Fifty Six","state":"AR","lat":35.992,"long":-92.2182},{"zip":"72555","city":"Marcella","state":"AR","lat":35.7756,"long":-91.8718},{"zip":"72560","city":"Mountain View","state":"AR","lat":35.8208,"long":-92.0389},{"zip":"72567","city":"Pleasant Grove","state":"AR","lat":35.8265,"long":-91.8958},{"zip":"72657","city":"Timbo","state":"AR","lat":35.919,"long":-92.1272},{"zip":"72663","city":"Onia","state":"AR","lat":35.9403,"long":-92.3459},{"zip":"72680","city":"Timbo","state":"AR","lat":35.8845,"long":-92.2913},{"zip":"71724","city":"Calion","state":"AR","lat":33.3261,"long":-92.5464},{"zip":"71730","city":"El Dorado","state":"AR","lat":33.2073,"long":-92.6629},{"zip":"71731","city":"El Dorado","state":"AR","lat":33.2076,"long":-92.6663},{"zip":"71747","city":"Huttig","state":"AR","lat":33.0459,"long":-92.1942},{"zip":"71749","city":"Junction City","state":"AR","lat":33.0163,"long":-92.7243},{"zip":"71750","city":"Lawson","state":"AR","lat":33.1968,"long":-92.4829},{"zip":"71758","city":"Mount Holly","state":"AR","lat":33.3085,"long":-92.9443},{"zip":"71759","city":"Norphlet","state":"AR","lat":33.316,"long":-92.6629},{"zip":"71762","city":"Smackover","state":"AR","lat":33.3398,"long":-92.7442},{"zip":"71765","city":"Strong","state":"AR","lat":33.1195,"long":-92.3621},{"zip":"72013","city":"Bee Branch","state":"AR","lat":35.4683,"long":-92.3779},{"zip":"72028","city":"Choctaw","state":"AR","lat":35.5773,"long":-92.5456},{"zip":"72031","city":"Clinton","state":"AR","lat":35.6045,"long":-92.4758},{"zip":"72088","city":"Fairfield Bay","state":"AR","lat":35.6027,"long":-92.2742},{"zip":"72141","city":"Scotland","state":"AR","lat":35.508,"long":-92.5867},{"zip":"72153","city":"Shirley","state":"AR","lat":35.6498,"long":-92.3143},{"zip":"72629","city":"Dennard","state":"AR","lat":35.7252,"long":-92.5575},{"zip":"72701","city":"Fayetteville","state":"AR","lat":36.052,"long":-94.1534},{"zip":"72702","city":"Fayetteville","state":"AR","lat":36.0626,"long":-94.1574},{"zip":"72703","city":"Fayetteville","state":"AR","lat":36.0992,"long":-94.1716},{"zip":"72704","city":"Fayetteville","state":"AR","lat":36.0877,"long":-94.3093},{"zip":"72717","city":"Canehill","state":"AR","lat":35.8477,"long":-94.4441},{"zip":"72727","city":"Elkins","state":"AR","lat":36.0177,"long":-94.0073},{"zip":"72728","city":"Elm Springs","state":"AR","lat":36.21,"long":-94.2546},{"zip":"72729","city":"Evansville","state":"AR","lat":35.7823,"long":-94.4638},{"zip":"72730","city":"Farmington","state":"AR","lat":36.0436,"long":-94.2539},{"zip":"72735","city":"Goshen","state":"AR","lat":36.0876,"long":-93.9666},{"zip":"72737","city":"Greenland","state":"AR","lat":35.9942,"long":-94.1752},{"zip":"72741","city":"Johnson","state":"AR","lat":36.1329,"long":-94.1655},{"zip":"72744","city":"Lincoln","state":"AR","lat":35.9569,"long":-94.4272},{"zip":"72749","city":"Morrow","state":"AR","lat":35.8654,"long":-94.4432},{"zip":"72753","city":"Prairie Grove","state":"AR","lat":35.9918,"long":-94.3169},{"zip":"72762","city":"Springdale","state":"AR","lat":36.1835,"long":-94.1762},{"zip":"72764","city":"Springdale","state":"AR","lat":36.1716,"long":-94.0428},{"zip":"72765","city":"Springdale","state":"AR","lat":36.1725,"long":-94.1535},{"zip":"72766","city":"Springdale","state":"AR","lat":36.1867,"long":-94.1288},{"zip":"72769","city":"Summers","state":"AR","lat":36.0138,"long":-94.5},{"zip":"72770","city":"Tontitown","state":"AR","lat":36.15,"long":-94.2429},{"zip":"72774","city":"West Fork","state":"AR","lat":35.9082,"long":-94.2304},{"zip":"72959","city":"Winslow","state":"AR","lat":35.8312,"long":-94.1187},{"zip":"72010","city":"Bald Knob","state":"AR","lat":35.3113,"long":-91.5502},{"zip":"72012","city":"Beebe","state":"AR","lat":35.0937,"long":-91.9074},{"zip":"72020","city":"Bradford","state":"AR","lat":35.4277,"long":-91.519},{"zip":"72045","city":"El Paso","state":"AR","lat":35.1142,"long":-92.0901},{"zip":"72052","city":"Garner","state":"AR","lat":35.1443,"long":-91.7772},{"zip":"72060","city":"Griffithville","state":"AR","lat":35.1144,"long":-91.6242},{"zip":"72068","city":"Higginson","state":"AR","lat":35.1903,"long":-91.7108},{"zip":"72081","city":"Judsonia","state":"AR","lat":35.325,"long":-91.6491},{"zip":"72082","city":"Kensett","state":"AR","lat":35.2388,"long":-91.6731},{"zip":"72085","city":"Letona","state":"AR","lat":35.3617,"long":-91.8293},{"zip":"72102","city":"Mc Rae","state":"AR","lat":35.1132,"long":-91.8216},{"zip":"72121","city":"Pangburn","state":"AR","lat":35.4216,"long":-91.796},{"zip":"72136","city":"Romance","state":"AR","lat":35.2155,"long":-92.0699},{"zip":"72137","city":"Rose Bud","state":"AR","lat":35.3214,"long":-92.062},{"zip":"72139","city":"Russell","state":"AR","lat":35.3609,"long":-91.5071},{"zip":"72143","city":"Searcy","state":"AR","lat":35.2436,"long":-91.7317},{"zip":"72145","city":"Searcy","state":"AR","lat":35.2774,"long":-91.7326},{"zip":"72149","city":"Searcy","state":"AR","lat":35.2474,"long":-91.7314},{"zip":"72178","city":"West Point","state":"AR","lat":35.2032,"long":-91.6064},{"zip":"72006","city":"Augusta","state":"AR","lat":35.2788,"long":-91.3527},{"zip":"72036","city":"Cotton Plant","state":"AR","lat":35.0178,"long":-91.229},{"zip":"72059","city":"Gregory","state":"AR","lat":35.1554,"long":-91.3432},{"zip":"72074","city":"Hunter","state":"AR","lat":35.0529,"long":-91.1262},{"zip":"72101","city":"Mc Crory","state":"AR","lat":35.2473,"long":-91.1793},{"zip":"72123","city":"Patterson","state":"AR","lat":35.2588,"long":-91.237},{"zip":"72824","city":"Belleville","state":"AR","lat":35.1038,"long":-93.4518},{"zip":"72827","city":"Bluffton","state":"AR","lat":34.9016,"long":-93.5919},{"zip":"72828","city":"Briggsville","state":"AR","lat":34.9161,"long":-93.5157},{"zip":"72829","city":"Centerville","state":"AR","lat":35.1018,"long":-93.1773},{"zip":"72833","city":"Danville","state":"AR","lat":35.0495,"long":-93.3929},{"zip":"72834","city":"Dardanelle","state":"AR","lat":35.1955,"long":-93.1873},{"zip":"72838","city":"Gravelly","state":"AR","lat":34.8881,"long":-93.6802},{"zip":"72842","city":"Havana","state":"AR","lat":35.0832,"long":-93.5955},{"zip":"72853","city":"Ola","state":"AR","lat":35.0309,"long":-93.2136},{"zip":"72857","city":"Plainview","state":"AR","lat":34.9668,"long":-93.3099},{"zip":"72860","city":"Rover","state":"AR","lat":34.9475,"long":-93.4017},{"zip":"70516","city":"Branch","state":"LA","lat":30.3446,"long":-92.3459},{"zip":"70525","city":"Church Point","state":"LA","lat":30.4013,"long":-92.224},{"zip":"70526","city":"Crowley","state":"LA","lat":30.2148,"long":-92.3777},{"zip":"70527","city":"Crowley","state":"LA","lat":30.2284,"long":-92.3018},{"zip":"70531","city":"Egan","state":"LA","lat":30.251,"long":-92.5002},{"zip":"70534","city":"Estherwood","state":"LA","lat":30.1808,"long":-92.4643},{"zip":"70537","city":"Evangeline","state":"LA","lat":30.2683,"long":-92.5532},{"zip":"70543","city":"Iota","state":"LA","lat":30.3313,"long":-92.4957},{"zip":"70556","city":"Mermentau","state":"LA","lat":30.1861,"long":-92.5722},{"zip":"70559","city":"Morse","state":"LA","lat":30.1298,"long":-92.4767},{"zip":"70578","city":"Rayne","state":"LA","lat":30.2349,"long":-92.2685},{"zip":"70638","city":"Elizabeth","state":"LA","lat":30.8547,"long":-92.7815},{"zip":"70644","city":"Grant","state":"LA","lat":30.7962,"long":-92.9517},{"zip":"70648","city":"Kinder","state":"LA","lat":30.4607,"long":-92.8693},{"zip":"70651","city":"Leblanc","state":"LA","lat":30.5648,"long":-92.9583},{"zip":"70654","city":"Mittie","state":"LA","lat":30.7144,"long":-92.9068},{"zip":"70655","city":"Oberlin","state":"LA","lat":30.6162,"long":-92.7527},{"zip":"70658","city":"Reeves","state":"LA","lat":30.521,"long":-93.0477},{"zip":"71463","city":"Oakdale","state":"LA","lat":30.8172,"long":-92.664},{"zip":"70346","city":"Donaldsonville","state":"LA","lat":30.1018,"long":-90.997},{"zip":"70707","city":"Gonzales","state":"LA","lat":30.2047,"long":-90.8695},{"zip":"70718","city":"Brittany","state":"LA","lat":30.201,"long":-90.8689},{"zip":"70725","city":"Darrow","state":"LA","lat":30.13,"long":-90.9651},{"zip":"70728","city":"Duplessis","state":"LA","lat":30.2954,"long":-90.9458},{"zip":"70734","city":"Geismar","state":"LA","lat":30.2196,"long":-91.0079},{"zip":"70737","city":"Gonzales","state":"LA","lat":30.2473,"long":-90.918},{"zip":"70738","city":"Burnside","state":"LA","lat":30.1388,"long":-90.924},{"zip":"70769","city":"Prairieville","state":"LA","lat":30.3073,"long":-90.9405},{"zip":"70774","city":"Saint Amant","state":"LA","lat":30.2385,"long":-90.8435},{"zip":"70778","city":"Sorrento","state":"LA","lat":30.1854,"long":-90.8631},{"zip":"70339","city":"Pierre Part","state":"LA","lat":29.9476,"long":-91.1885},{"zip":"70341","city":"Belle Rose","state":"LA","lat":30.026,"long":-91.0444},{"zip":"70372","city":"Labadieville","state":"LA","lat":29.8345,"long":-90.9613},{"zip":"70390","city":"Napoleonville","state":"LA","lat":29.9288,"long":-91.0266},{"zip":"70391","city":"Paincourtville","state":"LA","lat":29.9902,"long":-91.0588},{"zip":"70393","city":"Plattenville","state":"LA","lat":29.9974,"long":-91.0232},{"zip":"71320","city":"Bordelonville","state":"LA","lat":31.1055,"long":-91.9073},{"zip":"71322","city":"Bunkie","state":"LA","lat":30.8641,"long":-92.1466},{"zip":"71323","city":"Center Point","state":"LA","lat":31.2482,"long":-92.2099},{"zip":"71327","city":"Cottonport","state":"LA","lat":30.9862,"long":-92.0581},{"zip":"71329","city":"Dupont","state":"LA","lat":30.9294,"long":-91.9479},{"zip":"71331","city":"Effie","state":"LA","lat":31.2275,"long":-92.0967},{"zip":"71333","city":"Evergreen","state":"LA","lat":30.9161,"long":-92.067},{"zip":"71339","city":"Hamburg","state":"LA","lat":31.0307,"long":-91.9315},{"zip":"71341","city":"Hessmer","state":"LA","lat":31.0534,"long":-92.1399},{"zip":"71350","city":"Mansura","state":"LA","lat":31.0615,"long":-92.0543},{"zip":"71351","city":"Marksville","state":"LA","lat":31.1396,"long":-92.0831},{"zip":"71355","city":"Moreauville","state":"LA","lat":31.0988,"long":-91.8748},{"zip":"71362","city":"Plaucheville","state":"LA","lat":30.9365,"long":-91.9847},{"zip":"71369","city":"Simmesport","state":"LA","lat":30.9771,"long":-91.8259},{"zip":"70634","city":"Deridder","state":"LA","lat":30.8287,"long":-93.2685},{"zip":"70637","city":"Dry Creek","state":"LA","lat":30.6859,"long":-92.9843},{"zip":"70652","city":"Longville","state":"LA","lat":30.58,"long":-93.2548},{"zip":"70653","city":"Merryville","state":"LA","lat":30.6716,"long":-93.5613},{"zip":"70657","city":"Ragley","state":"LA","lat":30.4703,"long":-93.2337},{"zip":"70660","city":"Singer","state":"LA","lat":30.5329,"long":-93.465},{"zip":"70662","city":"Sugartown","state":"LA","lat":30.8277,"long":-93.017},{"zip":"71001","city":"Arcadia","state":"LA","lat":32.5556,"long":-92.9245},{"zip":"71008","city":"Bienville","state":"LA","lat":32.2523,"long":-92.9084},{"zip":"71016","city":"Castor","state":"LA","lat":32.2452,"long":-93.0936},{"zip":"71028","city":"Gibsland","state":"LA","lat":32.5299,"long":-93.0706},{"zip":"71045","city":"Jamestown","state":"LA","lat":32.3613,"long":-93.1848},{"zip":"71068","city":"Ringgold","state":"LA","lat":32.3263,"long":-93.2982},{"zip":"71070","city":"Saline","state":"LA","lat":32.197,"long":-92.917},{"zip":"71080","city":"Taylor","state":"LA","lat":32.366,"long":-93.1011},{"zip":"71006","city":"Benton","state":"LA","lat":32.6976,"long":-93.691},{"zip":"71037","city":"Haughton","state":"LA","lat":32.5507,"long":-93.5657},{"zip":"71051","city":"Elm Grove","state":"LA","lat":32.3886,"long":-93.5026},{"zip":"71064","city":"Plain Dealing","state":"LA","lat":32.9074,"long":-93.6905},{"zip":"71067","city":"Princeton","state":"LA","lat":32.5791,"long":-93.5226},{"zip":"71110","city":"Barksdale Afb","state":"LA","lat":32.5137,"long":-93.6404},{"zip":"71111","city":"Bossier City","state":"LA","lat":32.5449,"long":-93.7038},{"zip":"71112","city":"Bossier City","state":"LA","lat":32.486,"long":-93.6767},{"zip":"71113","city":"Bossier City","state":"LA","lat":32.6276,"long":-93.609},{"zip":"71171","city":"Bossier City","state":"LA","lat":32.516,"long":-93.7321},{"zip":"71172","city":"Bossier City","state":"LA","lat":32.6276,"long":-93.609},{"zip":"71004","city":"Belcher","state":"LA","lat":32.7544,"long":-93.8508},{"zip":"71007","city":"Bethany","state":"LA","lat":32.3662,"long":-94.0034},{"zip":"71009","city":"Blanchard","state":"LA","lat":32.5719,"long":-93.8871},{"zip":"71029","city":"Gilliam","state":"LA","lat":32.8251,"long":-93.8293},{"zip":"71033","city":"Greenwood","state":"LA","lat":32.4429,"long":-93.973},{"zip":"71043","city":"Hosston","state":"LA","lat":32.8967,"long":-93.8834},{"zip":"71044","city":"Ida","state":"LA","lat":32.9934,"long":-93.9022},{"zip":"71047","city":"Keithville","state":"LA","lat":32.3161,"long":-93.8881},{"zip":"71060","city":"Mooringsport","state":"LA","lat":32.6626,"long":-93.973},{"zip":"71061","city":"Oil City","state":"LA","lat":32.7451,"long":-93.9838},{"zip":"71069","city":"Rodessa","state":"LA","lat":32.9701,"long":-93.9885},{"zip":"71082","city":"Vivian","state":"LA","lat":32.8423,"long":-93.9504},{"zip":"71101","city":"Shreveport","state":"LA","lat":32.5037,"long":-93.7487},{"zip":"71102","city":"Shreveport","state":"LA","lat":32.6076,"long":-93.7526},{"zip":"71103","city":"Shreveport","state":"LA","lat":32.4945,"long":-93.7727},{"zip":"71104","city":"Shreveport","state":"LA","lat":32.483,"long":-93.7349},{"zip":"71105","city":"Shreveport","state":"LA","lat":32.4589,"long":-93.7143},{"zip":"71106","city":"Shreveport","state":"LA","lat":32.3912,"long":-93.7116},{"zip":"71107","city":"Shreveport","state":"LA","lat":32.6016,"long":-93.8738},{"zip":"71108","city":"Shreveport","state":"LA","lat":32.4486,"long":-93.7814},{"zip":"71109","city":"Shreveport","state":"LA","lat":32.474,"long":-93.8013},{"zip":"71115","city":"Shreveport","state":"LA","lat":32.3401,"long":-93.6092},{"zip":"71118","city":"Shreveport","state":"LA","lat":32.3977,"long":-93.8025},{"zip":"71119","city":"Shreveport","state":"LA","lat":32.4771,"long":-93.8726},{"zip":"71120","city":"Shreveport","state":"LA","lat":32.6076,"long":-93.7526},{"zip":"71129","city":"Shreveport","state":"LA","lat":32.4141,"long":-93.8742},{"zip":"71130","city":"Shreveport","state":"LA","lat":32.6076,"long":-93.7526},{"zip":"71133","city":"Shreveport","state":"LA","lat":32.6076,"long":-93.7526},{"zip":"71134","city":"Shreveport","state":"LA","lat":32.6076,"long":-93.7526},{"zip":"71135","city":"Shreveport","state":"LA","lat":32.6076,"long":-93.7526},{"zip":"71136","city":"Shreveport","state":"LA","lat":32.6076,"long":-93.7526},{"zip":"71137","city":"Shreveport","state":"LA","lat":32.6076,"long":-93.7526},{"zip":"71138","city":"Shreveport","state":"LA","lat":32.6076,"long":-93.7526},{"zip":"71148","city":"Shreveport","state":"LA","lat":32.6076,"long":-93.7526},{"zip":"71149","city":"Shreveport","state":"LA","lat":32.6076,"long":-93.7526},{"zip":"71150","city":"Shreveport","state":"LA","lat":32.5056,"long":-93.7434},{"zip":"71151","city":"Shreveport","state":"LA","lat":32.6076,"long":-93.7526},{"zip":"71152","city":"Shreveport","state":"LA","lat":32.6076,"long":-93.7526},{"zip":"71153","city":"Shreveport","state":"LA","lat":32.6076,"long":-93.7526},{"zip":"71154","city":"Shreveport","state":"LA","lat":32.6076,"long":-93.7526},{"zip":"71156","city":"Shreveport","state":"LA","lat":32.6076,"long":-93.7526},{"zip":"71161","city":"Shreveport","state":"LA","lat":32.6076,"long":-93.7526},{"zip":"71162","city":"Shreveport","state":"LA","lat":32.6076,"long":-93.7526},{"zip":"71163","city":"Shreveport","state":"LA","lat":32.6076,"long":-93.7526},{"zip":"71164","city":"Shreveport","state":"LA","lat":32.6076,"long":-93.7526},{"zip":"71165","city":"Shreveport","state":"LA","lat":32.6076,"long":-93.7526},{"zip":"71166","city":"Shreveport","state":"LA","lat":32.6076,"long":-93.7526},{"zip":"70601","city":"Lake Charles","state":"LA","lat":30.2285,"long":-93.188},{"zip":"70602","city":"Lake Charles","state":"LA","lat":30.2642,"long":-93.3265},{"zip":"70605","city":"Lake Charles","state":"LA","lat":30.1693,"long":-93.2218},{"zip":"70606","city":"Lake Charles","state":"LA","lat":30.2642,"long":-93.3265},{"zip":"70607","city":"Lake Charles","state":"LA","lat":30.1244,"long":-93.1835},{"zip":"70609","city":"Lake Charles","state":"LA","lat":30.2642,"long":-93.3265},{"zip":"70611","city":"Lake Charles","state":"LA","lat":30.322,"long":-93.2111},{"zip":"70612","city":"Lake Charles","state":"LA","lat":30.2642,"long":-93.3265},{"zip":"70615","city":"Lake Charles","state":"LA","lat":30.2585,"long":-93.1146},{"zip":"70616","city":"Lake Charles","state":"LA","lat":30.2642,"long":-93.3265},{"zip":"70629","city":"Lake Charles","state":"LA","lat":30.2642,"long":-93.3265},{"zip":"70630","city":"Bell City","state":"LA","lat":30.1054,"long":-93.0372},{"zip":"70633","city":"Dequincy","state":"LA","lat":30.4211,"long":-93.4151},{"zip":"70646","city":"Hayes","state":"LA","lat":30.097,"long":-92.9146},{"zip":"70647","city":"Iowa","state":"LA","lat":30.2219,"long":-93.0259},{"zip":"70661","city":"Starks","state":"LA","lat":30.3085,"long":-93.6615},{"zip":"70663","city":"Sulphur","state":"LA","lat":30.219,"long":-93.3639},{"zip":"70664","city":"Sulphur","state":"LA","lat":30.2642,"long":-93.3265},{"zip":"70665","city":"Sulphur","state":"LA","lat":30.2009,"long":-93.4437},{"zip":"70668","city":"Vinton","state":"LA","lat":30.2015,"long":-93.5728},{"zip":"70669","city":"Westlake","state":"LA","lat":30.2613,"long":-93.2688},{"zip":"71415","city":"Clarks","state":"LA","lat":32.0344,"long":-92.1381},{"zip":"71418","city":"Columbia","state":"LA","lat":32.1022,"long":-92.1177},{"zip":"71435","city":"Grayson","state":"LA","lat":32.067,"long":-92.1698},{"zip":"71441","city":"Kelly","state":"LA","lat":31.9648,"long":-92.1825},{"zip":"70631","city":"Cameron","state":"LA","lat":29.7911,"long":-93.438},{"zip":"70632","city":"Creole","state":"LA","lat":29.8646,"long":-93.0033},{"zip":"70643","city":"Grand Chenier","state":"LA","lat":29.7644,"long":-92.9261},{"zip":"70645","city":"Hackberry","state":"LA","lat":29.9822,"long":-93.375},{"zip":"71340","city":"Harrisonburg","state":"LA","lat":31.7779,"long":-91.8133},{"zip":"71343","city":"Jonesville","state":"LA","lat":31.6862,"long":-91.8678},{"zip":"71363","city":"Rhinehart","state":"LA","lat":31.6377,"long":-92.0068},{"zip":"71368","city":"Sicily Island","state":"LA","lat":31.8507,"long":-91.6807},{"zip":"71401","city":"Aimwell","state":"LA","lat":31.7835,"long":-91.9935},{"zip":"71425","city":"Enterprise","state":"LA","lat":31.9064,"long":-91.8751},{"zip":"71003","city":"Athens","state":"LA","lat":32.6451,"long":-93.0239},{"zip":"71038","city":"Haynesville","state":"LA","lat":32.9278,"long":-93.0691},{"zip":"71040","city":"Homer","state":"LA","lat":32.7749,"long":-93.0288},{"zip":"71048","city":"Lisbon","state":"LA","lat":32.8452,"long":-92.8878},{"zip":"71079","city":"Summerfield","state":"LA","lat":32.9238,"long":-92.8215},{"zip":"71316","city":"Acme","state":"LA","lat":31.3016,"long":-91.8216},{"zip":"71326","city":"Clayton","state":"LA","lat":31.7158,"long":-91.5163},{"zip":"71334","city":"Ferriday","state":"LA","lat":31.6602,"long":-91.5502},{"zip":"71354","city":"Monterey","state":"LA","lat":31.4499,"long":-91.7182},{"zip":"71373","city":"Vidalia","state":"LA","lat":31.5782,"long":-91.4695},{"zip":"71377","city":"Wildsville","state":"LA","lat":31.6094,"long":-91.7808},{"zip":"71027","city":"Frierson","state":"LA","lat":32.245,"long":-93.6915},{"zip":"71030","city":"Gloster","state":"LA","lat":32.1858,"long":-93.801},{"zip":"71032","city":"Grand Cane","state":"LA","lat":32.105,"long":-93.7941},{"zip":"71046","city":"Keatchie","state":"LA","lat":32.1622,"long":-93.951},{"zip":"71049","city":"Logansport","state":"LA","lat":31.9943,"long":-93.9627},{"zip":"71050","city":"Longstreet","state":"LA","lat":32.0977,"long":-93.9521},{"zip":"71052","city":"Mansfield","state":"LA","lat":32.0239,"long":-93.698},{"zip":"71063","city":"Pelican","state":"LA","lat":31.8966,"long":-93.5634},{"zip":"71078","city":"Stonewall","state":"LA","lat":32.2848,"long":-93.8003},{"zip":"70704","city":"Baker","state":"LA","lat":30.5159,"long":-91.0804},{"zip":"70714","city":"Baker","state":"LA","lat":30.5814,"long":-91.1429},{"zip":"70739","city":"Greenwell Springs","state":"LA","lat":30.5984,"long":-90.9705},{"zip":"70770","city":"Pride","state":"LA","lat":30.6133,"long":-90.9943},{"zip":"70791","city":"Zachary","state":"LA","lat":30.6561,"long":-91.1358},{"zip":"70801","city":"Baton Rouge","state":"LA","lat":30.4492,"long":-91.1856},{"zip":"70802","city":"Baton Rouge","state":"LA","lat":30.4438,"long":-91.1775},{"zip":"70803","city":"Baton Rouge","state":"LA","lat":30.405,"long":-91.1868},{"zip":"70804","city":"Baton Rouge","state":"LA","lat":30.3863,"long":-91.1339},{"zip":"70805","city":"Baton Rouge","state":"LA","lat":30.486,"long":-91.1481},{"zip":"70806","city":"Baton Rouge","state":"LA","lat":30.4485,"long":-91.13},{"zip":"70807","city":"Baton Rouge","state":"LA","lat":30.5768,"long":-91.2246},{"zip":"70808","city":"Baton Rouge","state":"LA","lat":30.4066,"long":-91.1468},{"zip":"70809","city":"Baton Rouge","state":"LA","lat":30.4089,"long":-91.0842},{"zip":"70810","city":"Baton Rouge","state":"LA","lat":30.3633,"long":-91.0919},{"zip":"70811","city":"Baton Rouge","state":"LA","lat":30.5317,"long":-91.1167},{"zip":"70812","city":"Baton Rouge","state":"LA","lat":30.5052,"long":-91.1181},{"zip":"70813","city":"Baton Rouge","state":"LA","lat":30.5201,"long":-91.1949},{"zip":"70814","city":"Baton Rouge","state":"LA","lat":30.4848,"long":-91.0689},{"zip":"70815","city":"Baton Rouge","state":"LA","lat":30.4558,"long":-91.0596},{"zip":"70816","city":"Baton Rouge","state":"LA","lat":30.4273,"long":-91.0356},{"zip":"70817","city":"Baton Rouge","state":"LA","lat":30.3904,"long":-91.0021},{"zip":"70818","city":"Baton Rouge","state":"LA","lat":30.5408,"long":-91.05},{"zip":"70819","city":"Baton Rouge","state":"LA","lat":30.4668,"long":-91.0156},{"zip":"70820","city":"Baton Rouge","state":"LA","lat":30.3795,"long":-91.1671},{"zip":"70821","city":"Baton Rouge","state":"LA","lat":30.4613,"long":-91.0447},{"zip":"70822","city":"Baton Rouge","state":"LA","lat":30.5159,"long":-91.0804},{"zip":"70823","city":"Baton Rouge","state":"LA","lat":30.5159,"long":-91.0804},{"zip":"70825","city":"Baton Rouge","state":"LA","lat":30.5159,"long":-91.0804},{"zip":"70826","city":"Baton Rouge","state":"LA","lat":30.5159,"long":-91.0804},{"zip":"70827","city":"Baton Rouge","state":"LA","lat":30.4338,"long":-91.0825},{"zip":"70831","city":"Baton Rouge","state":"LA","lat":30.5159,"long":-91.0804},{"zip":"70833","city":"Baton Rouge","state":"LA","lat":30.5159,"long":-91.0804},{"zip":"70835","city":"Baton Rouge","state":"LA","lat":30.5159,"long":-91.0804},{"zip":"70836","city":"Baton Rouge","state":"LA","lat":30.392,"long":-91.0892},{"zip":"70837","city":"Baton Rouge","state":"LA","lat":30.5159,"long":-91.0804},{"zip":"70873","city":"Baton Rouge","state":"LA","lat":30.5305,"long":-91.1163},{"zip":"70874","city":"Baton Rouge","state":"LA","lat":30.5902,"long":-91.2054},{"zip":"70879","city":"Baton Rouge","state":"LA","lat":30.5159,"long":-91.0804},{"zip":"70884","city":"Baton Rouge","state":"LA","lat":30.5159,"long":-91.0804},{"zip":"70891","city":"Baton Rouge","state":"LA","lat":30.4492,"long":-91.1547},{"zip":"70892","city":"Baton Rouge","state":"LA","lat":30.4507,"long":-91.1546},{"zip":"70893","city":"Baton Rouge","state":"LA","lat":30.413,"long":-91.1715},{"zip":"70894","city":"Baton Rouge","state":"LA","lat":30.5159,"long":-91.0804},{"zip":"70895","city":"Baton Rouge","state":"LA","lat":30.5159,"long":-91.0804},{"zip":"70896","city":"Baton Rouge","state":"LA","lat":30.5159,"long":-91.0804},{"zip":"70898","city":"Baton Rouge","state":"LA","lat":30.5159,"long":-91.0804},{"zip":"71254","city":"Lake Providence","state":"LA","lat":32.8071,"long":-91.1906},{"zip":"71276","city":"Sondheimer","state":"LA","lat":32.5756,"long":-91.1496},{"zip":"71286","city":"Transylvania","state":"LA","lat":32.6705,"long":-91.2288},{"zip":"70722","city":"Clinton","state":"LA","lat":30.8249,"long":-90.9331},{"zip":"70730","city":"Ethel","state":"LA","lat":30.8131,"long":-91.11},{"zip":"70748","city":"Jackson","state":"LA","lat":30.8087,"long":-91.1987},{"zip":"70761","city":"Norwood","state":"LA","lat":30.9518,"long":-91.0629},{"zip":"70777","city":"Slaughter","state":"LA","lat":30.7383,"long":-91.07},{"zip":"70789","city":"Wilson","state":"LA","lat":30.9473,"long":-91.0655},{"zip":"70515","city":"Basile","state":"LA","lat":30.4978,"long":-92.5736},{"zip":"70524","city":"Chataignier","state":"LA","lat":30.5709,"long":-92.3202},{"zip":"70554","city":"Mamou","state":"LA","lat":30.6496,"long":-92.4196},{"zip":"70576","city":"Pine Prairie","state":"LA","lat":30.7831,"long":-92.4163},{"zip":"70580","city":"Reddell","state":"LA","lat":30.675,"long":-92.4265},{"zip":"70585","city":"Turkey Creek","state":"LA","lat":30.8707,"long":-92.404},{"zip":"70586","city":"Ville Platte","state":"LA","lat":30.6924,"long":-92.2737},{"zip":"71367","city":"Saint Landry","state":"LA","lat":30.8998,"long":-92.2964},{"zip":"71219","city":"Baskin","state":"LA","lat":32.2897,"long":-91.7132},{"zip":"71230","city":"Crowville","state":"LA","lat":32.2407,"long":-91.5901},{"zip":"71243","city":"Fort Necessity","state":"LA","lat":32.0434,"long":-91.8257},{"zip":"71249","city":"Jigger","state":"LA","lat":32.0349,"long":-91.7468},{"zip":"71295","city":"Winnsboro","state":"LA","lat":32.1592,"long":-91.7108},{"zip":"71324","city":"Chase","state":"LA","lat":32.0971,"long":-91.699},{"zip":"71336","city":"Gilbert","state":"LA","lat":32.0349,"long":-91.592},{"zip":"71378","city":"Wisner","state":"LA","lat":31.9913,"long":-91.6768},{"zip":"71407","city":"Bentley","state":"LA","lat":31.5157,"long":-92.4882},{"zip":"71417","city":"Colfax","state":"LA","lat":31.5079,"long":-92.6568},{"zip":"71423","city":"Dry Prong","state":"LA","lat":31.5979,"long":-92.5665},{"zip":"71432","city":"Georgetown","state":"LA","lat":31.745,"long":-92.3952},{"zip":"71454","city":"Montgomery","state":"LA","lat":31.6674,"long":-92.8412},{"zip":"71467","city":"Pollock","state":"LA","lat":31.5,"long":-92.4005},{"zip":"70513","city":"Avery Island","state":"LA","lat":29.8981,"long":-91.9062},{"zip":"70544","city":"Jeanerette","state":"LA","lat":29.9032,"long":-91.6544},{"zip":"70552","city":"Loreauville","state":"LA","lat":30.0683,"long":-91.6596},{"zip":"70560","city":"New Iberia","state":"LA","lat":30.001,"long":-91.82},{"zip":"70562","city":"New Iberia","state":"LA","lat":30.0035,"long":-91.8187},{"zip":"70563","city":"New Iberia","state":"LA","lat":30.0245,"long":-91.7496},{"zip":"70569","city":"Lydia","state":"LA","lat":29.9239,"long":-91.7831},{"zip":"70721","city":"Carville","state":"LA","lat":30.2184,"long":-91.0925},{"zip":"70740","city":"Grosse Tete","state":"LA","lat":30.3879,"long":-91.4383},{"zip":"70757","city":"Maringouin","state":"LA","lat":30.4626,"long":-91.5099},{"zip":"70764","city":"Plaquemine","state":"LA","lat":30.2684,"long":-91.2524},{"zip":"70765","city":"Plaquemine","state":"LA","lat":30.2891,"long":-91.2343},{"zip":"70772","city":"Rosedale","state":"LA","lat":30.4408,"long":-91.4562},{"zip":"70776","city":"Saint Gabriel","state":"LA","lat":30.2528,"long":-91.0857},{"zip":"70780","city":"Sunshine","state":"LA","lat":30.2982,"long":-91.1799},{"zip":"70788","city":"White Castle","state":"LA","lat":30.1545,"long":-91.1773},{"zip":"71226","city":"Chatham","state":"LA","lat":32.2922,"long":-92.4374},{"zip":"71238","city":"Eros","state":"LA","lat":32.3988,"long":-92.3479},{"zip":"71247","city":"Hodge","state":"LA","lat":32.2768,"long":-92.7235},{"zip":"71251","city":"Jonesboro","state":"LA","lat":32.2483,"long":-92.6944},{"zip":"71268","city":"Quitman","state":"LA","lat":32.3564,"long":-92.7085},{"zip":"70001","city":"Metairie","state":"LA","lat":29.9871,"long":-90.1695},{"zip":"70002","city":"Metairie","state":"LA","lat":30.0098,"long":-90.163},{"zip":"70003","city":"Metairie","state":"LA","lat":29.9975,"long":-90.2146},{"zip":"70004","city":"Metairie","state":"LA","lat":29.9841,"long":-90.1529},{"zip":"70005","city":"Metairie","state":"LA","lat":30.0005,"long":-90.1331},{"zip":"70006","city":"Metairie","state":"LA","lat":30.0129,"long":-90.1915},{"zip":"70009","city":"Metairie","state":"LA","lat":29.9841,"long":-90.1529},{"zip":"70010","city":"Metairie","state":"LA","lat":29.9841,"long":-90.1529},{"zip":"70011","city":"Metairie","state":"LA","lat":29.9841,"long":-90.1529},{"zip":"70033","city":"Metairie","state":"LA","lat":29.9841,"long":-90.1529},{"zip":"70036","city":"Barataria","state":"LA","lat":29.6964,"long":-90.1122},{"zip":"70053","city":"Gretna","state":"LA","lat":29.9108,"long":-90.0531},{"zip":"70054","city":"Gretna","state":"LA","lat":29.9146,"long":-90.054},{"zip":"70055","city":"Metairie","state":"LA","lat":29.9841,"long":-90.1529},{"zip":"70056","city":"Gretna","state":"LA","lat":29.8872,"long":-90.0331},{"zip":"70058","city":"Harvey","state":"LA","lat":29.8725,"long":-90.0673},{"zip":"70059","city":"Harvey","state":"LA","lat":29.9035,"long":-90.0773},{"zip":"70060","city":"Metairie","state":"LA","lat":29.9841,"long":-90.1529},{"zip":"70062","city":"Kenner","state":"LA","lat":29.9912,"long":-90.2479},{"zip":"70063","city":"Kenner","state":"LA","lat":29.9941,"long":-90.2417},{"zip":"70064","city":"Kenner","state":"LA","lat":29.9941,"long":-90.2417},{"zip":"70065","city":"Kenner","state":"LA","lat":30.0252,"long":-90.2522},{"zip":"70067","city":"Lafitte","state":"LA","lat":29.7143,"long":-90.1052},{"zip":"70072","city":"Marrero","state":"LA","lat":29.8598,"long":-90.1105},{"zip":"70073","city":"Marrero","state":"LA","lat":29.8994,"long":-90.1004},{"zip":"70094","city":"Westwego","state":"LA","lat":29.8973,"long":-90.2033},{"zip":"70096","city":"Westwego","state":"LA","lat":29.906,"long":-90.1423},{"zip":"70097","city":"Kenner","state":"LA","lat":29.9565,"long":-90.2635},{"zip":"70121","city":"New Orleans","state":"LA","lat":29.9614,"long":-90.1577},{"zip":"70123","city":"New Orleans","state":"LA","lat":29.9511,"long":-90.206},{"zip":"70141","city":"New Orleans","state":"LA","lat":29.9546,"long":-90.0751},{"zip":"70181","city":"New Orleans","state":"LA","lat":29.6779,"long":-90.0901},{"zip":"70183","city":"New Orleans","state":"LA","lat":29.9546,"long":-90.0751},{"zip":"70358","city":"Grand Isle","state":"LA","lat":29.2297,"long":-90.0088},{"zip":"70532","city":"Elton","state":"LA","lat":30.4715,"long":-92.6996},{"zip":"70546","city":"Jennings","state":"LA","lat":30.2201,"long":-92.6574},{"zip":"70549","city":"Lake Arthur","state":"LA","lat":30.091,"long":-92.6825},{"zip":"70581","city":"Roanoke","state":"LA","lat":30.2464,"long":-92.7421},{"zip":"70591","city":"Welsh","state":"LA","lat":30.2363,"long":-92.819},{"zip":"70640","city":"Fenton","state":"LA","lat":30.3655,"long":-92.9122},{"zip":"70650","city":"Lacassine","state":"LA","lat":30.2374,"long":-92.9232},{"zip":"70501","city":"Lafayette","state":"LA","lat":30.2361,"long":-92.0083},{"zip":"70502","city":"Lafayette","state":"LA","lat":30.2241,"long":-92.0198},{"zip":"70503","city":"Lafayette","state":"LA","lat":30.1843,"long":-92.0497},{"zip":"70504","city":"Lafayette","state":"LA","lat":30.2139,"long":-92.0187},{"zip":"70505","city":"Lafayette","state":"LA","lat":30.2023,"long":-92.0188},{"zip":"70506","city":"Lafayette","state":"LA","lat":30.2077,"long":-92.0656},{"zip":"70507","city":"Lafayette","state":"LA","lat":30.2813,"long":-92.016},{"zip":"70508","city":"Lafayette","state":"LA","lat":30.1582,"long":-92.0236},{"zip":"70509","city":"Lafayette","state":"LA","lat":30.1565,"long":-92},{"zip":"70518","city":"Broussard","state":"LA","lat":30.1219,"long":-91.9502},{"zip":"70520","city":"Carencro","state":"LA","lat":30.3244,"long":-92.0423},{"zip":"70529","city":"Duson","state":"LA","lat":30.1912,"long":-92.1525},{"zip":"70558","city":"Milton","state":"LA","lat":30.1038,"long":-92.0765},{"zip":"70583","city":"Scott","state":"LA","lat":30.2504,"long":-92.0981},{"zip":"70592","city":"Youngsville","state":"LA","lat":30.0975,"long":-92.0096},{"zip":"70593","city":"Lafayette","state":"LA","lat":30.2081,"long":-92.0951},{"zip":"70596","city":"Lafayette","state":"LA","lat":30.2241,"long":-92.0198},{"zip":"70598","city":"Lafayette","state":"LA","lat":30.2081,"long":-92.0951},{"zip":"70301","city":"Thibodaux","state":"LA","lat":29.7992,"long":-90.8096},{"zip":"70302","city":"Thibodaux","state":"LA","lat":29.7958,"long":-90.8229},{"zip":"70310","city":"Thibodaux","state":"LA","lat":29.8033,"long":-90.8169},{"zip":"70345","city":"Cut Off","state":"LA","lat":29.5232,"long":-90.3393},{"zip":"70354","city":"Galliano","state":"LA","lat":29.4311,"long":-90.2981},{"zip":"70355","city":"Gheens","state":"LA","lat":29.7076,"long":-90.4849},{"zip":"70357","city":"Golden Meadow","state":"LA","lat":29.3821,"long":-90.2639},{"zip":"70371","city":"Kraemer","state":"LA","lat":29.8652,"long":-90.5962},{"zip":"70373","city":"Larose","state":"LA","lat":29.5724,"long":-90.3817},{"zip":"70374","city":"Lockport","state":"LA","lat":29.6155,"long":-90.4442},{"zip":"70375","city":"Mathews","state":"LA","lat":29.6938,"long":-90.5496},{"zip":"70394","city":"Raceland","state":"LA","lat":29.7178,"long":-90.5999},{"zip":"71342","city":"Jena","state":"LA","lat":31.6748,"long":-92.1137},{"zip":"71371","city":"Trout","state":"LA","lat":31.6531,"long":-92.1993},{"zip":"71465","city":"Olla","state":"LA","lat":31.8734,"long":-92.2214},{"zip":"71479","city":"Tullos","state":"LA","lat":31.8569,"long":-92.374},{"zip":"71480","city":"Urania","state":"LA","lat":31.865,"long":-92.2915},{"zip":"71227","city":"Choudrant","state":"LA","lat":32.5556,"long":-92.5224},{"zip":"71235","city":"Dubach","state":"LA","lat":32.6949,"long":-92.6785},{"zip":"71245","city":"Grambling","state":"LA","lat":32.5244,"long":-92.7158},{"zip":"71270","city":"Ruston","state":"LA","lat":32.5308,"long":-92.6439},{"zip":"71272","city":"Ruston","state":"LA","lat":32.5258,"long":-92.6493},{"zip":"71273","city":"Ruston","state":"LA","lat":32.6065,"long":-92.6484},{"zip":"71275","city":"Simsboro","state":"LA","lat":32.5384,"long":-92.7995},{"zip":"70449","city":"Maurepas","state":"LA","lat":30.2716,"long":-90.7043},{"zip":"70462","city":"Springfield","state":"LA","lat":30.4157,"long":-90.5775},{"zip":"70706","city":"Denham Springs","state":"LA","lat":30.6085,"long":-90.9038},{"zip":"70711","city":"Albany","state":"LA","lat":30.5149,"long":-90.5964},{"zip":"70726","city":"Denham Springs","state":"LA","lat":30.459,"long":-90.9027},{"zip":"70727","city":"Denham Springs","state":"LA","lat":30.3375,"long":-90.8434},{"zip":"70733","city":"French Settlement","state":"LA","lat":30.2952,"long":-90.7951},{"zip":"70744","city":"Holden","state":"LA","lat":30.5556,"long":-90.6652},{"zip":"70754","city":"Livingston","state":"LA","lat":30.4741,"long":-90.7673},{"zip":"70785","city":"Walker","state":"LA","lat":30.5247,"long":-90.8557},{"zip":"70786","city":"Watson","state":"LA","lat":30.5502,"long":-90.9582},{"zip":"71233","city":"Delta","state":"LA","lat":32.3257,"long":-90.927},{"zip":"71282","city":"Tallulah","state":"LA","lat":32.4326,"long":-91.0645},{"zip":"71284","city":"Tallulah","state":"LA","lat":32.4085,"long":-91.1868},{"zip":"71220","city":"Bastrop","state":"LA","lat":32.7894,"long":-91.9078},{"zip":"71221","city":"Bastrop","state":"LA","lat":32.7562,"long":-91.8723},{"zip":"71223","city":"Bonita","state":"LA","lat":32.9123,"long":-91.6822},{"zip":"71229","city":"Collinston","state":"LA","lat":32.6971,"long":-91.8634},{"zip":"71250","city":"Jones","state":"LA","lat":32.9663,"long":-91.5965},{"zip":"71261","city":"Mer Rouge","state":"LA","lat":32.7718,"long":-91.7716},{"zip":"71264","city":"Oak Ridge","state":"LA","lat":32.6243,"long":-91.7618},{"zip":"71002","city":"Ashland","state":"LA","lat":32.1378,"long":-93.0906},{"zip":"71031","city":"Goldonna","state":"LA","lat":32,"long":-92.9611},{"zip":"71066","city":"Powhatan","state":"LA","lat":31.8741,"long":-93.1966},{"zip":"71411","city":"Campti","state":"LA","lat":31.8959,"long":-93.0936},{"zip":"71414","city":"Clarence","state":"LA","lat":31.8158,"long":-93.0171},{"zip":"71416","city":"Cloutierville","state":"LA","lat":31.5432,"long":-92.9182},{"zip":"71428","city":"Flora","state":"LA","lat":31.6124,"long":-93.098},{"zip":"71434","city":"Gorum","state":"LA","lat":31.433,"long":-92.9435},{"zip":"71450","city":"Marthaville","state":"LA","lat":31.7726,"long":-93.3954},{"zip":"71452","city":"Melrose","state":"LA","lat":31.6104,"long":-92.9745},{"zip":"71455","city":"Mora","state":"LA","lat":31.4016,"long":-92.974},{"zip":"71456","city":"Natchez","state":"LA","lat":31.6615,"long":-93.0241},{"zip":"71457","city":"Natchitoches","state":"LA","lat":31.7617,"long":-93.0916},{"zip":"71458","city":"Natchitoches","state":"LA","lat":31.7476,"long":-93.0791},{"zip":"71468","city":"Provencal","state":"LA","lat":31.5157,"long":-93.1488},{"zip":"71469","city":"Robeline","state":"LA","lat":31.7715,"long":-93.321},{"zip":"71497","city":"Natchitoches","state":"LA","lat":31.7476,"long":-93.0791},{"zip":"70112","city":"New Orleans","state":"LA","lat":29.9605,"long":-90.0753},{"zip":"70113","city":"New Orleans","state":"LA","lat":29.9405,"long":-90.0848},{"zip":"70114","city":"New Orleans","state":"LA","lat":29.9379,"long":-90.0331},{"zip":"70115","city":"New Orleans","state":"LA","lat":29.9289,"long":-90.1005},{"zip":"70116","city":"New Orleans","state":"LA","lat":29.9686,"long":-90.0646},{"zip":"70117","city":"New Orleans","state":"LA","lat":29.9703,"long":-90.0312},{"zip":"70118","city":"New Orleans","state":"LA","lat":29.9504,"long":-90.1236},{"zip":"70119","city":"New Orleans","state":"LA","lat":29.9746,"long":-90.0852},{"zip":"70122","city":"New Orleans","state":"LA","lat":30.0056,"long":-90.0644},{"zip":"70124","city":"New Orleans","state":"LA","lat":30.0071,"long":-90.1094},{"zip":"70125","city":"New Orleans","state":"LA","lat":29.9512,"long":-90.1028},{"zip":"70126","city":"New Orleans","state":"LA","lat":29.9987,"long":-90.0446},{"zip":"70127","city":"New Orleans","state":"LA","lat":30.0313,"long":-89.9758},{"zip":"70128","city":"New Orleans","state":"LA","lat":30.0487,"long":-89.9585},{"zip":"70129","city":"New Orleans","state":"LA","lat":30.0877,"long":-89.8462},{"zip":"70130","city":"New Orleans","state":"LA","lat":29.9324,"long":-90.0739},{"zip":"70131","city":"New Orleans","state":"LA","lat":29.9168,"long":-89.996},{"zip":"70139","city":"New Orleans","state":"LA","lat":30.033,"long":-89.8826},{"zip":"70142","city":"New Orleans","state":"LA","lat":29.9546,"long":-90.0751},{"zip":"70143","city":"New Orleans","state":"LA","lat":29.9546,"long":-90.0751},{"zip":"70145","city":"New Orleans","state":"LA","lat":29.9546,"long":-90.0751},{"zip":"70146","city":"New Orleans","state":"LA","lat":29.9546,"long":-90.0751},{"zip":"70148","city":"New Orleans","state":"LA","lat":30.0309,"long":-90.068},{"zip":"70150","city":"New Orleans","state":"LA","lat":29.9546,"long":-90.0751},{"zip":"70151","city":"New Orleans","state":"LA","lat":29.9546,"long":-90.0751},{"zip":"70152","city":"New Orleans","state":"LA","lat":29.9546,"long":-90.0751},{"zip":"70153","city":"New Orleans","state":"LA","lat":29.9546,"long":-90.0751},{"zip":"70154","city":"New Orleans","state":"LA","lat":29.9546,"long":-90.0751},{"zip":"70156","city":"New Orleans","state":"LA","lat":29.9546,"long":-90.0751},{"zip":"70157","city":"New Orleans","state":"LA","lat":29.9546,"long":-90.0751},{"zip":"70158","city":"New Orleans","state":"LA","lat":29.9229,"long":-90.0709},{"zip":"70159","city":"New Orleans","state":"LA","lat":29.9546,"long":-90.0751},{"zip":"70160","city":"New Orleans","state":"LA","lat":29.9546,"long":-90.0751},{"zip":"70161","city":"New Orleans","state":"LA","lat":29.9546,"long":-90.0751},{"zip":"70162","city":"New Orleans","state":"LA","lat":29.9546,"long":-90.0751},{"zip":"70163","city":"New Orleans","state":"LA","lat":29.95,"long":-90.0755},{"zip":"70164","city":"New Orleans","state":"LA","lat":29.9546,"long":-90.0751},{"zip":"70165","city":"New Orleans","state":"LA","lat":29.9546,"long":-90.0751},{"zip":"70166","city":"New Orleans","state":"LA","lat":29.9546,"long":-90.0751},{"zip":"70167","city":"New Orleans","state":"LA","lat":29.9546,"long":-90.0751},{"zip":"70170","city":"New Orleans","state":"LA","lat":29.9546,"long":-90.0751},{"zip":"70172","city":"New Orleans","state":"LA","lat":29.9546,"long":-90.0751},{"zip":"70174","city":"New Orleans","state":"LA","lat":29.9546,"long":-90.0751},{"zip":"70175","city":"New Orleans","state":"LA","lat":29.9546,"long":-90.0751},{"zip":"70176","city":"New Orleans","state":"LA","lat":29.9546,"long":-90.0751},{"zip":"70177","city":"New Orleans","state":"LA","lat":29.9546,"long":-90.0751},{"zip":"70178","city":"New Orleans","state":"LA","lat":29.9546,"long":-90.0751},{"zip":"70179","city":"New Orleans","state":"LA","lat":29.9546,"long":-90.0751},{"zip":"70182","city":"New Orleans","state":"LA","lat":29.9546,"long":-90.0751},{"zip":"70184","city":"New Orleans","state":"LA","lat":29.9546,"long":-90.0751},{"zip":"70185","city":"New Orleans","state":"LA","lat":29.9546,"long":-90.0751},{"zip":"70186","city":"New Orleans","state":"LA","lat":29.9546,"long":-90.0751},{"zip":"70187","city":"New Orleans","state":"LA","lat":29.9546,"long":-90.0751},{"zip":"70189","city":"New Orleans","state":"LA","lat":29.9546,"long":-90.0751},{"zip":"70190","city":"New Orleans","state":"LA","lat":29.9546,"long":-90.0751},{"zip":"70195","city":"New Orleans","state":"LA","lat":29.9546,"long":-90.0751},{"zip":"71201","city":"Monroe","state":"LA","lat":32.5286,"long":-92.1061},{"zip":"71202","city":"Monroe","state":"LA","lat":32.3868,"long":-92.0722},{"zip":"71203","city":"Monroe","state":"LA","lat":32.553,"long":-92.0422},{"zip":"71207","city":"Monroe","state":"LA","lat":32.5093,"long":-92.1193},{"zip":"71209","city":"Monroe","state":"LA","lat":32.5277,"long":-92.0756},{"zip":"71210","city":"Monroe","state":"LA","lat":32.4908,"long":-92.1594},{"zip":"71211","city":"Monroe","state":"LA","lat":32.4908,"long":-92.1594},{"zip":"71212","city":"Monroe","state":"LA","lat":32.5093,"long":-92.1193},{"zip":"71213","city":"Monroe","state":"LA","lat":32.4908,"long":-92.1594},{"zip":"71217","city":"Monroe","state":"LA","lat":32.5116,"long":-92.0849},{"zip":"71225","city":"Calhoun","state":"LA","lat":32.5248,"long":-92.3299},{"zip":"71240","city":"Fairbanks","state":"LA","lat":32.6443,"long":-92.0365},{"zip":"71280","city":"Sterlington","state":"LA","lat":32.7119,"long":-92.0981},{"zip":"71281","city":"Swartz","state":"LA","lat":32.4908,"long":-92.1594},{"zip":"71291","city":"West Monroe","state":"LA","lat":32.5317,"long":-92.176},{"zip":"71292","city":"West Monroe","state":"LA","lat":32.4566,"long":-92.1854},{"zip":"71294","city":"West Monroe","state":"LA","lat":32.4908,"long":-92.1594},{"zip":"70037","city":"Belle Chasse","state":"LA","lat":29.8345,"long":-90.0042},{"zip":"70038","city":"Boothville","state":"LA","lat":29.3079,"long":-89.3814},{"zip":"70040","city":"Braithwaite","state":"LA","lat":29.7361,"long":-89.9197},{"zip":"70041","city":"Buras","state":"LA","lat":29.3519,"long":-89.5242},{"zip":"70050","city":"Empire","state":"LA","lat":29.3814,"long":-89.5926},{"zip":"70081","city":"Pilottown","state":"LA","lat":29.1816,"long":-89.2576},{"zip":"70082","city":"Pointe A La Hache","state":"LA","lat":29.542,"long":-89.7512},{"zip":"70083","city":"Port Sulphur","state":"LA","lat":29.47,"long":-89.6847},{"zip":"70091","city":"Venice","state":"LA","lat":29.2659,"long":-89.3761},{"zip":"70093","city":"Belle Chasse","state":"LA","lat":29.8549,"long":-89.9906},{"zip":"70715","city":"Batchelor","state":"LA","lat":30.8298,"long":-91.6944},{"zip":"70732","city":"Fordoche","state":"LA","lat":30.596,"long":-91.6165},{"zip":"70736","city":"Glynn","state":"LA","lat":30.6376,"long":-91.3423},{"zip":"70747","city":"Innis","state":"LA","lat":30.8736,"long":-91.6766},{"zip":"70749","city":"Jarreau","state":"LA","lat":30.6326,"long":-91.4332},{"zip":"70752","city":"Lakeland","state":"LA","lat":30.5799,"long":-91.4217},{"zip":"70753","city":"Lettsworth","state":"LA","lat":30.9324,"long":-91.7403},{"zip":"70755","city":"Livonia","state":"LA","lat":30.5524,"long":-91.5332},{"zip":"70756","city":"Lottie","state":"LA","lat":30.5563,"long":-91.6418},{"zip":"70759","city":"Morganza","state":"LA","lat":30.7245,"long":-91.5959},{"zip":"70760","city":"New Roads","state":"LA","lat":30.7014,"long":-91.4421},{"zip":"70762","city":"Oscar","state":"LA","lat":30.5983,"long":-91.4577},{"zip":"70773","city":"Rougon","state":"LA","lat":30.6035,"long":-91.3813},{"zip":"70783","city":"Ventress","state":"LA","lat":30.6814,"long":-91.4033},{"zip":"71301","city":"Alexandria","state":"LA","lat":31.2885,"long":-92.4633},{"zip":"71302","city":"Alexandria","state":"LA","lat":31.2683,"long":-92.4242},{"zip":"71303","city":"Alexandria","state":"LA","lat":31.3048,"long":-92.5089},{"zip":"71306","city":"Alexandria","state":"LA","lat":31.3113,"long":-92.4451},{"zip":"71307","city":"Alexandria","state":"LA","lat":31.2034,"long":-92.5269},{"zip":"71309","city":"Alexandria","state":"LA","lat":31.3047,"long":-92.6196},{"zip":"71315","city":"Alexandria","state":"LA","lat":31.1397,"long":-92.3984},{"zip":"71325","city":"Cheneyville","state":"LA","lat":31.0201,"long":-92.2951},{"zip":"71328","city":"Deville","state":"LA","lat":31.3574,"long":-92.1654},{"zip":"71330","city":"Echo","state":"LA","lat":31.1093,"long":-92.2395},{"zip":"71346","city":"Lecompte","state":"LA","lat":31.106,"long":-92.389},{"zip":"71348","city":"Libuse","state":"LA","lat":31.3541,"long":-92.3335},{"zip":"71359","city":"Pineville","state":"LA","lat":31.3224,"long":-92.4343},{"zip":"71360","city":"Pineville","state":"LA","lat":31.2232,"long":-92.3203},{"zip":"71361","city":"Pineville","state":"LA","lat":31.3692,"long":-92.4198},{"zip":"71365","city":"Ruby","state":"LA","lat":31.1894,"long":-92.2487},{"zip":"71405","city":"Ball","state":"LA","lat":31.4151,"long":-92.3945},{"zip":"71409","city":"Boyce","state":"LA","lat":31.3216,"long":-92.6867},{"zip":"71424","city":"Elmer","state":"LA","lat":31.1465,"long":-92.7171},{"zip":"71427","city":"Flatwoods","state":"LA","lat":31.3849,"long":-92.8812},{"zip":"71430","city":"Forest Hill","state":"LA","lat":31.0243,"long":-92.5108},{"zip":"71431","city":"Gardner","state":"LA","lat":31.2587,"long":-92.6775},{"zip":"71433","city":"Glenmora","state":"LA","lat":31.0262,"long":-92.616},{"zip":"71438","city":"Hineston","state":"LA","lat":31.1669,"long":-92.7375},{"zip":"71447","city":"Lena","state":"LA","lat":31.4207,"long":-92.8312},{"zip":"71448","city":"Longleaf","state":"LA","lat":31.0066,"long":-92.5526},{"zip":"71466","city":"Otis","state":"LA","lat":31.2077,"long":-92.7392},{"zip":"71472","city":"Sieper","state":"LA","lat":31.1976,"long":-92.7858},{"zip":"71477","city":"Tioga","state":"LA","lat":31.3999,"long":-92.6042},{"zip":"71485","city":"Woodworth","state":"LA","lat":31.1635,"long":-92.5322},{"zip":"71019","city":"Coushatta","state":"LA","lat":32.0231,"long":-93.2648},{"zip":"71034","city":"Hall Summit","state":"LA","lat":32.1752,"long":-93.3047},{"zip":"71218","city":"Archibald","state":"LA","lat":32.3632,"long":-91.7693},{"zip":"71232","city":"Delhi","state":"LA","lat":32.3929,"long":-91.4714},{"zip":"71259","city":"Mangham","state":"LA","lat":32.3331,"long":-91.7976},{"zip":"71269","city":"Rayville","state":"LA","lat":32.4456,"long":-91.7433},{"zip":"71279","city":"Start","state":"LA","lat":32.4865,"long":-91.8593},{"zip":"71065","city":"Pleasant Hill","state":"LA","lat":31.8086,"long":-93.5136},{"zip":"71406","city":"Belmont","state":"LA","lat":31.71,"long":-93.4959},{"zip":"71419","city":"Converse","state":"LA","lat":31.7339,"long":-93.6902},{"zip":"71426","city":"Fisher","state":"LA","lat":31.4937,"long":-93.4602},{"zip":"71429","city":"Florien","state":"LA","lat":31.4275,"long":-93.5179},{"zip":"71449","city":"Many","state":"LA","lat":31.5851,"long":-93.4641},{"zip":"71460","city":"Negreet","state":"LA","lat":31.4693,"long":-93.5749},{"zip":"71462","city":"Noble","state":"LA","lat":31.6938,"long":-93.7167},{"zip":"71486","city":"Zwolle","state":"LA","lat":31.6138,"long":-93.6636},{"zip":"70032","city":"Arabi","state":"LA","lat":29.9612,"long":-89.9965},{"zip":"70043","city":"Chalmette","state":"LA","lat":29.9466,"long":-89.9611},{"zip":"70044","city":"Chalmette","state":"LA","lat":29.9676,"long":-89.9514},{"zip":"70075","city":"Meraux","state":"LA","lat":29.9335,"long":-89.9214},{"zip":"70085","city":"Saint Bernard","state":"LA","lat":29.8611,"long":-89.8364},{"zip":"70092","city":"Violet","state":"LA","lat":29.9043,"long":-89.896},{"zip":"70030","city":"Des Allemands","state":"LA","lat":29.8134,"long":-90.4407},{"zip":"70031","city":"Ama","state":"LA","lat":29.9435,"long":-90.2925},{"zip":"70039","city":"Boutte","state":"LA","lat":29.8973,"long":-90.3934},{"zip":"70047","city":"Destrehan","state":"LA","lat":29.9642,"long":-90.3682},{"zip":"70057","city":"Hahnville","state":"LA","lat":29.9668,"long":-90.4082},{"zip":"70070","city":"Luling","state":"LA","lat":29.9251,"long":-90.3693},{"zip":"70078","city":"New Sarpy","state":"LA","lat":29.9817,"long":-90.3859},{"zip":"70079","city":"Norco","state":"LA","lat":30.0057,"long":-90.4198},{"zip":"70080","city":"Paradis","state":"LA","lat":29.877,"long":-90.4352},{"zip":"70087","city":"Saint Rose","state":"LA","lat":29.9581,"long":-90.3124},{"zip":"70441","city":"Greensburg","state":"LA","lat":30.8647,"long":-90.7256},{"zip":"70453","city":"Pine Grove","state":"LA","lat":30.7032,"long":-90.7672},{"zip":"70052","city":"Gramercy","state":"LA","lat":30.0527,"long":-90.6902},{"zip":"70071","city":"Lutcher","state":"LA","lat":30.0447,"long":-90.7008},{"zip":"70086","city":"Saint James","state":"LA","lat":30.0276,"long":-90.8605},{"zip":"70090","city":"Vacherie","state":"LA","lat":29.9694,"long":-90.7097},{"zip":"70723","city":"Convent","state":"LA","lat":30.0208,"long":-90.8298},{"zip":"70743","city":"Hester","state":"LA","lat":30.0206,"long":-90.7814},{"zip":"70763","city":"Paulina","state":"LA","lat":30.0352,"long":-90.7374},{"zip":"70792","city":"Uncle Sam","state":"LA","lat":30.0279,"long":-90.8028},{"zip":"70049","city":"Edgard","state":"LA","lat":30.0319,"long":-90.5817},{"zip":"70051","city":"Garyville","state":"LA","lat":30.0535,"long":-90.6201},{"zip":"70068","city":"La Place","state":"LA","lat":30.0777,"long":-90.4895},{"zip":"70069","city":"La Place","state":"LA","lat":30.0912,"long":-90.4832},{"zip":"70076","city":"Mount Airy","state":"LA","lat":30.0575,"long":-90.6369},{"zip":"70084","city":"Reserve","state":"LA","lat":30.0603,"long":-90.5518},{"zip":"70512","city":"Arnaudville","state":"LA","lat":30.3981,"long":-91.9263},{"zip":"70535","city":"Eunice","state":"LA","lat":30.5116,"long":-92.3985},{"zip":"70541","city":"Grand Coteau","state":"LA","lat":30.4201,"long":-92.0462},{"zip":"70550","city":"Lawtell","state":"LA","lat":30.5165,"long":-92.1841},{"zip":"70551","city":"Leonville","state":"LA","lat":30.4752,"long":-91.9737},{"zip":"70570","city":"Opelousas","state":"LA","lat":30.5144,"long":-92.0897},{"zip":"70571","city":"Opelousas","state":"LA","lat":30.5335,"long":-92.0815},{"zip":"70577","city":"Port Barre","state":"LA","lat":30.5478,"long":-91.9286},{"zip":"70584","city":"Sunset","state":"LA","lat":30.3884,"long":-92.0934},{"zip":"70589","city":"Washington","state":"LA","lat":30.6839,"long":-92.0252},{"zip":"70750","city":"Krotz Springs","state":"LA","lat":30.5379,"long":-91.7563},{"zip":"71345","city":"Lebeau","state":"LA","lat":30.7292,"long":-91.9755},{"zip":"71353","city":"Melville","state":"LA","lat":30.6626,"long":-91.7565},{"zip":"71356","city":"Morrow","state":"LA","lat":30.8299,"long":-92.0426},{"zip":"71358","city":"Palmetto","state":"LA","lat":30.7065,"long":-91.9114},{"zip":"70517","city":"Breaux Bridge","state":"LA","lat":30.2948,"long":-91.8296},