[{"zip":"70081","city":"Pilottown","state":"LA","lat":29.1816,"long":-89.2576},{"zip":"70082","city":"Pointe A La Hache","state":"LA","lat":29.542,"long":-89.7512},{"zip":"70083","city":"Port Sulphur","state":"LA","lat":29.47,"long":-89.6847},{"zip":"70085","city":"Saint Bernard","state":"LA","lat":29.8611,"long":-89.8364},{"zip":"70080","city":"Paradis","state":"LA","lat":29.877,"long":-90.4352},{"zip":"70087","city":"Saint Rose","state":"LA","lat":29.9581,"long":-90.3124},{"zip":"70086","city":"Saint James","state":"LA","lat":30.0276,"long":-90.8605},{"zip":"70084","city":"Reserve","state":"LA","lat":30.0603,"long":-90.5518}]
