[{"zip":"70449","city":"Maurepas","state":"LA","lat":30.2716,"long":-90.7043},{"zip":"70441","city":"Greensburg","state":"LA","lat":30.8647,"long":-90.7256},{"zip":"70445","city":"Lacombe","state":"LA","lat":30.322,"long":-89.9297},{"zip":"70447","city":"Madisonville","state":"LA","lat":30.4287,"long":-90.1773},{"zip":"70448","city":"Mandeville","state":"LA","lat":30.3666,"long":-90.0487},{"zip":"70442","city":"Husser","state":"LA","lat":30.692,"long":-90.339},{"zip":"70443","city":"Independence","state":"LA","lat":30.6351,"long":-90.5277},{"zip":"70444","city":"Kentwood","state":"LA","lat":30.8892,"long":-90.4728},{"zip":"70446","city":"Loranger","state":"LA","lat":30.5884,"long":-90.3567}]
