[{"zip":"70453","city":"Pine Grove","state":"LA","lat":30.7032,"long":-90.7672},{"zip":"70452","city":"Pearl River","state":"LA","lat":30.3944,"long":-89.7732},{"zip":"70457","city":"Saint Benedict","state":"LA","lat":30.5269,"long":-90.1126},{"zip":"70458","city":"Slidell","state":"LA","lat":30.2784,"long":-89.7712},{"zip":"70459","city":"Slidell","state":"LA","lat":30.4255,"long":-89.8813},{"zip":"70451","city":"Natalbany","state":"LA","lat":30.5519,"long":-90.4859},{"zip":"70454","city":"Ponchatoula","state":"LA","lat":30.4406,"long":-90.4422},{"zip":"70455","city":"Robert","state":"LA","lat":30.5063,"long":-90.3352},{"zip":"70456","city":"Roseland","state":"LA","lat":30.7717,"long":-90.5243},{"zip":"70450","city":"Mount Hermon","state":"LA","lat":30.9536,"long":-90.2769}]
