[{"zip":"70660","city":"Singer","state":"LA","lat":30.5329,"long":-93.465},{"zip":"70662","city":"Sugartown","state":"LA","lat":30.8277,"long":-93.017},{"zip":"70661","city":"Starks","state":"LA","lat":30.3085,"long":-93.6615},{"zip":"70663","city":"Sulphur","state":"LA","lat":30.219,"long":-93.3639},{"zip":"70664","city":"Sulphur","state":"LA","lat":30.2642,"long":-93.3265},{"zip":"70665","city":"Sulphur","state":"LA","lat":30.2009,"long":-93.4437},{"zip":"70668","city":"Vinton","state":"LA","lat":30.2015,"long":-93.5728},{"zip":"70669","city":"Westlake","state":"LA","lat":30.2613,"long":-93.2688}]
