[{"zip":"70774","city":"Saint Amant","state":"LA","lat":30.2385,"long":-90.8435},{"zip":"70778","city":"Sorrento","state":"LA","lat":30.1854,"long":-90.8631},{"zip":"70770","city":"Pride","state":"LA","lat":30.6133,"long":-90.9943},{"zip":"70777","city":"Slaughter","state":"LA","lat":30.7383,"long":-91.07},{"zip":"70772","city":"Rosedale","state":"LA","lat":30.4408,"long":-91.4562},{"zip":"70776","city":"Saint Gabriel","state":"LA","lat":30.2528,"long":-91.0857},{"zip":"70773","city":"Rougon","state":"LA","lat":30.6035,"long":-91.3813},{"zip":"70775","city":"Saint Francisville","state":"LA","lat":30.8694,"long":-91.4186}]
