[{"zip":"71001","city":"Arcadia","state":"LA","lat":32.5556,"long":-92.9245},{"zip":"71008","city":"Bienville","state":"LA","lat":32.2523,"long":-92.9084},{"zip":"71006","city":"Benton","state":"LA","lat":32.6976,"long":-93.691},{"zip":"71004","city":"Belcher","state":"LA","lat":32.7544,"long":-93.8508},{"zip":"71007","city":"Bethany","state":"LA","lat":32.3662,"long":-94.0034},{"zip":"71009","city":"Blanchard","state":"LA","lat":32.5719,"long":-93.8871},{"zip":"71003","city":"Athens","state":"LA","lat":32.6451,"long":-93.0239},{"zip":"71002","city":"Ashland","state":"LA","lat":32.1378,"long":-93.0906}]
