[{"zip":"71463","city":"Oakdale","state":"LA","lat":30.8172,"long":-92.664},{"zip":"71467","city":"Pollock","state":"LA","lat":31.5,"long":-92.4005},{"zip":"71465","city":"Olla","state":"LA","lat":31.8734,"long":-92.2214},{"zip":"71468","city":"Provencal","state":"LA","lat":31.5157,"long":-93.1488},{"zip":"71469","city":"Robeline","state":"LA","lat":31.7715,"long":-93.321},{"zip":"71466","city":"Otis","state":"LA","lat":31.2077,"long":-92.7392},{"zip":"71460","city":"Negreet","state":"LA","lat":31.4693,"long":-93.5749},{"zip":"71462","city":"Noble","state":"LA","lat":31.6938,"long":-93.7167},{"zip":"71461","city":"New Llano","state":"LA","lat":31.1149,"long":-93.2716}]
