[{"zip":"71661","city":"Parkdale","state":"AR","lat":33.1213,"long":-91.5428},{"zip":"71663","city":"Portland","state":"AR","lat":33.2318,"long":-91.5139},{"zip":"71660","city":"New Edinburg","state":"AR","lat":33.7588,"long":-92.1939},{"zip":"71665","city":"Rison","state":"AR","lat":33.9453,"long":-92.1188},{"zip":"71662","city":"Pickens","state":"AR","lat":33.842,"long":-91.5022},{"zip":"71666","city":"Rohwer","state":"AR","lat":33.7609,"long":-91.2757},{"zip":"71667","city":"Star City","state":"AR","lat":33.9405,"long":-91.8653}]
