[{"zip":"71861","city":"Taylor","state":"AR","lat":33.108,"long":-93.446},{"zip":"71862","city":"Washington","state":"AR","lat":33.7546,"long":-93.6735},{"zip":"71860","city":"Stamps","state":"AR","lat":33.3569,"long":-93.5013},{"zip":"71865","city":"Wilton","state":"AR","lat":33.7475,"long":-94.1518},{"zip":"71866","city":"Winthrop","state":"AR","lat":33.8583,"long":-94.3952},{"zip":"71864","city":"Willisville","state":"AR","lat":33.7008,"long":-93.2941}]
