[{"zip":"71949","city":"Jessieville","state":"AR","lat":34.7094,"long":-93.0382},{"zip":"71941","city":"Donaldson","state":"AR","lat":34.2212,"long":-92.9094},{"zip":"71942","city":"Friendship","state":"AR","lat":34.2235,"long":-93.0024},{"zip":"71940","city":"Delight","state":"AR","lat":34.0238,"long":-93.5247},{"zip":"71943","city":"Glenwood","state":"AR","lat":34.3192,"long":-93.5559},{"zip":"71944","city":"Grannis","state":"AR","lat":34.237,"long":-94.3255},{"zip":"71945","city":"Hatfield","state":"AR","lat":34.4877,"long":-94.3714}]
