[{"zip":"72042","city":"De Witt","state":"AR","lat":34.2853,"long":-91.3336},{"zip":"72048","city":"Ethel","state":"AR","lat":34.2435,"long":-91.1398},{"zip":"72044","city":"Edgemont","state":"AR","lat":35.6321,"long":-92.157},{"zip":"72047","city":"Enola","state":"AR","lat":35.2087,"long":-92.2123},{"zip":"72043","city":"Diaz","state":"AR","lat":35.6336,"long":-91.2592},{"zip":"72046","city":"England","state":"AR","lat":34.5575,"long":-91.9484},{"zip":"72040","city":"Des Arc","state":"AR","lat":34.9751,"long":-91.5113},{"zip":"72041","city":"De Valls Bluff","state":"AR","lat":34.7447,"long":-91.4982},{"zip":"72045","city":"El Paso","state":"AR","lat":35.1142,"long":-92.0901}]
