[{"zip":"72055","city":"Gillett","state":"AR","lat":34.1218,"long":-91.38},{"zip":"72058","city":"Greenbrier","state":"AR","lat":35.2295,"long":-92.3578},{"zip":"72057","city":"Grapevine","state":"AR","lat":34.1309,"long":-92.3109},{"zip":"72053","city":"College Station","state":"AR","lat":34.7093,"long":-92.2283},{"zip":"72051","city":"Fox","state":"AR","lat":35.7682,"long":-92.3043},{"zip":"72052","city":"Garner","state":"AR","lat":35.1443,"long":-91.7772},{"zip":"72059","city":"Gregory","state":"AR","lat":35.1554,"long":-91.3432}]
