[{"zip":"72067","city":"Higden","state":"AR","lat":35.5685,"long":-92.1341},{"zip":"72063","city":"Hattieville","state":"AR","lat":35.2907,"long":-92.7783},{"zip":"72061","city":"Guy","state":"AR","lat":35.3239,"long":-92.2878},{"zip":"72069","city":"Holly Grove","state":"AR","lat":34.5993,"long":-91.1844},{"zip":"72064","city":"Hazen","state":"AR","lat":34.7838,"long":-91.5767},{"zip":"72066","city":"Hickory Plains","state":"AR","lat":34.9901,"long":-91.7368},{"zip":"72065","city":"Hensley","state":"AR","lat":34.5208,"long":-92.2758},{"zip":"72060","city":"Griffithville","state":"AR","lat":35.1144,"long":-91.6242},{"zip":"72068","city":"Higginson","state":"AR","lat":35.1903,"long":-91.7108}]
