[{"zip":"72080","city":"Jerusalem","state":"AR","lat":35.5699,"long":-92.8251},{"zip":"72087","city":"Lonsdale","state":"AR","lat":34.5562,"long":-92.834},{"zip":"72084","city":"Leola","state":"AR","lat":34.1856,"long":-92.5979},{"zip":"72083","city":"Keo","state":"AR","lat":34.6041,"long":-92.0078},{"zip":"72086","city":"Lonoke","state":"AR","lat":34.7832,"long":-91.9214},{"zip":"72089","city":"Bryant","state":"AR","lat":34.5959,"long":-92.489},{"zip":"72088","city":"Fairfield Bay","state":"AR","lat":35.6027,"long":-92.2742},{"zip":"72081","city":"Judsonia","state":"AR","lat":35.325,"long":-91.6491},{"zip":"72082","city":"Kensett","state":"AR","lat":35.2388,"long":-91.6731},{"zip":"72085","city":"Letona","state":"AR","lat":35.3617,"long":-91.8293}]
