[{"zip":"72130","city":"Prim","state":"AR","lat":35.6674,"long":-92.0933},{"zip":"72131","city":"Quitman","state":"AR","lat":35.405,"long":-92.1333},{"zip":"72132","city":"Redfield","state":"AR","lat":34.4526,"long":-92.1758},{"zip":"72133","city":"Reydell","state":"AR","lat":34.1715,"long":-91.5656},{"zip":"72134","city":"Roe","state":"AR","lat":34.6286,"long":-91.3771},{"zip":"72135","city":"Roland","state":"AR","lat":34.8829,"long":-92.5192},{"zip":"72136","city":"Romance","state":"AR","lat":35.2155,"long":-92.0699},{"zip":"72137","city":"Rose Bud","state":"AR","lat":35.3214,"long":-92.062},{"zip":"72139","city":"Russell","state":"AR","lat":35.3609,"long":-91.5071}]
