[{"zip":"72384","city":"Turrell","state":"AR","lat":35.3439,"long":-90.2978},{"zip":"72387","city":"Vanndale","state":"AR","lat":35.3245,"long":-90.7712},{"zip":"72383","city":"Turner","state":"AR","lat":34.4762,"long":-91.0187},{"zip":"72389","city":"Wabash","state":"AR","lat":34.3466,"long":-90.8869},{"zip":"72386","city":"Tyronza","state":"AR","lat":35.4865,"long":-90.3519}]
