[{"zip":"72422","city":"Corning","state":"AR","lat":36.4155,"long":-90.587},{"zip":"72424","city":"Datto","state":"AR","lat":36.3897,"long":-90.7231},{"zip":"72421","city":"Cash","state":"AR","lat":35.8301,"long":-90.941},{"zip":"72427","city":"Egypt","state":"AR","lat":35.864,"long":-90.9428},{"zip":"72425","city":"Delaplaine","state":"AR","lat":36.1995,"long":-90.7345},{"zip":"72426","city":"Dell","state":"AR","lat":35.8554,"long":-90.0418},{"zip":"72428","city":"Etowah","state":"AR","lat":35.7337,"long":-90.1838},{"zip":"72429","city":"Fisher","state":"AR","lat":35.514,"long":-90.955}]
