[{"zip":"72554","city":"Mammoth Spring","state":"AR","lat":36.4076,"long":-91.5757},{"zip":"72550","city":"Locust Grove","state":"AR","lat":35.7177,"long":-91.7414},{"zip":"72553","city":"Magness","state":"AR","lat":35.6941,"long":-91.4753},{"zip":"72556","city":"Melbourne","state":"AR","lat":36.0635,"long":-91.9079},{"zip":"72555","city":"Marcella","state":"AR","lat":35.7756,"long":-91.8718}]
