[{"zip":"72623","city":"Clarkridge","state":"AR","lat":36.4724,"long":-92.3296},{"zip":"72626","city":"Cotter","state":"AR","lat":36.2712,"long":-92.5354},{"zip":"72624","city":"Compton","state":"AR","lat":36.0979,"long":-93.3099},{"zip":"72628","city":"Deer","state":"AR","lat":35.853,"long":-93.3174},{"zip":"72629","city":"Dennard","state":"AR","lat":35.7252,"long":-92.5575}]
