[{"zip":"73449","city":"Mead","state":"OK","lat":33.9944,"long":-96.5299},{"zip":"73443","city":"Lone Grove","state":"OK","lat":34.1774,"long":-97.2685},{"zip":"73444","city":"Hennepin","state":"OK","lat":34.4719,"long":-97.3879},{"zip":"73447","city":"Mannsville","state":"OK","lat":34.1899,"long":-96.8778},{"zip":"73441","city":"Leon","state":"OK","lat":33.8793,"long":-97.4292},{"zip":"73448","city":"Marietta","state":"OK","lat":33.9431,"long":-97.1148},{"zip":"73440","city":"Lebanon","state":"OK","lat":33.9687,"long":-96.9064},{"zip":"73446","city":"Madill","state":"OK","lat":34.0784,"long":-96.7597},{"zip":"73442","city":"Loco","state":"OK","lat":34.3214,"long":-97.6658}]
