[{"zip":"73644","city":"Elk City","state":"OK","lat":35.4104,"long":-99.4211},{"zip":"73645","city":"Erick","state":"OK","lat":35.2286,"long":-99.8635},{"zip":"73648","city":"Elk City","state":"OK","lat":35.412,"long":-99.4043},{"zip":"73646","city":"Fay","state":"OK","lat":35.8204,"long":-98.6587},{"zip":"73642","city":"Durham","state":"OK","lat":35.8364,"long":-99.9088},{"zip":"73641","city":"Dill City","state":"OK","lat":35.2787,"long":-99.1537},{"zip":"73647","city":"Foss","state":"OK","lat":35.4545,"long":-99.1698}]
