[{"zip":"73763","city":"Okeene","state":"OK","lat":36.1165,"long":-98.3254},{"zip":"73761","city":"Nash","state":"OK","lat":36.6961,"long":-98.0258},{"zip":"73766","city":"Pond Creek","state":"OK","lat":36.6643,"long":-97.8019},{"zip":"73762","city":"Okarche","state":"OK","lat":35.7502,"long":-97.93},{"zip":"73764","city":"Omega","state":"OK","lat":35.8507,"long":-98.1863},{"zip":"73760","city":"Meno","state":"OK","lat":36.3815,"long":-98.1635},{"zip":"73768","city":"Ringwood","state":"OK","lat":36.3753,"long":-98.2706}]
