[{"zip":"74028","city":"Depew","state":"OK","lat":35.7561,"long":-96.4897},{"zip":"74026","city":"Davenport","state":"OK","lat":35.7089,"long":-96.767},{"zip":"74027","city":"Delaware","state":"OK","lat":36.7804,"long":-95.6181},{"zip":"74020","city":"Cleveland","state":"OK","lat":36.2553,"long":-96.423},{"zip":"74023","city":"Cushing","state":"OK","lat":35.9822,"long":-96.7526},{"zip":"74021","city":"Collinsville","state":"OK","lat":36.3701,"long":-95.8469},{"zip":"74022","city":"Copan","state":"OK","lat":36.9062,"long":-95.913},{"zip":"74029","city":"Dewey","state":"OK","lat":36.8013,"long":-95.9345}]
