[{"zip":"74041","city":"Kiefer","state":"OK","lat":35.9528,"long":-96.061},{"zip":"74044","city":"Mannford","state":"OK","lat":36.0927,"long":-96.3576},{"zip":"74046","city":"Milfay","state":"OK","lat":35.7551,"long":-96.5658},{"zip":"74047","city":"Mounds","state":"OK","lat":35.8896,"long":-96.0887},{"zip":"74042","city":"Lenapah","state":"OK","lat":36.8801,"long":-95.6233},{"zip":"74048","city":"Nowata","state":"OK","lat":36.6946,"long":-95.6404},{"zip":"74045","city":"Maramec","state":"OK","lat":36.242,"long":-96.6803},{"zip":"74043","city":"Leonard","state":"OK","lat":35.9183,"long":-95.7988}]
