[{"zip":"74083","city":"Wann","state":"OK","lat":36.9402,"long":-95.7768},{"zip":"74084","city":"Wynona","state":"OK","lat":36.5462,"long":-96.3272},{"zip":"74081","city":"Terlton","state":"OK","lat":36.1889,"long":-96.4876},{"zip":"74085","city":"Yale","state":"OK","lat":36.1101,"long":-96.7022},{"zip":"74080","city":"Talala","state":"OK","lat":36.5429,"long":-95.7142},{"zip":"74082","city":"Vera","state":"OK","lat":36.4501,"long":-95.8814}]
