[{"zip":"74427","city":"Cookson","state":"OK","lat":35.7116,"long":-94.9132},{"zip":"74426","city":"Checotah","state":"OK","lat":35.4358,"long":-95.535},{"zip":"74422","city":"Boynton","state":"OK","lat":35.6577,"long":-95.66},{"zip":"74423","city":"Braggs","state":"OK","lat":35.6574,"long":-95.2033},{"zip":"74428","city":"Council Hill","state":"OK","lat":35.5556,"long":-95.6514},{"zip":"74421","city":"Beggs","state":"OK","lat":35.7896,"long":-96.0264},{"zip":"74425","city":"Canadian","state":"OK","lat":35.1571,"long":-95.6215},{"zip":"74429","city":"Coweta","state":"OK","lat":35.9578,"long":-95.6526}]
