[{"zip":"74533","city":"Caney","state":"OK","lat":34.2221,"long":-96.2584},{"zip":"74534","city":"Centrahoma","state":"OK","lat":34.6066,"long":-96.3386},{"zip":"74535","city":"Clarita","state":"OK","lat":34.4829,"long":-96.4333},{"zip":"74538","city":"Coalgate","state":"OK","lat":34.5344,"long":-96.2167},{"zip":"74531","city":"Calvin","state":"OK","lat":34.878,"long":-96.271},{"zip":"74530","city":"Bromide","state":"OK","lat":34.4233,"long":-96.4867},{"zip":"74536","city":"Clayton","state":"OK","lat":34.5906,"long":-95.38}]
