[{"zip":"74569","city":"Stringtown","state":"OK","lat":34.4676,"long":-96.0002},{"zip":"74563","city":"Red Oak","state":"OK","lat":34.9422,"long":-95.0904},{"zip":"74560","city":"Pittsburg","state":"OK","lat":34.6975,"long":-95.8439},{"zip":"74561","city":"Quinton","state":"OK","lat":35.1547,"long":-95.4671},{"zip":"74565","city":"Savanna","state":"OK","lat":34.8354,"long":-95.838},{"zip":"74562","city":"Rattan","state":"OK","lat":34.2454,"long":-95.3442},{"zip":"74567","city":"Snow","state":"OK","lat":34.4419,"long":-95.4622}]
