[{"zip":"74720","city":"Achille","state":"OK","lat":33.8396,"long":-96.3648},{"zip":"74721","city":"Albany","state":"OK","lat":33.8815,"long":-96.1628},{"zip":"74723","city":"Bennington","state":"OK","lat":33.9771,"long":-96.0188},{"zip":"74726","city":"Bokchito","state":"OK","lat":33.9859,"long":-96.1621},{"zip":"74729","city":"Caddo","state":"OK","lat":34.1157,"long":-96.26},{"zip":"74727","city":"Boswell","state":"OK","lat":34.0245,"long":-95.8403},{"zip":"74722","city":"Battiest","state":"OK","lat":34.3934,"long":-94.9249},{"zip":"74724","city":"Bethel","state":"OK","lat":34.3598,"long":-94.8374},{"zip":"74728","city":"Broken Bow","state":"OK","lat":34.027,"long":-94.7623}]
