[{"zip":"74730","city":"Calera","state":"OK","lat":33.9322,"long":-96.4308},{"zip":"74731","city":"Cartwright","state":"OK","lat":33.8668,"long":-96.5672},{"zip":"74733","city":"Colbert","state":"OK","lat":33.8575,"long":-96.4953},{"zip":"74735","city":"Fort Towson","state":"OK","lat":34.052,"long":-95.253},{"zip":"74738","city":"Grant","state":"OK","lat":33.9302,"long":-95.4893},{"zip":"74734","city":"Eagletown","state":"OK","lat":34.0364,"long":-94.5596},{"zip":"74736","city":"Garvin","state":"OK","lat":33.9192,"long":-94.986},{"zip":"74737","city":"Golden","state":"OK","lat":34.0303,"long":-94.8986}]
