[{"zip":"74741","city":"Hendrix","state":"OK","lat":33.8016,"long":-96.3581},{"zip":"74747","city":"Kemp","state":"OK","lat":33.773,"long":-96.3555},{"zip":"74748","city":"Kenefic","state":"OK","lat":34.1481,"long":-96.3622},{"zip":"74743","city":"Hugo","state":"OK","lat":34.0113,"long":-95.5139},{"zip":"74740","city":"Haworth","state":"OK","lat":33.785,"long":-94.633},{"zip":"74745","city":"Idabel","state":"OK","lat":33.8851,"long":-94.802}]
