[{"zip":"74872","city":"Stratford","state":"OK","lat":34.7714,"long":-96.9763},{"zip":"74875","city":"Tryon","state":"OK","lat":35.8759,"long":-96.9623},{"zip":"74871","city":"Stonewall","state":"OK","lat":34.6511,"long":-96.5273},{"zip":"74873","city":"Tecumseh","state":"OK","lat":35.2502,"long":-96.9667},{"zip":"74878","city":"Wanette","state":"OK","lat":34.9983,"long":-97.0419}]
