[{"zip":"75432","city":"Cooper","state":"TX","lat":33.3812,"long":-95.6623},{"zip":"75438","city":"Dodd City","state":"TX","lat":33.5647,"long":-96.0619},{"zip":"75439","city":"Ector","state":"TX","lat":33.5819,"long":-96.2735},{"zip":"75431","city":"Como","state":"TX","lat":33.0107,"long":-95.4734},{"zip":"75433","city":"Cumby","state":"TX","lat":33.1118,"long":-95.7945},{"zip":"75437","city":"Dike","state":"TX","lat":33.2648,"long":-95.4423},{"zip":"75434","city":"Cunningham","state":"TX","lat":33.409,"long":-95.3711},{"zip":"75435","city":"Deport","state":"TX","lat":33.5221,"long":-95.3654},{"zip":"75436","city":"Detroit","state":"TX","lat":33.6627,"long":-95.2385}]
