[{"zip":"75656","city":"Hughes Springs","state":"TX","lat":33.0168,"long":-94.6228},{"zip":"75650","city":"Hallsville","state":"TX","lat":32.5073,"long":-94.5333},{"zip":"75651","city":"Harleton","state":"TX","lat":32.6579,"long":-94.4652},{"zip":"75659","city":"Jonesville","state":"TX","lat":32.5075,"long":-94.1106},{"zip":"75657","city":"Jefferson","state":"TX","lat":32.8059,"long":-94.3655},{"zip":"75652","city":"Henderson","state":"TX","lat":32.2131,"long":-94.7834},{"zip":"75653","city":"Henderson","state":"TX","lat":32.1532,"long":-94.7994},{"zip":"75654","city":"Henderson","state":"TX","lat":32.126,"long":-94.7488},{"zip":"75658","city":"Joinerville","state":"TX","lat":32.1959,"long":-94.9065}]
