[{"zip":"75763","city":"Frankston","state":"TX","lat":32.0535,"long":-95.5163},{"zip":"75764","city":"Gallatin","state":"TX","lat":31.891,"long":-95.1455},{"zip":"75766","city":"Jacksonville","state":"TX","lat":31.9618,"long":-95.2703},{"zip":"75760","city":"Cushing","state":"TX","lat":31.7978,"long":-94.8539},{"zip":"75762","city":"Flint","state":"TX","lat":32.2079,"long":-95.3948},{"zip":"75765","city":"Hawkins","state":"TX","lat":32.6439,"long":-95.222}]
