[{"zip":"75832","city":"Cayuga","state":"TX","lat":31.9571,"long":-95.9747},{"zip":"75839","city":"Elkhart","state":"TX","lat":31.648,"long":-95.5551},{"zip":"75838","city":"Donie","state":"TX","lat":31.4873,"long":-96.2387},{"zip":"75835","city":"Crockett","state":"TX","lat":31.3208,"long":-95.3928},{"zip":"75831","city":"Buffalo","state":"TX","lat":31.4121,"long":-95.9904},{"zip":"75833","city":"Centerville","state":"TX","lat":31.272,"long":-95.9213},{"zip":"75834","city":"Centralia","state":"TX","lat":31.258,"long":-95.0399}]
