[{"zip":"76070","city":"Nemo","state":"TX","lat":32.2713,"long":-97.6567},{"zip":"76077","city":"Rainbow","state":"TX","lat":32.2812,"long":-97.7065},{"zip":"76071","city":"Newark","state":"TX","lat":33.007,"long":-97.4923},{"zip":"76073","city":"Paradise","state":"TX","lat":33.0826,"long":-97.6974},{"zip":"76078","city":"Rhome","state":"TX","lat":33.054,"long":-97.4817}]
