[{"zip":"76366","city":"Holliday","state":"TX","lat":33.8162,"long":-98.6951},{"zip":"76365","city":"Henrietta","state":"TX","lat":33.8196,"long":-98.26},{"zip":"76363","city":"Goree","state":"TX","lat":33.4748,"long":-99.5258},{"zip":"76360","city":"Electra","state":"TX","lat":34.0362,"long":-98.9155},{"zip":"76367","city":"Iowa Park","state":"TX","lat":33.9423,"long":-98.6745},{"zip":"76369","city":"Kamay","state":"TX","lat":33.8579,"long":-98.8081},{"zip":"76364","city":"Harrold","state":"TX","lat":34.0971,"long":-99.0351}]
