[{"zip":"76370","city":"Megargel","state":"TX","lat":33.4533,"long":-98.9297},{"zip":"76379","city":"Scotland","state":"TX","lat":33.6535,"long":-98.465},{"zip":"76377","city":"Petrolia","state":"TX","lat":34.0132,"long":-98.2323},{"zip":"76371","city":"Munday","state":"TX","lat":33.4561,"long":-99.6326},{"zip":"76373","city":"Oklaunion","state":"TX","lat":34.1295,"long":-99.1429},{"zip":"76372","city":"Newcastle","state":"TX","lat":33.1901,"long":-98.7446},{"zip":"76374","city":"Olney","state":"TX","lat":33.3601,"long":-98.7427}]
