[{"zip":"76474","city":"Sidney","state":"TX","lat":31.932,"long":-98.768},{"zip":"76470","city":"Ranger","state":"TX","lat":32.4681,"long":-98.6747},{"zip":"76471","city":"Rising Star","state":"TX","lat":32.128,"long":-98.9859},{"zip":"76476","city":"Tolar","state":"TX","lat":32.3772,"long":-97.8802},{"zip":"76472","city":"Santo","state":"TX","lat":32.5979,"long":-98.1797},{"zip":"76475","city":"Strawn","state":"TX","lat":32.5945,"long":-98.4995}]
