[{"zip":"76862","city":"Millersview","state":"TX","lat":31.4167,"long":-99.7171},{"zip":"76866","city":"Paint Rock","state":"TX","lat":31.5048,"long":-99.9139},{"zip":"76869","city":"Pontotoc","state":"TX","lat":30.8906,"long":-99.0212},{"zip":"76864","city":"Mullin","state":"TX","lat":31.5748,"long":-98.6635},{"zip":"76861","city":"Miles","state":"TX","lat":31.6121,"long":-100.1823},{"zip":"76865","city":"Norton","state":"TX","lat":31.8795,"long":-100.1315}]
