[{"zip":"77463","city":"Old Ocean","state":"TX","lat":29.08,"long":-95.7497},{"zip":"77460","city":"Nada","state":"TX","lat":29.405,"long":-96.3864},{"zip":"77461","city":"Needville","state":"TX","lat":29.4117,"long":-95.8273},{"zip":"77464","city":"Orchard","state":"TX","lat":29.5948,"long":-95.9727},{"zip":"77469","city":"Richmond","state":"TX","lat":29.5511,"long":-95.7329},{"zip":"77465","city":"Palacios","state":"TX","lat":28.715,"long":-96.2154},{"zip":"77468","city":"Pledger","state":"TX","lat":29.1825,"long":-95.9086},{"zip":"77466","city":"Pattison","state":"TX","lat":29.8173,"long":-96.0073},{"zip":"77467","city":"Pierce","state":"TX","lat":29.2052,"long":-96.1369}]
