[{"zip":"77581","city":"Pearland","state":"TX","lat":29.5617,"long":-95.2721},{"zip":"77583","city":"Rosharon","state":"TX","lat":29.4203,"long":-95.4537},{"zip":"77584","city":"Pearland","state":"TX","lat":29.5405,"long":-95.3208},{"zip":"77588","city":"Pearland","state":"TX","lat":29.5127,"long":-95.2542},{"zip":"77580","city":"Mont Belvieu","state":"TX","lat":29.8561,"long":-94.8429},{"zip":"77585","city":"Saratoga","state":"TX","lat":30.2841,"long":-94.5294},{"zip":"77586","city":"Seabrook","state":"TX","lat":29.5832,"long":-95.037},{"zip":"77587","city":"South Houston","state":"TX","lat":29.6601,"long":-95.2258},{"zip":"77582","city":"Raywood","state":"TX","lat":30.0542,"long":-94.6764}]
