[{"zip":"77623","city":"High Island","state":"TX","lat":29.5472,"long":-94.4267},{"zip":"77625","city":"Kountze","state":"TX","lat":30.3703,"long":-94.3259},{"zip":"77622","city":"Hamshire","state":"TX","lat":29.8668,"long":-94.3187},{"zip":"77627","city":"Nederland","state":"TX","lat":29.9716,"long":-94.0012},{"zip":"77629","city":"Nome","state":"TX","lat":30.0015,"long":-94.4189},{"zip":"77626","city":"Mauriceville","state":"TX","lat":30.204,"long":-93.8866},{"zip":"77624","city":"Hillister","state":"TX","lat":30.675,"long":-94.3534}]
