[{"zip":"77967","city":"Hochheim","state":"TX","lat":29.3125,"long":-97.2917},{"zip":"77960","city":"Fannin","state":"TX","lat":28.6778,"long":-97.2606},{"zip":"77963","city":"Goliad","state":"TX","lat":28.6993,"long":-97.3783},{"zip":"77961","city":"Francitas","state":"TX","lat":28.8597,"long":-96.3386},{"zip":"77962","city":"Ganado","state":"TX","lat":29.0308,"long":-96.5031},{"zip":"77969","city":"La Salle","state":"TX","lat":28.7671,"long":-96.6492},{"zip":"77964","city":"Hallettsville","state":"TX","lat":29.4426,"long":-96.9234},{"zip":"77968","city":"Inez","state":"TX","lat":28.8994,"long":-96.8003}]
