[{"zip":"77982","city":"Port O Connor","state":"TX","lat":28.4483,"long":-96.4058},{"zip":"77983","city":"Seadrift","state":"TX","lat":28.4101,"long":-96.7023},{"zip":"77989","city":"Thomaston","state":"TX","lat":28.9974,"long":-97.1539},{"zip":"77984","city":"Shiner","state":"TX","lat":29.428,"long":-97.164},{"zip":"77986","city":"Sublime","state":"TX","lat":29.4876,"long":-96.7946},{"zip":"77987","city":"Sweet Home","state":"TX","lat":29.3426,"long":-97.0756},{"zip":"77988","city":"Telferner","state":"TX","lat":28.8489,"long":-96.8905}]
