[{"zip":"78026","city":"Jourdanton","state":"TX","lat":28.903,"long":-98.544},{"zip":"78023","city":"Helotes","state":"TX","lat":29.6321,"long":-98.7542},{"zip":"78027","city":"Kendalia","state":"TX","lat":29.9406,"long":-98.5166},{"zip":"78024","city":"Hunt","state":"TX","lat":30.0027,"long":-99.4823},{"zip":"78025","city":"Ingram","state":"TX","lat":30.0731,"long":-99.269},{"zip":"78028","city":"Kerrville","state":"TX","lat":30.0416,"long":-99.1408},{"zip":"78029","city":"Kerrville","state":"TX","lat":30.0332,"long":-99.141},{"zip":"78021","city":"Fowlerton","state":"TX","lat":28.4887,"long":-98.8518},{"zip":"78022","city":"George West","state":"TX","lat":28.3204,"long":-98.1162}]
