[{"zip":"78062","city":"Peggy","state":"TX","lat":28.7397,"long":-98.1786},{"zip":"78064","city":"Pleasanton","state":"TX","lat":28.9924,"long":-98.4831},{"zip":"78065","city":"Poteet","state":"TX","lat":29.0994,"long":-98.6241},{"zip":"78063","city":"Pipe Creek","state":"TX","lat":29.6796,"long":-98.9484},{"zip":"78069","city":"Somerset","state":"TX","lat":29.2205,"long":-98.6678},{"zip":"78061","city":"Pearsall","state":"TX","lat":28.8923,"long":-99.0944},{"zip":"78060","city":"Oakville","state":"TX","lat":28.4492,"long":-98.1019},{"zip":"78066","city":"Rio Medina","state":"TX","lat":29.4612,"long":-98.8694},{"zip":"78067","city":"San Ygnacio","state":"TX","lat":27.1583,"long":-99.3202}]
