[{"zip":"78073","city":"Von Ormy","state":"TX","lat":29.275,"long":-98.6677},{"zip":"78070","city":"Spring Branch","state":"TX","lat":29.9238,"long":-98.3788},{"zip":"78074","city":"Waring","state":"TX","lat":29.9523,"long":-98.7944},{"zip":"78071","city":"Three Rivers","state":"TX","lat":28.4756,"long":-98.1782},{"zip":"78075","city":"Whitsett","state":"TX","lat":28.6373,"long":-98.2565},{"zip":"78072","city":"Tilden","state":"TX","lat":28.4198,"long":-98.5693},{"zip":"78076","city":"Zapata","state":"TX","lat":26.8897,"long":-99.2506}]
