[{"zip":"78125","city":"Mineral","state":"TX","lat":28.5552,"long":-97.9407},{"zip":"78122","city":"Leesville","state":"TX","lat":29.3961,"long":-97.7566},{"zip":"78123","city":"Mc Queeney","state":"TX","lat":29.6023,"long":-98.0492},{"zip":"78124","city":"Marion","state":"TX","lat":29.5683,"long":-98.1517},{"zip":"78121","city":"La Vernia","state":"TX","lat":29.3509,"long":-98.113}]
