[{"zip":"78635","city":"Hye","state":"TX","lat":30.2269,"long":-98.5396},{"zip":"78636","city":"Johnson City","state":"TX","lat":30.2948,"long":-98.3691},{"zip":"78631","city":"Harper","state":"TX","lat":30.2816,"long":-99.241},{"zip":"78632","city":"Harwood","state":"TX","lat":29.6661,"long":-97.4906},{"zip":"78638","city":"Kingsbury","state":"TX","lat":29.6726,"long":-97.8306},{"zip":"78639","city":"Kingsland","state":"TX","lat":30.6662,"long":-98.4475},{"zip":"78630","city":"Cedar Park","state":"TX","lat":30.5052,"long":-97.8203},{"zip":"78633","city":"Georgetown","state":"TX","lat":30.7177,"long":-97.7543},{"zip":"78634","city":"Hutto","state":"TX","lat":30.5257,"long":-97.5672}]
