[{"zip":"78830","city":"Big Wells","state":"TX","lat":28.5693,"long":-99.5781},{"zip":"78834","city":"Carrizo Springs","state":"TX","lat":28.5278,"long":-99.8635},{"zip":"78836","city":"Catarina","state":"TX","lat":28.3598,"long":-99.586},{"zip":"78832","city":"Brackettville","state":"TX","lat":29.3096,"long":-100.4155},{"zip":"78833","city":"Camp Wood","state":"TX","lat":29.6795,"long":-100.0084},{"zip":"78838","city":"Concan","state":"TX","lat":29.4952,"long":-99.7126},{"zip":"78837","city":"Comstock","state":"TX","lat":29.7484,"long":-101.2628},{"zip":"78839","city":"Crystal City","state":"TX","lat":28.687,"long":-99.8264}]
