[{"zip":"78931","city":"Bleiblerville","state":"TX","lat":30.0292,"long":-96.4448},{"zip":"78933","city":"Cat Spring","state":"TX","lat":29.7512,"long":-96.39},{"zip":"78934","city":"Columbus","state":"TX","lat":29.7032,"long":-96.5527},{"zip":"78935","city":"Alleyton","state":"TX","lat":29.7092,"long":-96.4865},{"zip":"78932","city":"Carmine","state":"TX","lat":30.1404,"long":-96.6861},{"zip":"78938","city":"Ellinger","state":"TX","lat":29.8459,"long":-96.6966}]
