[{"zip":"79039","city":"Groom","state":"TX","lat":35.2168,"long":-101.1285},{"zip":"79032","city":"Edmonson","state":"TX","lat":34.2789,"long":-101.8941},{"zip":"79036","city":"Fritch","state":"TX","lat":35.6441,"long":-101.5845},{"zip":"79031","city":"Earth","state":"TX","lat":34.2415,"long":-102.4213},{"zip":"79034","city":"Follett","state":"TX","lat":36.4309,"long":-100.2068},{"zip":"79033","city":"Farnsworth","state":"TX","lat":36.2963,"long":-100.9843},{"zip":"79035","city":"Friona","state":"TX","lat":34.6417,"long":-102.7241}]
