[{"zip":"79043","city":"Hart","state":"TX","lat":34.3878,"long":-102.1155},{"zip":"79045","city":"Hereford","state":"TX","lat":34.837,"long":-102.405},{"zip":"79041","city":"Hale Center","state":"TX","lat":34.0669,"long":-101.8736},{"zip":"79040","city":"Gruver","state":"TX","lat":36.2868,"long":-101.4089},{"zip":"79044","city":"Hartley","state":"TX","lat":35.8856,"long":-102.3969},{"zip":"79046","city":"Higgins","state":"TX","lat":36.1365,"long":-100.0952},{"zip":"79042","city":"Happy","state":"TX","lat":34.7219,"long":-101.8256}]
