[{"zip":"79248","city":"Paducah","state":"TX","lat":34.0217,"long":-100.2986},{"zip":"79243","city":"Mcadoo","state":"TX","lat":33.7413,"long":-100.9833},{"zip":"79240","city":"Lelia Lake","state":"TX","lat":34.8843,"long":-100.7674},{"zip":"79241","city":"Lockney","state":"TX","lat":34.1458,"long":-101.4259},{"zip":"79245","city":"Memphis","state":"TX","lat":34.7122,"long":-100.5347},{"zip":"79244","city":"Matador","state":"TX","lat":34.0525,"long":-100.8361},{"zip":"79247","city":"Odell","state":"TX","lat":34.3452,"long":-99.4196}]
