[{"zip":"79324","city":"Enochs","state":"TX","lat":33.8731,"long":-102.7599},{"zip":"79322","city":"Crosbyton","state":"TX","lat":33.6562,"long":-101.2287},{"zip":"79326","city":"Fieldton","state":"TX","lat":34.053,"long":-102.206},{"zip":"79329","city":"Idalou","state":"TX","lat":33.6504,"long":-101.6786},{"zip":"79325","city":"Farwell","state":"TX","lat":34.386,"long":-102.9901},{"zip":"79323","city":"Denver City","state":"TX","lat":32.9711,"long":-102.8313}]
