[{"zip":"79504","city":"Baird","state":"TX","lat":32.3916,"long":-99.3777},{"zip":"79501","city":"Anson","state":"TX","lat":32.7489,"long":-99.8953},{"zip":"79503","city":"Avoca","state":"TX","lat":32.8832,"long":-99.6964},{"zip":"79505","city":"Benjamin","state":"TX","lat":33.584,"long":-99.7923},{"zip":"79506","city":"Blackwell","state":"TX","lat":32.082,"long":-100.3111},{"zip":"79502","city":"Aspermont","state":"TX","lat":33.1301,"long":-100.2344},{"zip":"79508","city":"Buffalo Gap","state":"TX","lat":32.2894,"long":-99.8103}]
