[{"zip":"85920","city":"Alpine","state":"AZ","lat":33.8279,"long":-109.1283},{"zip":"85924","city":"Concho","state":"AZ","lat":34.4458,"long":-109.6741},{"zip":"85925","city":"Eagar","state":"AZ","lat":34.1077,"long":-109.294},{"zip":"85927","city":"Greer","state":"AZ","lat":34.0052,"long":-109.4664},{"zip":"85930","city":"Mcnary","state":"AZ","lat":34.0754,"long":-109.8532},{"zip":"85932","city":"Nutrioso","state":"AZ","lat":33.9531,"long":-109.2092},{"zip":"85936","city":"Saint Johns","state":"AZ","lat":34.501,"long":-109.3796},{"zip":"85938","city":"Springerville","state":"AZ","lat":34.1702,"long":-109.3315},{"zip":"85940","city":"Vernon","state":"AZ","lat":34.2575,"long":-109.6929},{"zip":"86028","city":"Petrified Forest Natl Pk","state":"AZ","lat":35.2375,"long":-109.5229},{"zip":"86502","city":"Chambers","state":"AZ","lat":35.2375,"long":-109.5229},{"zip":"86503","city":"Chinle","state":"AZ","lat":36.1304,"long":-109.6037},{"zip":"86504","city":"Fort Defiance","state":"AZ","lat":35.7445,"long":-109.0765},{"zip":"86505","city":"Ganado","state":"AZ","lat":35.7114,"long":-109.542},{"zip":"86506","city":"Houck","state":"AZ","lat":35.2831,"long":-109.207},{"zip":"86507","city":"Lukachukai","state":"AZ","lat":36.4181,"long":-109.2446},{"zip":"86508","city":"Lupton","state":"AZ","lat":35.3539,"long":-109.0537},{"zip":"86511","city":"Saint Michaels","state":"AZ","lat":35.6447,"long":-109.0956},{"zip":"86512","city":"Sanders","state":"AZ","lat":35.2164,"long":-109.3337},{"zip":"86514","city":"Teec Nos Pos","state":"AZ","lat":36.7797,"long":-109.359},{"zip":"86515","city":"Window Rock","state":"AZ","lat":35.6676,"long":-109.0784},{"zip":"86535","city":"Dennehotso","state":"AZ","lat":36.7773,"long":-109.861},{"zip":"86538","city":"Many Farms","state":"AZ","lat":36.4083,"long":-109.634},{"zip":"86540","city":"Nazlini","state":"AZ","lat":35.8964,"long":-109.4487},{"zip":"86544","city":"Red Valley","state":"AZ","lat":35.2375,"long":-109.5229},{"zip":"86545","city":"Rock Point","state":"AZ","lat":36.7181,"long":-109.6259},{"zip":"86547","city":"Round Rock","state":"AZ","lat":36.5131,"long":-109.4734},{"zip":"86556","city":"Tsaile","state":"AZ","lat":36.3071,"long":-109.2176},{"zip":"85602","city":"Benson","state":"AZ","lat":31.9883,"long":-110.2941},{"zip":"85603","city":"Bisbee","state":"AZ","lat":31.4086,"long":-109.9117},{"zip":"85605","city":"Bowie","state":"AZ","lat":32.3265,"long":-109.487},{"zip":"85606","city":"Cochise","state":"AZ","lat":32.0979,"long":-109.9239},{"zip":"85607","city":"Douglas","state":"AZ","lat":31.3511,"long":-109.5447},{"zip":"85608","city":"Douglas","state":"AZ","lat":31.4151,"long":-109.596},{"zip":"85609","city":"Dragoon","state":"AZ","lat":32.0281,"long":-110.0387},{"zip":"85610","city":"Elfrida","state":"AZ","lat":31.7139,"long":-109.6193},{"zip":"85613","city":"Fort Huachuca","state":"AZ","lat":31.5587,"long":-110.3441},{"zip":"85615","city":"Hereford","state":"AZ","lat":31.4035,"long":-110.2047},{"zip":"85616","city":"Huachuca City","state":"AZ","lat":31.6639,"long":-110.3334},{"zip":"85617","city":"Mc Neal","state":"AZ","lat":31.5121,"long":-109.8438},{"zip":"85620","city":"Naco","state":"AZ","lat":31.3373,"long":-109.9413},{"zip":"85625","city":"Pearce","state":"AZ","lat":31.8885,"long":-109.6119},{"zip":"85626","city":"Pirtleville","state":"AZ","lat":31.3572,"long":-109.5635},{"zip":"85627","city":"Pomerene","state":"AZ","lat":31.9995,"long":-110.2862},{"zip":"85630","city":"Saint David","state":"AZ","lat":31.8973,"long":-110.2154},{"zip":"85632","city":"San Simon","state":"AZ","lat":32.0423,"long":-109.1748},{"zip":"85635","city":"Sierra Vista","state":"AZ","lat":31.5365,"long":-110.2666},{"zip":"85636","city":"Sierra Vista","state":"AZ","lat":31.6687,"long":-110.2801},{"zip":"85638","city":"Tombstone","state":"AZ","lat":31.7216,"long":-110.0584},{"zip":"85643","city":"Willcox","state":"AZ","lat":32.373,"long":-109.8631},{"zip":"85644","city":"Willcox","state":"AZ","lat":32.2529,"long":-109.832},{"zip":"85650","city":"Sierra Vista","state":"AZ","lat":31.4892,"long":-110.2153},{"zip":"85655","city":"Douglas","state":"AZ","lat":31.3447,"long":-109.5468},{"zip":"85670","city":"Fort Huachuca","state":"AZ","lat":31.8801,"long":-109.7543},{"zip":"85671","city":"Sierra Vista","state":"AZ","lat":31.5545,"long":-110.3037},{"zip":"85931","city":"Forest Lakes","state":"AZ","lat":34.4513,"long":-110.8644},{"zip":"86001","city":"Flagstaff","state":"AZ","lat":35.1859,"long":-111.662},{"zip":"86002","city":"Flagstaff","state":"AZ","lat":35.1981,"long":-111.6513},{"zip":"86003","city":"Flagstaff","state":"AZ","lat":35.1981,"long":-111.6513},{"zip":"86004","city":"Flagstaff","state":"AZ","lat":35.2257,"long":-111.5741},{"zip":"86005","city":"Flagstaff","state":"AZ","lat":35.1545,"long":-111.6789},{"zip":"86011","city":"Flagstaff","state":"AZ","lat":35.1981,"long":-111.6513},{"zip":"86015","city":"Bellemont","state":"AZ","lat":35.2381,"long":-111.8335},{"zip":"86016","city":"Gray Mountain","state":"AZ","lat":35.7504,"long":-111.6188},{"zip":"86017","city":"Munds Park","state":"AZ","lat":34.9412,"long":-111.641},{"zip":"86018","city":"Parks","state":"AZ","lat":35.2563,"long":-111.95},{"zip":"86020","city":"Cameron","state":"AZ","lat":35.9922,"long":-111.5038},{"zip":"86022","city":"Fredonia","state":"AZ","lat":36.9044,"long":-112.4979},{"zip":"86023","city":"Grand Canyon","state":"AZ","lat":35.9421,"long":-112.1309},{"zip":"86024","city":"Happy Jack","state":"AZ","lat":34.6616,"long":-111.3404},{"zip":"86035","city":"Leupp","state":"AZ","lat":35.3365,"long":-110.9927},{"zip":"86036","city":"Marble Canyon","state":"AZ","lat":36.737,"long":-111.8229},{"zip":"86038","city":"Mormon Lake","state":"AZ","lat":34.9083,"long":-111.463},{"zip":"86040","city":"Page","state":"AZ","lat":36.9147,"long":-111.4558},{"zip":"86044","city":"Tonalea","state":"AZ","lat":36.7093,"long":-110.8411},{"zip":"86045","city":"Tuba City","state":"AZ","lat":36.1037,"long":-111.2686},{"zip":"86046","city":"Williams","state":"AZ","lat":35.5434,"long":-112.1707},{"zip":"86052","city":"North Rim","state":"AZ","lat":36.2105,"long":-112.0613},{"zip":"86053","city":"Kaibeto","state":"AZ","lat":36.4025,"long":-111.3518},{"zip":"86336","city":"Sedona","state":"AZ","lat":34.8266,"long":-111.7506},{"zip":"86339","city":"Sedona","state":"AZ","lat":34.8697,"long":-111.761},{"zip":"86351","city":"Sedona","state":"AZ","lat":34.7784,"long":-111.7851},{"zip":"86435","city":"Supai","state":"AZ","lat":36.2242,"long":-112.6932},{"zip":"85135","city":"Hayden","state":"AZ","lat":33.0041,"long":-110.7868},{"zip":"85192","city":"Winkelman","state":"AZ","lat":33.0057,"long":-110.7727},{"zip":"85501","city":"Globe","state":"AZ","lat":33.4024,"long":-110.7892},{"zip":"85502","city":"Globe","state":"AZ","lat":33.3942,"long":-110.7865},{"zip":"85532","city":"Claypool","state":"AZ","lat":33.4154,"long":-110.8149},{"zip":"85539","city":"Miami","state":"AZ","lat":33.3992,"long":-110.8687},{"zip":"85541","city":"Payson","state":"AZ","lat":34.2198,"long":-111.2878},{"zip":"85542","city":"Peridot","state":"AZ","lat":33.3103,"long":-110.4554},{"zip":"85544","city":"Pine","state":"AZ","lat":34.3435,"long":-111.5353},{"zip":"85545","city":"Roosevelt","state":"AZ","lat":33.6358,"long":-110.9749},{"zip":"85547","city":"Payson","state":"AZ","lat":34.2575,"long":-111.2878},{"zip":"85550","city":"San Carlos","state":"AZ","lat":33.3456,"long":-110.455},{"zip":"85553","city":"Tonto Basin","state":"AZ","lat":33.8317,"long":-111.2946},{"zip":"85554","city":"Young","state":"AZ","lat":34.1014,"long":-110.9637},{"zip":"85530","city":"Bylas","state":"AZ","lat":33.1265,"long":-110.117},{"zip":"85531","city":"Central","state":"AZ","lat":32.8692,"long":-109.7878},{"zip":"85535","city":"Eden","state":"AZ","lat":32.9751,"long":-109.8974},{"zip":"85536","city":"Fort Thomas","state":"AZ","lat":33.0333,"long":-109.9717},{"zip":"85543","city":"Pima","state":"AZ","lat":32.9097,"long":-109.856},{"zip":"85546","city":"Safford","state":"AZ","lat":32.8295,"long":-109.6266},{"zip":"85548","city":"Safford","state":"AZ","lat":32.797,"long":-109.7522},{"zip":"85551","city":"Solomon","state":"AZ","lat":32.8428,"long":-109.6964},{"zip":"85552","city":"Thatcher","state":"AZ","lat":32.8504,"long":-109.7461},{"zip":"85533","city":"Clifton","state":"AZ","lat":33.1323,"long":-109.2462},{"zip":"85534","city":"Duncan","state":"AZ","lat":32.881,"long":-109.2157},{"zip":"85540","city":"Morenci","state":"AZ","lat":33.0787,"long":-109.3654},{"zip":"85922","city":"Blue","state":"AZ","lat":33.6512,"long":-109.0685},{"zip":"85325","city":"Bouse","state":"AZ","lat":33.9578,"long":-114.0036},{"zip":"85328","city":"Cibola","state":"AZ","lat":33.3164,"long":-114.665},{"zip":"85334","city":"Ehrenberg","state":"AZ","lat":33.6177,"long":-114.5077},{"zip":"85344","city":"Parker","state":"AZ","lat":34.15,"long":-114.2891},{"zip":"85346","city":"Quartzsite","state":"AZ","lat":33.7292,"long":-114.1925},{"zip":"85348","city":"Salome","state":"AZ","lat":33.7481,"long":-113.5715},{"zip":"85357","city":"Wenden","state":"AZ","lat":34.0422,"long":-113.458},{"zip":"85359","city":"Quartzsite","state":"AZ","lat":33.6669,"long":-114.2396},{"zip":"85371","city":"Poston","state":"AZ","lat":33.9906,"long":-114.3963},{"zip":"85001","city":"Phoenix","state":"AZ","lat":33.4484,"long":-112.074},{"zip":"85002","city":"Phoenix","state":"AZ","lat":33.4484,"long":-112.074},{"zip":"85003","city":"Phoenix","state":"AZ","lat":33.4511,"long":-112.0774},{"zip":"85004","city":"Phoenix","state":"AZ","lat":33.4557,"long":-112.0686},{"zip":"85005","city":"Phoenix","state":"AZ","lat":33.4484,"long":-112.074},{"zip":"85006","city":"Phoenix","state":"AZ","lat":33.465,"long":-112.0474},{"zip":"85007","city":"Phoenix","state":"AZ","lat":33.4523,"long":-112.0893},{"zip":"85008","city":"Phoenix","state":"AZ","lat":33.4665,"long":-111.9984},{"zip":"85009","city":"Phoenix","state":"AZ","lat":33.4564,"long":-112.1284},{"zip":"85010","city":"Phoenix","state":"AZ","lat":33.4484,"long":-112.074},{"zip":"85011","city":"Phoenix","state":"AZ","lat":33.4484,"long":-112.074},{"zip":"85012","city":"Phoenix","state":"AZ","lat":33.5097,"long":-112.0678},{"zip":"85013","city":"Phoenix","state":"AZ","lat":33.5085,"long":-112.0827},{"zip":"85014","city":"Phoenix","state":"AZ","lat":33.5103,"long":-112.0556},{"zip":"85015","city":"Phoenix","state":"AZ","lat":33.5082,"long":-112.1011},{"zip":"85016","city":"Phoenix","state":"AZ","lat":33.5021,"long":-112.0305},{"zip":"85017","city":"Phoenix","state":"AZ","lat":33.5153,"long":-112.1212},{"zip":"85018","city":"Phoenix","state":"AZ","lat":33.4958,"long":-111.9883},{"zip":"85019","city":"Phoenix","state":"AZ","lat":33.5123,"long":-112.1417},{"zip":"85020","city":"Phoenix","state":"AZ","lat":33.5623,"long":-112.0559},{"zip":"85021","city":"Phoenix","state":"AZ","lat":33.56,"long":-112.0927},{"zip":"85022","city":"Phoenix","state":"AZ","lat":33.6315,"long":-112.052},{"zip":"85023","city":"Phoenix","state":"AZ","lat":33.6324,"long":-112.1118},{"zip":"85024","city":"Phoenix","state":"AZ","lat":33.6617,"long":-112.037},{"zip":"85025","city":"Phoenix","state":"AZ","lat":33.4484,"long":-112.074},{"zip":"85026","city":"Phoenix","state":"AZ","lat":33.4484,"long":-112.074},{"zip":"85027","city":"Phoenix","state":"AZ","lat":33.6819,"long":-112.0996},{"zip":"85028","city":"Phoenix","state":"AZ","lat":33.5851,"long":-112.0087},{"zip":"85029","city":"Phoenix","state":"AZ","lat":33.5961,"long":-112.1199},{"zip":"85030","city":"Phoenix","state":"AZ","lat":33.4484,"long":-112.074},{"zip":"85031","city":"Phoenix","state":"AZ","lat":33.4939,"long":-112.1696},{"zip":"85032","city":"Phoenix","state":"AZ","lat":33.6238,"long":-112.0044},{"zip":"85033","city":"Phoenix","state":"AZ","lat":33.4944,"long":-112.2132},{"zip":"85034","city":"Phoenix","state":"AZ","lat":33.4413,"long":-112.0421},{"zip":"85035","city":"Phoenix","state":"AZ","lat":33.4724,"long":-112.1832},{"zip":"85036","city":"Phoenix","state":"AZ","lat":33.4484,"long":-112.074},{"zip":"85037","city":"Phoenix","state":"AZ","lat":33.4913,"long":-112.2468},{"zip":"85038","city":"Phoenix","state":"AZ","lat":33.4484,"long":-112.074},{"zip":"85039","city":"Phoenix","state":"AZ","lat":33.4484,"long":-112.074},{"zip":"85040","city":"Phoenix","state":"AZ","lat":33.4061,"long":-112.0265},{"zip":"85041","city":"Phoenix","state":"AZ","lat":33.3889,"long":-112.0954},{"zip":"85042","city":"Phoenix","state":"AZ","lat":33.3794,"long":-112.0283},{"zip":"85043","city":"Phoenix","state":"AZ","lat":33.4491,"long":-112.1972},{"zip":"85044","city":"Phoenix","state":"AZ","lat":33.3291,"long":-111.9943},{"zip":"85045","city":"Phoenix","state":"AZ","lat":33.3022,"long":-112.1226},{"zip":"85046","city":"Phoenix","state":"AZ","lat":33.4484,"long":-112.074},{"zip":"85048","city":"Phoenix","state":"AZ","lat":33.316,"long":-112.0669},{"zip":"85050","city":"Phoenix","state":"AZ","lat":33.6863,"long":-111.9963},{"zip":"85051","city":"Phoenix","state":"AZ","lat":33.5591,"long":-112.1332},{"zip":"85053","city":"Phoenix","state":"AZ","lat":33.6299,"long":-112.1316},{"zip":"85054","city":"Phoenix","state":"AZ","lat":33.6731,"long":-111.9461},{"zip":"85060","city":"Phoenix","state":"AZ","lat":33.4484,"long":-112.074},{"zip":"85061","city":"Phoenix","state":"AZ","lat":33.4484,"long":-112.074},{"zip":"85062","city":"Phoenix","state":"AZ","lat":33.4484,"long":-112.074},{"zip":"85063","city":"Phoenix","state":"AZ","lat":33.4484,"long":-112.074},{"zip":"85064","city":"Phoenix","state":"AZ","lat":33.4484,"long":-112.074},{"zip":"85065","city":"Phoenix","state":"AZ","lat":33.4484,"long":-112.074},{"zip":"85066","city":"Phoenix","state":"AZ","lat":33.4484,"long":-112.074},{"zip":"85067","city":"Phoenix","state":"AZ","lat":33.4484,"long":-112.074},{"zip":"85068","city":"Phoenix","state":"AZ","lat":33.4484,"long":-112.074},{"zip":"85069","city":"Phoenix","state":"AZ","lat":33.4484,"long":-112.074},{"zip":"85070","city":"Phoenix","state":"AZ","lat":33.4484,"long":-112.074},{"zip":"85071","city":"Phoenix","state":"AZ","lat":33.4484,"long":-112.074},{"zip":"85072","city":"Phoenix","state":"AZ","lat":33.4484,"long":-112.074},{"zip":"85073","city":"Phoenix","state":"AZ","lat":33.4484,"long":-112.074},{"zip":"85074","city":"Phoenix","state":"AZ","lat":33.4484,"long":-112.074},{"zip":"85075","city":"Phoenix","state":"AZ","lat":33.4484,"long":-112.074},{"zip":"85076","city":"Phoenix","state":"AZ","lat":33.4484,"long":-112.074},{"zip":"85078","city":"Phoenix","state":"AZ","lat":33.4484,"long":-112.074},{"zip":"85079","city":"Phoenix","state":"AZ","lat":33.4484,"long":-112.074},{"zip":"85080","city":"Phoenix","state":"AZ","lat":33.4484,"long":-112.074},{"zip":"85082","city":"Phoenix","state":"AZ","lat":33.4484,"long":-112.074},{"zip":"85083","city":"Phoenix","state":"AZ","lat":33.7352,"long":-112.1294},{"zip":"85085","city":"Phoenix","state":"AZ","lat":33.7529,"long":-112.0893},{"zip":"85086","city":"Phoenix","state":"AZ","lat":33.8155,"long":-112.1202},{"zip":"85087","city":"New River","state":"AZ","lat":33.9235,"long":-112.1279},{"zip":"85097","city":"Phoenix","state":"AZ","lat":33.4484,"long":-112.074},{"zip":"85098","city":"Phoenix","state":"AZ","lat":33.4484,"long":-112.074},{"zip":"85142","city":"Queen Creek","state":"AZ","lat":33.2487,"long":-111.6343},{"zip":"85201","city":"Mesa","state":"AZ","lat":33.4317,"long":-111.8469},{"zip":"85202","city":"Mesa","state":"AZ","lat":33.3851,"long":-111.8724},{"zip":"85203","city":"Mesa","state":"AZ","lat":33.437,"long":-111.8057},{"zip":"85204","city":"Mesa","state":"AZ","lat":33.3992,"long":-111.7896},{"zip":"85205","city":"Mesa","state":"AZ","lat":33.4368,"long":-111.7129},{"zip":"85206","city":"Mesa","state":"AZ","lat":33.4026,"long":-111.7242},{"zip":"85207","city":"Mesa","state":"AZ","lat":33.4321,"long":-111.6426},{"zip":"85208","city":"Mesa","state":"AZ","lat":33.3984,"long":-111.6513},{"zip":"85209","city":"Mesa","state":"AZ","lat":33.3782,"long":-111.6406},{"zip":"85210","city":"Mesa","state":"AZ","lat":33.3887,"long":-111.8428},{"zip":"85211","city":"Mesa","state":"AZ","lat":33.4663,"long":-111.8373},{"zip":"85212","city":"Mesa","state":"AZ","lat":33.3425,"long":-111.6353},{"zip":"85213","city":"Mesa","state":"AZ","lat":33.4367,"long":-111.7731},{"zip":"85214","city":"Mesa","state":"AZ","lat":33.4125,"long":-111.8319},{"zip":"85215","city":"Mesa","state":"AZ","lat":33.4707,"long":-111.7188},{"zip":"85216","city":"Mesa","state":"AZ","lat":33.4125,"long":-111.8319},{"zip":"85224","city":"Chandler","state":"AZ","lat":33.3301,"long":-111.8632},{"zip":"85225","city":"Chandler","state":"AZ","lat":33.3105,"long":-111.8239},{"zip":"85226","city":"Chandler","state":"AZ","lat":33.3092,"long":-111.9198},{"zip":"85233","city":"Gilbert","state":"AZ","lat":33.3354,"long":-111.8153},{"zip":"85234","city":"Gilbert","state":"AZ","lat":33.3527,"long":-111.7809},{"zip":"85236","city":"Higley","state":"AZ","lat":33.3024,"long":-111.6969},{"zip":"85244","city":"Chandler","state":"AZ","lat":33.3213,"long":-111.8888},{"zip":"85246","city":"Chandler","state":"AZ","lat":33.3062,"long":-111.8413},{"zip":"85248","city":"Chandler","state":"AZ","lat":33.2509,"long":-111.8593},{"zip":"85249","city":"Chandler","state":"AZ","lat":33.2414,"long":-111.7745},{"zip":"85250","city":"Scottsdale","state":"AZ","lat":33.5218,"long":-111.9049},{"zip":"85251","city":"Scottsdale","state":"AZ","lat":33.4936,"long":-111.9167},{"zip":"85252","city":"Scottsdale","state":"AZ","lat":33.4995,"long":-111.8684},{"zip":"85253","city":"Paradise Valley","state":"AZ","lat":33.5494,"long":-111.9565},{"zip":"85254","city":"Scottsdale","state":"AZ","lat":33.6165,"long":-111.9554},{"zip":"85255","city":"Scottsdale","state":"AZ","lat":33.6968,"long":-111.8892},{"zip":"85256","city":"Scottsdale","state":"AZ","lat":33.4858,"long":-111.8533},{"zip":"85257","city":"Scottsdale","state":"AZ","lat":33.4669,"long":-111.9151},{"zip":"85258","city":"Scottsdale","state":"AZ","lat":33.5647,"long":-111.8931},{"zip":"85259","city":"Scottsdale","state":"AZ","lat":33.5879,"long":-111.8404},{"zip":"85260","city":"Scottsdale","state":"AZ","lat":33.6013,"long":-111.8867},{"zip":"85261","city":"Scottsdale","state":"AZ","lat":33.5092,"long":-111.899},{"zip":"85262","city":"Scottsdale","state":"AZ","lat":33.7752,"long":-111.7791},{"zip":"85263","city":"Rio Verde","state":"AZ","lat":33.7225,"long":-111.6757},{"zip":"85264","city":"Fort Mcdowell","state":"AZ","lat":33.6118,"long":-111.6806},{"zip":"85266","city":"Scottsdale","state":"AZ","lat":33.7669,"long":-111.9182},{"zip":"85267","city":"Scottsdale","state":"AZ","lat":33.5092,"long":-111.899},{"zip":"85268","city":"Fountain Hills","state":"AZ","lat":33.6085,"long":-111.7237},{"zip":"85269","city":"Fountain Hills","state":"AZ","lat":33.6117,"long":-111.7174},{"zip":"85271","city":"Scottsdale","state":"AZ","lat":33.5092,"long":-111.899},{"zip":"85274","city":"Mesa","state":"AZ","lat":33.4125,"long":-111.8319},{"zip":"85275","city":"Mesa","state":"AZ","lat":33.4125,"long":-111.8319},{"zip":"85277","city":"Mesa","state":"AZ","lat":33.4125,"long":-111.8319},{"zip":"85280","city":"Tempe","state":"AZ","lat":33.4014,"long":-111.9313},{"zip":"85281","city":"Tempe","state":"AZ","lat":33.4227,"long":-111.9261},{"zip":"85282","city":"Tempe","state":"AZ","lat":33.3917,"long":-111.9249},{"zip":"85283","city":"Tempe","state":"AZ","lat":33.3665,"long":-111.9312},{"zip":"85284","city":"Tempe","state":"AZ","lat":33.3363,"long":-111.9197},{"zip":"85285","city":"Tempe","state":"AZ","lat":33.4148,"long":-111.9093},{"zip":"85286","city":"Chandler","state":"AZ","lat":33.2711,"long":-111.8311},{"zip":"85287","city":"Tempe","state":"AZ","lat":33.4285,"long":-111.9349},{"zip":"85295","city":"Gilbert","state":"AZ","lat":33.3054,"long":-111.7408},{"zip":"85296","city":"Gilbert","state":"AZ","lat":33.3354,"long":-111.7406},{"zip":"85297","city":"Gilbert","state":"AZ","lat":33.2781,"long":-111.7096},{"zip":"85298","city":"Gilbert","state":"AZ","lat":33.2522,"long":-111.7022},{"zip":"85299","city":"Gilbert","state":"AZ","lat":33.3528,"long":-111.789},{"zip":"85301","city":"Glendale","state":"AZ","lat":33.5311,"long":-112.1767},{"zip":"85302","city":"Glendale","state":"AZ","lat":33.5675,"long":-112.1753},{"zip":"85303","city":"Glendale","state":"AZ","lat":33.5262,"long":-112.2149},{"zip":"85304","city":"Glendale","state":"AZ","lat":33.5943,"long":-112.1746},{"zip":"85305","city":"Glendale","state":"AZ","lat":33.5291,"long":-112.2482},{"zip":"85306","city":"Glendale","state":"AZ","lat":33.6239,"long":-112.1776},{"zip":"85307","city":"Glendale","state":"AZ","lat":33.5376,"long":-112.3137},{"zip":"85308","city":"Glendale","state":"AZ","lat":33.6539,"long":-112.1694},{"zip":"85309","city":"Luke Air Force Base","state":"AZ","lat":33.5387,"long":-112.186},{"zip":"85310","city":"Glendale","state":"AZ","lat":33.7047,"long":-112.1641},{"zip":"85311","city":"Glendale","state":"AZ","lat":33.5387,"long":-112.186},{"zip":"85312","city":"Glendale","state":"AZ","lat":33.5387,"long":-112.186},{"zip":"85318","city":"Glendale","state":"AZ","lat":33.5387,"long":-112.186},{"zip":"85320","city":"Aguila","state":"AZ","lat":33.9186,"long":-113.2134},{"zip":"85322","city":"Arlington","state":"AZ","lat":33.3133,"long":-112.7891},{"zip":"85323","city":"Avondale","state":"AZ","lat":33.4321,"long":-112.3438},{"zip":"85326","city":"Buckeye","state":"AZ","lat":33.3703,"long":-112.5838},{"zip":"85327","city":"Cave Creek","state":"AZ","lat":33.8333,"long":-111.9508},{"zip":"85329","city":"Cashion","state":"AZ","lat":33.4353,"long":-112.2979},{"zip":"85331","city":"Cave Creek","state":"AZ","lat":33.8851,"long":-111.9349},{"zip":"85335","city":"El Mirage","state":"AZ","lat":33.6082,"long":-112.3241},{"zip":"85337","city":"Gila Bend","state":"AZ","lat":32.9306,"long":-112.7468},{"zip":"85338","city":"Goodyear","state":"AZ","lat":33.4368,"long":-112.3834},{"zip":"85339","city":"Laveen","state":"AZ","lat":33.3436,"long":-112.1716},{"zip":"85340","city":"Litchfield Park","state":"AZ","lat":33.5098,"long":-112.4135},{"zip":"85342","city":"Morristown","state":"AZ","lat":33.8567,"long":-112.6232},{"zip":"85343","city":"Palo Verde","state":"AZ","lat":33.3481,"long":-112.6774},{"zip":"85345","city":"Peoria","state":"AZ","lat":33.5761,"long":-112.2344},{"zip":"85351","city":"Sun City","state":"AZ","lat":33.6061,"long":-112.2797},{"zip":"85353","city":"Tolleson","state":"AZ","lat":33.4347,"long":-112.2774},{"zip":"85354","city":"Tonopah","state":"AZ","lat":33.4228,"long":-112.9528},{"zip":"85355","city":"Waddell","state":"AZ","lat":33.5673,"long":-112.4387},{"zip":"85358","city":"Wickenburg","state":"AZ","lat":33.9686,"long":-112.7296},{"zip":"85361","city":"Wittmann","state":"AZ","lat":33.7637,"long":-112.6142},{"zip":"85363","city":"Youngtown","state":"AZ","lat":33.5908,"long":-112.3013},{"zip":"85372","city":"Sun City","state":"AZ","lat":33.5975,"long":-112.2718},{"zip":"85373","city":"Sun City","state":"AZ","lat":33.6588,"long":-112.3214},{"zip":"85374","city":"Surprise","state":"AZ","lat":33.63,"long":-112.3314},{"zip":"85375","city":"Sun City West","state":"AZ","lat":33.6856,"long":-112.3659},{"zip":"85376","city":"Sun City West","state":"AZ","lat":33.662,"long":-112.3413},{"zip":"85377","city":"Carefree","state":"AZ","lat":33.824,"long":-111.913},{"zip":"85378","city":"Surprise","state":"AZ","lat":33.6306,"long":-112.3332},{"zip":"85379","city":"Surprise","state":"AZ","lat":33.6021,"long":-112.3736},{"zip":"85380","city":"Peoria","state":"AZ","lat":33.5806,"long":-112.2374},{"zip":"85381","city":"Peoria","state":"AZ","lat":33.6048,"long":-112.2237},{"zip":"85382","city":"Peoria","state":"AZ","lat":33.6308,"long":-112.2072},{"zip":"85383","city":"Peoria","state":"AZ","lat":33.7169,"long":-112.238},{"zip":"85385","city":"Peoria","state":"AZ","lat":33.5806,"long":-112.2374},{"zip":"85387","city":"Surprise","state":"AZ","lat":33.7129,"long":-112.4375},{"zip":"85388","city":"Surprise","state":"AZ","lat":33.6134,"long":-112.4512},{"zip":"85390","city":"Wickenburg","state":"AZ","lat":33.8944,"long":-112.8603},{"zip":"85392","city":"Avondale","state":"AZ","lat":33.4777,"long":-112.3093},{"zip":"85395","city":"Goodyear","state":"AZ","lat":33.479,"long":-112.3947},{"zip":"85396","city":"Buckeye","state":"AZ","lat":33.468,"long":-112.4787},{"zip":"85360","city":"Wikieup","state":"AZ","lat":34.7033,"long":-113.6113},{"zip":"86021","city":"Colorado City","state":"AZ","lat":36.9903,"long":-112.9758},{"zip":"86401","city":"Kingman","state":"AZ","lat":35.1328,"long":-113.7033},{"zip":"86402","city":"Kingman","state":"AZ","lat":35.2632,"long":-114.0637},{"zip":"86403","city":"Lake Havasu City","state":"AZ","lat":34.4814,"long":-114.3483},{"zip":"86404","city":"Lake Havasu City","state":"AZ","lat":34.5575,"long":-114.3307},{"zip":"86405","city":"Lake Havasu City","state":"AZ","lat":34.4839,"long":-114.3225},{"zip":"86406","city":"Lake Havasu City","state":"AZ","lat":34.4228,"long":-114.125},{"zip":"86409","city":"Kingman","state":"AZ","lat":35.2633,"long":-114.0223},{"zip":"86411","city":"Hackberry","state":"AZ","lat":35.3692,"long":-113.7272},{"zip":"86412","city":"Hualapai","state":"AZ","lat":35.3972,"long":-113.8432},{"zip":"86413","city":"Golden Valley","state":"AZ","lat":35.3002,"long":-114.2215},{"zip":"86426","city":"Fort Mohave","state":"AZ","lat":35.0052,"long":-114.5687},{"zip":"86427","city":"Fort Mohave","state":"AZ","lat":35.0043,"long":-114.5812},{"zip":"86429","city":"Bullhead City","state":"AZ","lat":35.1715,"long":-114.5386},{"zip":"86430","city":"Bullhead City","state":"AZ","lat":35.1473,"long":-114.5433},{"zip":"86431","city":"Chloride","state":"AZ","lat":35.3896,"long":-114.2221},{"zip":"86432","city":"Littlefield","state":"AZ","lat":36.8872,"long":-113.9297},{"zip":"86433","city":"Oatman","state":"AZ","lat":35.0285,"long":-114.3837},{"zip":"86434","city":"Peach Springs","state":"AZ","lat":35.5378,"long":-113.4202},{"zip":"86436","city":"Topock","state":"AZ","lat":34.7784,"long":-114.4817},{"zip":"86437","city":"Valentine","state":"AZ","lat":35.3788,"long":-113.6141},{"zip":"86438","city":"Yucca","state":"AZ","lat":34.8722,"long":-114.1494},{"zip":"86439","city":"Bullhead City","state":"AZ","lat":35.1478,"long":-114.5683},{"zip":"86440","city":"Mohave Valley","state":"AZ","lat":34.8929,"long":-114.5951},{"zip":"86441","city":"Dolan Springs","state":"AZ","lat":35.5692,"long":-114.3777},{"zip":"86442","city":"Bullhead City","state":"AZ","lat":35.106,"long":-114.5947},{"zip":"86443","city":"Temple Bar Marina","state":"AZ","lat":35.2106,"long":-114.1792},{"zip":"86444","city":"Meadview","state":"AZ","lat":35.9822,"long":-114.0775},{"zip":"86445","city":"Willow Beach","state":"AZ","lat":35.7759,"long":-114.5001},{"zip":"86446","city":"Mohave Valley","state":"AZ","lat":34.8499,"long":-114.5917},{"zip":"85901","city":"Show Low","state":"AZ","lat":34.2998,"long":-110},{"zip":"85902","city":"Show Low","state":"AZ","lat":34.2981,"long":-110.0352},{"zip":"85911","city":"Cibecue","state":"AZ","lat":34.0448,"long":-110.4854},{"zip":"85912","city":"White Mountain Lake","state":"AZ","lat":34.2666,"long":-110.2031},{"zip":"85923","city":"Clay Springs","state":"AZ","lat":34.3617,"long":-110.2954},{"zip":"85926","city":"Fort Apache","state":"AZ","lat":33.7906,"long":-109.9887},{"zip":"85928","city":"Heber","state":"AZ","lat":34.41,"long":-110.5883},{"zip":"85929","city":"Lakeside","state":"AZ","lat":34.1662,"long":-109.9869},{"zip":"85933","city":"Overgaard","state":"AZ","lat":34.4086,"long":-110.56},{"zip":"85934","city":"Pinedale","state":"AZ","lat":34.3003,"long":-110.2457},{"zip":"85935","city":"Pinetop","state":"AZ","lat":34.1175,"long":-109.9197},{"zip":"85937","city":"Snowflake","state":"AZ","lat":34.4959,"long":-110.0807},{"zip":"85939","city":"Taylor","state":"AZ","lat":34.439,"long":-110.0858},{"zip":"85941","city":"Whiteriver","state":"AZ","lat":33.8021,"long":-109.9937},{"zip":"85942","city":"Woodruff","state":"AZ","lat":34.6475,"long":-110.0806},{"zip":"86025","city":"Holbrook","state":"AZ","lat":34.9085,"long":-110.1434},{"zip":"86029","city":"Sun Valley","state":"AZ","lat":34.9806,"long":-110.0582},{"zip":"86030","city":"Hotevilla","state":"AZ","lat":35.9278,"long":-110.6729},{"zip":"86031","city":"Indian Wells","state":"AZ","lat":35.4056,"long":-110.0848},{"zip":"86032","city":"Joseph City","state":"AZ","lat":34.9814,"long":-110.3373},{"zip":"86033","city":"Kayenta","state":"AZ","lat":36.6883,"long":-110.2652},{"zip":"86034","city":"Keams Canyon","state":"AZ","lat":35.8082,"long":-110.2845},{"zip":"86039","city":"Kykotsmovi Village","state":"AZ","lat":35.8742,"long":-110.6235},{"zip":"86042","city":"Polacca","state":"AZ","lat":35.8617,"long":-110.3875},{"zip":"86043","city":"Second Mesa","state":"AZ","lat":35.7933,"long":-110.5051},{"zip":"86047","city":"Winslow","state":"AZ","lat":35.0242,"long":-110.6974},{"zip":"86054","city":"Shonto","state":"AZ","lat":36.6159,"long":-110.6477},{"zip":"86510","city":"Pinon","state":"AZ","lat":36.1002,"long":-110.2211},{"zip":"86520","city":"Blue Gap","state":"AZ","lat":36.1708,"long":-109.9465},{"zip":"85321","city":"Ajo","state":"AZ","lat":32.2295,"long":-112.6542},{"zip":"85341","city":"Lukeville","state":"AZ","lat":31.8737,"long":-112.7845},{"zip":"85601","city":"Arivaca","state":"AZ","lat":31.5885,"long":-111.316},{"zip":"85614","city":"Green Valley","state":"AZ","lat":31.8543,"long":-111.0003},{"zip":"85619","city":"Mount Lemmon","state":"AZ","lat":32.3763,"long":-110.7605},{"zip":"85622","city":"Green Valley","state":"AZ","lat":31.8269,"long":-111.0755},{"zip":"85629","city":"Sahuarita","state":"AZ","lat":31.9452,"long":-111.0002},{"zip":"85633","city":"Sasabe","state":"AZ","lat":31.4887,"long":-111.5421},{"zip":"85634","city":"Sells","state":"AZ","lat":32.0315,"long":-112.0065},{"zip":"85639","city":"Topawa","state":"AZ","lat":31.814,"long":-111.8257},{"zip":"85641","city":"Vail","state":"AZ","lat":32.0027,"long":-110.7053},{"zip":"85652","city":"Cortaro","state":"AZ","lat":32.4201,"long":-111.1132},{"zip":"85653","city":"Marana","state":"AZ","lat":32.4047,"long":-111.2736},{"zip":"85654","city":"Rillito","state":"AZ","lat":32.4148,"long":-111.1562},{"zip":"85701","city":"Tucson","state":"AZ","lat":32.2139,"long":-110.9694},{"zip":"85702","city":"Tucson","state":"AZ","lat":32.2217,"long":-110.9265},{"zip":"85703","city":"Tucson","state":"AZ","lat":32.2217,"long":-110.9265},{"zip":"85704","city":"Tucson","state":"AZ","lat":32.3379,"long":-110.9855},{"zip":"85705","city":"Tucson","state":"AZ","lat":32.2691,"long":-110.9845},{"zip":"85706","city":"Tucson","state":"AZ","lat":32.1392,"long":-110.9451},{"zip":"85707","city":"Tucson","state":"AZ","lat":32.1696,"long":-110.8751},{"zip":"85708","city":"Tucson","state":"AZ","lat":32.18,"long":-110.8693},{"zip":"85709","city":"Tucson","state":"AZ","lat":32.2008,"long":-110.898},{"zip":"85710","city":"Tucson","state":"AZ","lat":32.2138,"long":-110.824},{"zip":"85711","city":"Tucson","state":"AZ","lat":32.2127,"long":-110.8829},{"zip":"85712","city":"Tucson","state":"AZ","lat":32.25,"long":-110.8869},{"zip":"85713","city":"Tucson","state":"AZ","lat":32.1941,"long":-110.9739},{"zip":"85714","city":"Tucson","state":"AZ","lat":32.1707,"long":-110.9719},{"zip":"85715","city":"Tucson","state":"AZ","lat":32.2519,"long":-110.82},{"zip":"85716","city":"Tucson","state":"AZ","lat":32.2468,"long":-110.9222},{"zip":"85717","city":"Tucson","state":"AZ","lat":32.2217,"long":-110.9265},{"zip":"85718","city":"Tucson","state":"AZ","lat":32.3112,"long":-110.9179},{"zip":"85719","city":"Tucson","state":"AZ","lat":32.2474,"long":-110.9491},{"zip":"85720","city":"Tucson","state":"AZ","lat":32.2217,"long":-110.9265},{"zip":"85721","city":"Tucson","state":"AZ","lat":32.2338,"long":-110.95},{"zip":"85722","city":"Tucson","state":"AZ","lat":32.2217,"long":-110.9265},{"zip":"85723","city":"Tucson","state":"AZ","lat":32.2217,"long":-110.9265},{"zip":"85724","city":"Tucson","state":"AZ","lat":32.2406,"long":-110.9443},{"zip":"85725","city":"Tucson","state":"AZ","lat":32.2217,"long":-110.9265},{"zip":"85726","city":"Tucson","state":"AZ","lat":32.2027,"long":-110.9453},{"zip":"85728","city":"Tucson","state":"AZ","lat":32.2217,"long":-110.9265},{"zip":"85730","city":"Tucson","state":"AZ","lat":32.181,"long":-110.819},{"zip":"85731","city":"Tucson","state":"AZ","lat":32.2217,"long":-110.9265},{"zip":"85732","city":"Tucson","state":"AZ","lat":32.2217,"long":-110.9265},{"zip":"85733","city":"Tucson","state":"AZ","lat":32.2217,"long":-110.9265},{"zip":"85734","city":"Tucson","state":"AZ","lat":32.0651,"long":-110.9353},{"zip":"85735","city":"Tucson","state":"AZ","lat":32.093,"long":-111.3472},{"zip":"85736","city":"Tucson","state":"AZ","lat":31.9011,"long":-111.3702},{"zip":"85737","city":"Tucson","state":"AZ","lat":32.4142,"long":-110.9466},{"zip":"85738","city":"Catalina","state":"AZ","lat":32.5056,"long":-110.9211},{"zip":"85739","city":"Tucson","state":"AZ","lat":32.465,"long":-110.8922},{"zip":"85740","city":"Tucson","state":"AZ","lat":32.2217,"long":-110.9265},{"zip":"85741","city":"Tucson","state":"AZ","lat":32.3472,"long":-111.0419},{"zip":"85742","city":"Tucson","state":"AZ","lat":32.4076,"long":-111.065},{"zip":"85743","city":"Tucson","state":"AZ","lat":32.3366,"long":-111.1771},{"zip":"85744","city":"Tucson","state":"AZ","lat":32.2217,"long":-110.9265},{"zip":"85745","city":"Tucson","state":"AZ","lat":32.2434,"long":-111.0179},{"zip":"85746","city":"Tucson","state":"AZ","lat":32.1422,"long":-111.0506},{"zip":"85747","city":"Tucson","state":"AZ","lat":32.0984,"long":-110.7272},{"zip":"85748","city":"Tucson","state":"AZ","lat":32.215,"long":-110.7758},{"zip":"85749","city":"Tucson","state":"AZ","lat":32.2733,"long":-110.7658},{"zip":"85750","city":"Tucson","state":"AZ","lat":32.2974,"long":-110.8404},{"zip":"85751","city":"Tucson","state":"AZ","lat":32.2217,"long":-110.9265},{"zip":"85752","city":"Tucson","state":"AZ","lat":32.2217,"long":-110.9265},{"zip":"85754","city":"Tucson","state":"AZ","lat":32.2217,"long":-110.9265},{"zip":"85755","city":"Tucson","state":"AZ","lat":32.2217,"long":-110.9265},{"zip":"85756","city":"Tucson","state":"AZ","lat":32.0839,"long":-110.9004},{"zip":"85757","city":"Tucson","state":"AZ","lat":32.1336,"long":-111.0973},{"zip":"85775","city":"Tucson","state":"AZ","lat":32.2217,"long":-110.9265},{"zip":"85118","city":"Gold Canyon","state":"AZ","lat":33.3284,"long":-111.3502},{"zip":"85119","city":"Apache Junction","state":"AZ","lat":33.4001,"long":-111.5028},{"zip":"85120","city":"Apache Junction","state":"AZ","lat":33.3931,"long":-111.5768},{"zip":"85121","city":"Bapchule","state":"AZ","lat":33.1405,"long":-111.9128},{"zip":"85122","city":"Casa Grande","state":"AZ","lat":32.8905,"long":-111.754},{"zip":"85123","city":"Arizona City","state":"AZ","lat":32.7559,"long":-111.671},{"zip":"85128","city":"Coolidge","state":"AZ","lat":32.9574,"long":-111.5344},{"zip":"85130","city":"Casa Grande","state":"AZ","lat":32.8151,"long":-111.7054},{"zip":"85131","city":"Eloy","state":"AZ","lat":32.7509,"long":-111.5833},{"zip":"85132","city":"Florence","state":"AZ","lat":32.9969,"long":-111.3612},{"zip":"85137","city":"Kearny","state":"AZ","lat":33.0594,"long":-110.9123},{"zip":"85138","city":"Maricopa","state":"AZ","lat":33.0073,"long":-111.9324},{"zip":"85139","city":"Maricopa","state":"AZ","lat":32.9576,"long":-112.0534},{"zip":"85140","city":"San Tan Valley","state":"AZ","lat":33.1911,"long":-111.528},{"zip":"85141","city":"Picacho","state":"AZ","lat":32.6686,"long":-111.4549},{"zip":"85143","city":"San Tan Valley","state":"AZ","lat":33.1911,"long":-111.528},{"zip":"85145","city":"Red Rock","state":"AZ","lat":32.58,"long":-111.341},{"zip":"85147","city":"Sacaton","state":"AZ","lat":33.1234,"long":-111.7384},{"zip":"85172","city":"Stanfield","state":"AZ","lat":32.8823,"long":-111.966},{"zip":"85173","city":"Superior","state":"AZ","lat":33.2887,"long":-111.0985},{"zip":"85193","city":"Casa Grande","state":"AZ","lat":32.8554,"long":-111.7973},{"zip":"85194","city":"Casa Grande","state":"AZ","lat":32.8984,"long":-111.6261},{"zip":"85618","city":"Mammoth","state":"AZ","lat":32.7239,"long":-110.644},{"zip":"85623","city":"Oracle","state":"AZ","lat":32.6005,"long":-110.7961},{"zip":"85631","city":"San Manuel","state":"AZ","lat":32.6209,"long":-110.5992},{"zip":"85658","city":"Marana","state":"AZ","lat":32.4305,"long":-111.1459},{"zip":"85611","city":"Elgin","state":"AZ","lat":31.6598,"long":-110.5254},{"zip":"85621","city":"Nogales","state":"AZ","lat":31.377,"long":-110.9435},{"zip":"85624","city":"Patagonia","state":"AZ","lat":31.5353,"long":-110.6968},{"zip":"85628","city":"Nogales","state":"AZ","lat":31.532,"long":-110.9093},{"zip":"85637","city":"Sonoita","state":"AZ","lat":31.6731,"long":-110.6188},{"zip":"85640","city":"Tumacacori","state":"AZ","lat":31.5696,"long":-111.0534},{"zip":"85645","city":"Amado","state":"AZ","lat":31.6723,"long":-111.0986},{"zip":"85646","city":"Tubac","state":"AZ","lat":31.6126,"long":-111.0459},{"zip":"85648","city":"Rio Rico","state":"AZ","lat":31.5084,"long":-111.0757},{"zip":"85662","city":"Nogales","state":"AZ","lat":31.532,"long":-110.9093},{"zip":"85324","city":"Black Canyon City","state":"AZ","lat":34.0755,"long":-112.134},{"zip":"85332","city":"Congress","state":"AZ","lat":34.1764,"long":-112.768},{"zip":"85362","city":"Yarnell","state":"AZ","lat":34.2508,"long":-112.7567},{"zip":"86301","city":"Prescott","state":"AZ","lat":34.5917,"long":-112.4265},{"zip":"86302","city":"Prescott","state":"AZ","lat":34.5749,"long":-112.4915},{"zip":"86303","city":"Prescott","state":"AZ","lat":34.4958,"long":-112.3783},{"zip":"86304","city":"Prescott","state":"AZ","lat":34.5967,"long":-112.4907},{"zip":"86305","city":"Prescott","state":"AZ","lat":34.8185,"long":-112.9584},{"zip":"86312","city":"Prescott Valley","state":"AZ","lat":34.6683,"long":-112.3078},{"zip":"86313","city":"Prescott","state":"AZ","lat":34.7067,"long":-112.3977},{"zip":"86314","city":"Prescott Valley","state":"AZ","lat":34.6019,"long":-112.3264},{"zip":"86315","city":"Prescott Valley","state":"AZ","lat":34.7055,"long":-112.2639},{"zip":"86320","city":"Ash Fork","state":"AZ","lat":35.215,"long":-112.5027},{"zip":"86321","city":"Bagdad","state":"AZ","lat":34.5785,"long":-113.1755},{"zip":"86322","city":"Camp Verde","state":"AZ","lat":34.5697,"long":-111.8551},{"zip":"86323","city":"Chino Valley","state":"AZ","lat":34.7757,"long":-112.4731},{"zip":"86324","city":"Clarkdale","state":"AZ","lat":34.7711,"long":-112.0579},{"zip":"86325","city":"Cornville","state":"AZ","lat":34.7256,"long":-111.9086},{"zip":"86326","city":"Cottonwood","state":"AZ","lat":34.7055,"long":-112.0091},{"zip":"86327","city":"Dewey","state":"AZ","lat":34.5368,"long":-112.2567},{"zip":"86329","city":"Humboldt","state":"AZ","lat":34.5009,"long":-112.2374},{"zip":"86331","city":"Jerome","state":"AZ","lat":34.7486,"long":-112.1086},{"zip":"86332","city":"Kirkland","state":"AZ","lat":34.4541,"long":-112.8966},{"zip":"86333","city":"Mayer","state":"AZ","lat":34.3655,"long":-112.1296},{"zip":"86334","city":"Paulden","state":"AZ","lat":35.0313,"long":-112.5441},{"zip":"86335","city":"Rimrock","state":"AZ","lat":34.638,"long":-111.7842},{"zip":"86337","city":"Seligman","state":"AZ","lat":35.3212,"long":-112.9548},{"zip":"86338","city":"Skull Valley","state":"AZ","lat":34.5053,"long":-112.6855},{"zip":"86340","city":"Sedona","state":"AZ","lat":34.7067,"long":-112.3977},{"zip":"86341","city":"Sedona","state":"AZ","lat":34.7766,"long":-111.7679},{"zip":"86342","city":"Lake Montezuma","state":"AZ","lat":34.6417,"long":-111.7872},{"zip":"86343","city":"Crown King","state":"AZ","lat":34.2241,"long":-112.334},{"zip":"85333","city":"Dateland","state":"AZ","lat":32.8679,"long":-113.4631},{"zip":"85336","city":"Gadsden","state":"AZ","lat":32.5302,"long":-114.7743},{"zip":"85347","city":"Roll","state":"AZ","lat":32.7517,"long":-113.9891},{"zip":"85349","city":"San Luis","state":"AZ","lat":32.487,"long":-114.7822},{"zip":"85350","city":"Somerton","state":"AZ","lat":32.5634,"long":-114.7127},{"zip":"85352","city":"Tacna","state":"AZ","lat":32.6934,"long":-113.9763},{"zip":"85356","city":"Wellton","state":"AZ","lat":32.6935,"long":-114.1561},{"zip":"85364","city":"Yuma","state":"AZ","lat":32.7015,"long":-114.6424},{"zip":"85365","city":"Yuma","state":"AZ","lat":32.7093,"long":-114.4905},{"zip":"85366","city":"Yuma","state":"AZ","lat":32.61,"long":-114.6312},{"zip":"85367","city":"Yuma","state":"AZ","lat":32.6566,"long":-114.4042},{"zip":"85369","city":"Yuma","state":"AZ","lat":32.7253,"long":-114.6244},{"zip":"80011","city":"Aurora","state":"CO","lat":39.7378,"long":-104.8152},{"zip":"80019","city":"Aurora","state":"CO","lat":39.7656,"long":-104.7069},{"zip":"80022","city":"Commerce City","state":"CO","lat":39.8259,"long":-104.9113},{"zip":"80024","city":"Dupont","state":"CO","lat":39.8445,"long":-104.9188},{"zip":"80030","city":"Westminster","state":"CO","lat":39.8302,"long":-105.037},{"zip":"80031","city":"Westminster","state":"CO","lat":39.8753,"long":-105.0345},{"zip":"80035","city":"Westminster","state":"CO","lat":39.8367,"long":-105.0372},{"zip":"80036","city":"Westminster","state":"CO","lat":39.8367,"long":-105.0372},{"zip":"80037","city":"Commerce City","state":"CO","lat":39.8083,"long":-104.9339},{"zip":"80040","city":"Aurora","state":"CO","lat":39.7294,"long":-104.8319},{"zip":"80042","city":"Aurora","state":"CO","lat":39.7294,"long":-104.8319},{"zip":"80045","city":"Aurora","state":"CO","lat":39.7467,"long":-104.8384},{"zip":"80102","city":"Bennett","state":"CO","lat":39.7589,"long":-104.4275},{"zip":"80136","city":"Strasburg","state":"CO","lat":39.7814,"long":-104.2683},{"zip":"80137","city":"Watkins","state":"CO","lat":39.7623,"long":-104.5834},{"zip":"80221","city":"Denver","state":"CO","lat":39.838,"long":-104.9988},{"zip":"80229","city":"Denver","state":"CO","lat":39.8671,"long":-104.9227},{"zip":"80233","city":"Denver","state":"CO","lat":39.9015,"long":-104.9407},{"zip":"80234","city":"Denver","state":"CO","lat":39.9108,"long":-105.0109},{"zip":"80241","city":"Thornton","state":"CO","lat":39.868,"long":-104.9719},{"zip":"80260","city":"Denver","state":"CO","lat":39.8672,"long":-105.0041},{"zip":"80601","city":"Brighton","state":"CO","lat":39.943,"long":-104.7866},{"zip":"80602","city":"Brighton","state":"CO","lat":39.9636,"long":-104.9072},{"zip":"80603","city":"Brighton","state":"CO","lat":39.9515,"long":-104.7746},{"zip":"80614","city":"Eastlake","state":"CO","lat":39.9239,"long":-104.9614},{"zip":"80640","city":"Henderson","state":"CO","lat":39.8983,"long":-104.8718},{"zip":"81101","city":"Alamosa","state":"CO","lat":37.4703,"long":-105.8786},{"zip":"81102","city":"Alamosa","state":"CO","lat":37.476,"long":-105.8818},{"zip":"81136","city":"Hooper","state":"CO","lat":37.7232,"long":-105.8712},{"zip":"81146","city":"Mosca","state":"CO","lat":37.6358,"long":-105.8069},{"zip":"80010","city":"Aurora","state":"CO","lat":39.7368,"long":-104.8646},{"zip":"80012","city":"Aurora","state":"CO","lat":39.6987,"long":-104.8377},{"zip":"80013","city":"Aurora","state":"CO","lat":39.6575,"long":-104.7846},{"zip":"80014","city":"Aurora","state":"CO","lat":39.6662,"long":-104.835},{"zip":"80015","city":"Aurora","state":"CO","lat":39.6255,"long":-104.7874},{"zip":"80016","city":"Aurora","state":"CO","lat":39.6012,"long":-104.7394},{"zip":"80017","city":"Aurora","state":"CO","lat":39.6948,"long":-104.7881},{"zip":"80018","city":"Aurora","state":"CO","lat":39.7102,"long":-104.7071},{"zip":"80041","city":"Aurora","state":"CO","lat":39.7388,"long":-104.4083},{"zip":"80044","city":"Aurora","state":"CO","lat":39.7388,"long":-104.4083},{"zip":"80046","city":"Aurora","state":"CO","lat":39.7388,"long":-104.4083},{"zip":"80047","city":"Aurora","state":"CO","lat":39.7388,"long":-104.4083},{"zip":"80103","city":"Byers","state":"CO","lat":39.6985,"long":-104.2019},{"zip":"80105","city":"Deer Trail","state":"CO","lat":39.5931,"long":-104.068},{"zip":"80110","city":"Englewood","state":"CO","lat":39.6463,"long":-105.0092},{"zip":"80111","city":"Englewood","state":"CO","lat":39.6123,"long":-104.8799},{"zip":"80112","city":"Englewood","state":"CO","lat":39.5805,"long":-104.9011},{"zip":"80113","city":"Englewood","state":"CO","lat":39.6405,"long":-104.9614},{"zip":"80120","city":"Littleton","state":"CO","lat":39.5994,"long":-105.0044},{"zip":"80121","city":"Littleton","state":"CO","lat":39.6111,"long":-104.9532},{"zip":"80122","city":"Littleton","state":"CO","lat":39.5814,"long":-104.9557},{"zip":"80150","city":"Englewood","state":"CO","lat":39.6478,"long":-104.9878},{"zip":"80151","city":"Englewood","state":"CO","lat":39.6478,"long":-104.9878},{"zip":"80155","city":"Englewood","state":"CO","lat":39.6478,"long":-104.9878},{"zip":"80160","city":"Littleton","state":"CO","lat":39.6133,"long":-105.0166},{"zip":"80161","city":"Littleton","state":"CO","lat":39.6133,"long":-105.0166},{"zip":"80165","city":"Littleton","state":"CO","lat":39.6133,"long":-105.0166},{"zip":"80166","city":"Littleton","state":"CO","lat":39.6133,"long":-105.0166},{"zip":"81121","city":"Arboles","state":"CO","lat":37.0281,"long":-107.4192},{"zip":"81128","city":"Chromo","state":"CO","lat":37.0364,"long":-106.8434},{"zip":"81147","city":"Pagosa Springs","state":"CO","lat":37.2523,"long":-107.0385},{"zip":"81157","city":"Pagosa Springs","state":"CO","lat":37.2694,"long":-107.0098},{"zip":"81029","city":"Campo","state":"CO","lat":37.1195,"long":-102.5464},{"zip":"81064","city":"Pritchett","state":"CO","lat":37.2723,"long":-102.9145},{"zip":"81073","city":"Springfield","state":"CO","lat":37.4067,"long":-102.6173},{"zip":"81084","city":"Two Buttes","state":"CO","lat":37.5214,"long":-102.4332},{"zip":"81087","city":"Vilas","state":"CO","lat":37.373,"long":-102.4437},{"zip":"81090","city":"Walsh","state":"CO","lat":37.3521,"long":-102.2537},{"zip":"81038","city":"Fort Lyon","state":"CO","lat":37.9555,"long":-103.0725},{"zip":"81044","city":"Hasty","state":"CO","lat":37.959,"long":-103.015},{"zip":"81054","city":"Las Animas","state":"CO","lat":37.923,"long":-103.0884},{"zip":"81057","city":"Mc Clave","state":"CO","lat":38.085,"long":-102.8869},{"zip":"80020","city":"Broomfield","state":"CO","lat":39.9245,"long":-105.0609},{"zip":"80025","city":"Eldorado Springs","state":"CO","lat":39.9324,"long":-105.288},{"zip":"80026","city":"Lafayette","state":"CO","lat":39.998,"long":-105.0963},{"zip":"80027","city":"Louisville","state":"CO","lat":39.9789,"long":-105.1456},{"zip":"80038","city":"Broomfield","state":"CO","lat":39.9205,"long":-105.0867},{"zip":"80301","city":"Boulder","state":"CO","lat":40.0497,"long":-105.2143},{"zip":"80302","city":"Boulder","state":"CO","lat":40.0172,"long":-105.2851},{"zip":"80303","city":"Boulder","state":"CO","lat":39.9914,"long":-105.2392},{"zip":"80304","city":"Boulder","state":"CO","lat":40.0375,"long":-105.2771},{"zip":"80305","city":"Boulder","state":"CO","lat":39.9807,"long":-105.2531},{"zip":"80306","city":"Boulder","state":"CO","lat":40.1022,"long":-105.3847},{"zip":"80307","city":"Boulder","state":"CO","lat":40.0878,"long":-105.3735},{"zip":"80308","city":"Boulder","state":"CO","lat":40.0277,"long":-105.3868},{"zip":"80309","city":"Boulder","state":"CO","lat":40.015,"long":-105.2705},{"zip":"80310","city":"Boulder","state":"CO","lat":40.0878,"long":-105.3735},{"zip":"80314","city":"Boulder","state":"CO","lat":40.0878,"long":-105.3735},{"zip":"80455","city":"Jamestown","state":"CO","lat":40.1155,"long":-105.3886},{"zip":"80466","city":"Nederland","state":"CO","lat":39.9703,"long":-105.4813},{"zip":"80471","city":"Pinecliffe","state":"CO","lat":39.9474,"long":-105.4593},{"zip":"80481","city":"Ward","state":"CO","lat":40.0726,"long":-105.508},{"zip":"80501","city":"Longmont","state":"CO","lat":40.1779,"long":-105.1009},{"zip":"80502","city":"Longmont","state":"CO","lat":40.1672,"long":-105.1019},{"zip":"80503","city":"Longmont","state":"CO","lat":40.1559,"long":-105.1624},{"zip":"80510","city":"Allenspark","state":"CO","lat":40.2268,"long":-105.5201},{"zip":"80533","city":"Hygiene","state":"CO","lat":40.1815,"long":-105.2327},{"zip":"80540","city":"Lyons","state":"CO","lat":40.2357,"long":-105.3231},{"zip":"80544","city":"Niwot","state":"CO","lat":40.1039,"long":-105.1708},{"zip":"80023","city":"Broomfield","state":"CO","lat":39.9619,"long":-105.0148},{"zip":"81201","city":"Salida","state":"CO","lat":38.5259,"long":-105.9978},{"zip":"81211","city":"Buena Vista","state":"CO","lat":38.838,"long":-106.1471},{"zip":"81227","city":"Monarch","state":"CO","lat":38.5458,"long":-106.2434},{"zip":"81228","city":"Granite","state":"CO","lat":39.0307,"long":-106.2566},{"zip":"81236","city":"Nathrop","state":"CO","lat":38.7103,"long":-106.1166},{"zip":"81242","city":"Poncha Springs","state":"CO","lat":38.5128,"long":-106.0772},{"zip":"80802","city":"Arapahoe","state":"CO","lat":38.8417,"long":-102.194},{"zip":"80810","city":"Cheyenne Wells","state":"CO","lat":38.8198,"long":-102.3582},{"zip":"80825","city":"Kit Carson","state":"CO","lat":38.804,"long":-102.8198},{"zip":"80862","city":"Wild Horse","state":"CO","lat":38.8041,"long":-103.0798},{"zip":"80436","city":"Dumont","state":"CO","lat":39.7647,"long":-105.6003},{"zip":"80438","city":"Empire","state":"CO","lat":39.7614,"long":-105.6844},{"zip":"80444","city":"Georgetown","state":"CO","lat":39.7061,"long":-105.6975},{"zip":"80452","city":"Idaho Springs","state":"CO","lat":39.7402,"long":-105.5983},{"zip":"80476","city":"Silver Plume","state":"CO","lat":39.6996,"long":-105.7507},{"zip":"81120","city":"Antonito","state":"CO","lat":37.0855,"long":-106.0379},{"zip":"81124","city":"Capulin","state":"CO","lat":37.2839,"long":-106.1114},{"zip":"81129","city":"Conejos","state":"CO","lat":37.1011,"long":-106.0265},{"zip":"81140","city":"La Jara","state":"CO","lat":37.2907,"long":-106.0054},{"zip":"81141","city":"Manassa","state":"CO","lat":37.1755,"long":-105.9278},{"zip":"81148","city":"Romeo","state":"CO","lat":37.1721,"long":-105.9858},{"zip":"81151","city":"Sanford","state":"CO","lat":37.2583,"long":-105.9047},{"zip":"81123","city":"Blanca","state":"CO","lat":37.4317,"long":-105.5178},{"zip":"81126","city":"Chama","state":"CO","lat":37.162,"long":-105.3783},{"zip":"81133","city":"Fort Garland","state":"CO","lat":37.427,"long":-105.4049},{"zip":"81138","city":"Jaroso","state":"CO","lat":37.0028,"long":-105.6242},{"zip":"81152","city":"San Luis","state":"CO","lat":37.1066,"long":-105.4781},{"zip":"81033","city":"Crowley","state":"CO","lat":38.1931,"long":-103.8561},{"zip":"81034","city":"Crowley","state":"CO","lat":38.1931,"long":-103.8561},{"zip":"81062","city":"Olney Springs","state":"CO","lat":38.2019,"long":-103.941},{"zip":"81063","city":"Ordway","state":"CO","lat":38.2095,"long":-103.8003},{"zip":"81076","city":"Sugar City","state":"CO","lat":38.2444,"long":-103.6556},{"zip":"81252","city":"Westcliffe","state":"CO","lat":38.123,"long":-105.4332},{"zip":"81253","city":"Wetmore","state":"CO","lat":38.1217,"long":-105.1477},{"zip":"81410","city":"Austin","state":"CO","lat":38.7975,"long":-107.9738},{"zip":"81413","city":"Cedaredge","state":"CO","lat":38.9119,"long":-107.9268},{"zip":"81414","city":"Cory","state":"CO","lat":38.7887,"long":-107.9862},{"zip":"81415","city":"Crawford","state":"CO","lat":38.6941,"long":-107.6149},{"zip":"81416","city":"Delta","state":"CO","lat":38.7349,"long":-108.0604},{"zip":"81418","city":"Eckert","state":"CO","lat":38.845,"long":-107.9625},{"zip":"81419","city":"Hotchkiss","state":"CO","lat":38.8124,"long":-107.7472},{"zip":"81420","city":"Lazear","state":"CO","lat":38.7817,"long":-107.7808},{"zip":"81428","city":"Paonia","state":"CO","lat":38.865,"long":-107.5985},{"zip":"80201","city":"Denver","state":"CO","lat":39.7263,"long":-104.8568},{"zip":"80202","city":"Denver","state":"CO","lat":39.7491,"long":-104.9946},{"zip":"80203","city":"Denver","state":"CO","lat":39.7313,"long":-104.9811},{"zip":"80204","city":"Denver","state":"CO","lat":39.734,"long":-105.0259},{"zip":"80205","city":"Denver","state":"CO","lat":39.759,"long":-104.9661},{"zip":"80206","city":"Denver","state":"CO","lat":39.7331,"long":-104.9524},{"zip":"80207","city":"Denver","state":"CO","lat":39.7584,"long":-104.9177},{"zip":"80208","city":"Denver","state":"CO","lat":39.7392,"long":-104.9847},{"zip":"80209","city":"Denver","state":"CO","lat":39.7074,"long":-104.9686},{"zip":"80210","city":"Denver","state":"CO","lat":39.679,"long":-104.9631},{"zip":"80211","city":"Denver","state":"CO","lat":39.7665,"long":-105.0204},{"zip":"80212","city":"Denver","state":"CO","lat":39.7683,"long":-105.0493},{"zip":"80216","city":"Denver","state":"CO","lat":39.7835,"long":-104.9669},{"zip":"80217","city":"Denver","state":"CO","lat":39.7392,"long":-104.9847},{"zip":"80218","city":"Denver","state":"CO","lat":39.7327,"long":-104.9717},{"zip":"80219","city":"Denver","state":"CO","lat":39.6956,"long":-105.0341},{"zip":"80220","city":"Denver","state":"CO","lat":39.7312,"long":-104.9129},{"zip":"80222","city":"Denver","state":"CO","lat":39.671,"long":-104.9279},{"zip":"80223","city":"Denver","state":"CO","lat":39.7002,"long":-105.0028},{"zip":"80224","city":"Denver","state":"CO","lat":39.688,"long":-104.9108},{"zip":"80227","city":"Denver","state":"CO","lat":39.6667,"long":-105.0854},{"zip":"80230","city":"Denver","state":"CO","lat":39.7218,"long":-104.8951},{"zip":"80231","city":"Denver","state":"CO","lat":39.6793,"long":-104.8843},{"zip":"80235","city":"Denver","state":"CO","lat":39.6472,"long":-105.0795},{"zip":"80236","city":"Denver","state":"CO","lat":39.6535,"long":-105.0376},{"zip":"80237","city":"Denver","state":"CO","lat":39.6431,"long":-104.8987},{"zip":"80238","city":"Denver","state":"CO","lat":39.7392,"long":-104.9847},{"zip":"80239","city":"Denver","state":"CO","lat":39.7878,"long":-104.8288},{"zip":"80243","city":"Denver","state":"CO","lat":39.7392,"long":-104.9847},{"zip":"80244","city":"Denver","state":"CO","lat":39.7392,"long":-104.9847},{"zip":"80246","city":"Denver","state":"CO","lat":39.7086,"long":-104.9312},{"zip":"80247","city":"Denver","state":"CO","lat":39.6971,"long":-104.8819},{"zip":"80248","city":"Denver","state":"CO","lat":39.7392,"long":-104.9847},{"zip":"80249","city":"Denver","state":"CO","lat":39.7783,"long":-104.7557},{"zip":"80250","city":"Denver","state":"CO","lat":39.7392,"long":-104.9847},{"zip":"80251","city":"Denver","state":"CO","lat":39.7392,"long":-104.9847},{"zip":"80252","city":"Denver","state":"CO","lat":39.7392,"long":-104.9847},{"zip":"80256","city":"Denver","state":"CO","lat":39.7474,"long":-104.9928},{"zip":"80257","city":"Denver","state":"CO","lat":39.7392,"long":-104.9847},{"zip":"80259","city":"Denver","state":"CO","lat":39.7462,"long":-104.9913},{"zip":"80261","city":"Denver","state":"CO","lat":39.7379,"long":-104.985},{"zip":"80262","city":"Denver","state":"CO","lat":39.731,"long":-104.9384},{"zip":"80263","city":"Denver","state":"CO","lat":39.7392,"long":-104.9847},{"zip":"80264","city":"Denver","state":"CO","lat":39.7426,"long":-104.9863},{"zip":"80265","city":"Denver","state":"CO","lat":39.7392,"long":-104.9847},{"zip":"80266","city":"Denver","state":"CO","lat":39.7472,"long":-104.9915},{"zip":"80271","city":"Denver","state":"CO","lat":39.7392,"long":-104.9847},{"zip":"80273","city":"Denver","state":"CO","lat":39.7273,"long":-104.9875},{"zip":"80274","city":"Denver","state":"CO","lat":39.7439,"long":-104.9876},{"zip":"80281","city":"Denver","state":"CO","lat":39.7439,"long":-104.9876},{"zip":"80290","city":"Denver","state":"CO","lat":39.7436,"long":-104.9876},{"zip":"80291","city":"Denver","state":"CO","lat":39.7439,"long":-104.9876},{"zip":"80293","city":"Denver","state":"CO","lat":39.7458,"long":-104.9907},{"zip":"80294","city":"Denver","state":"CO","lat":39.7491,"long":-104.989},{"zip":"80299","city":"Denver","state":"CO","lat":39.7392,"long":-104.9847},{"zip":"81320","city":"Cahone","state":"CO","lat":37.7182,"long":-108.7917},{"zip":"81324","city":"Dove Creek","state":"CO","lat":37.7632,"long":-108.9181},{"zip":"81332","city":"Rico","state":"CO","lat":37.6905,"long":-108.0324},{"zip":"80104","city":"Castle Rock","state":"CO","lat":39.3722,"long":-104.8561},{"zip":"80108","city":"Castle Rock","state":"CO","lat":39.4455,"long":-104.853},{"zip":"80109","city":"Castle Rock","state":"CO","lat":39.3643,"long":-104.9014},{"zip":"80116","city":"Franktown","state":"CO","lat":39.3728,"long":-104.7256},{"zip":"80118","city":"Larkspur","state":"CO","lat":39.2011,"long":-104.8546},{"zip":"80124","city":"Lone Tree","state":"CO","lat":39.5517,"long":-104.8863},{"zip":"80125","city":"Littleton","state":"CO","lat":39.4845,"long":-105.0561},{"zip":"80126","city":"Littleton","state":"CO","lat":39.5437,"long":-104.9691},{"zip":"80129","city":"Littleton","state":"CO","lat":39.5397,"long":-105.0109},{"zip":"80130","city":"Littleton","state":"CO","lat":39.5414,"long":-104.9218},{"zip":"80131","city":"Louviers","state":"CO","lat":39.4764,"long":-105.0075},{"zip":"80134","city":"Parker","state":"CO","lat":39.4895,"long":-104.8447},{"zip":"80135","city":"Sedalia","state":"CO","lat":39.3113,"long":-105.0676},{"zip":"80138","city":"Parker","state":"CO","lat":39.5102,"long":-104.7216},{"zip":"80163","city":"Littleton","state":"CO","lat":39.3479,"long":-104.9947},{"zip":"80423","city":"Bond","state":"CO","lat":39.8691,"long":-106.6763},{"zip":"80426","city":"Burns","state":"CO","lat":39.8739,"long":-106.8856},{"zip":"80463","city":"Mc Coy","state":"CO","lat":39.9134,"long":-106.7309},{"zip":"81620","city":"Avon","state":"CO","lat":39.6313,"long":-106.5108},{"zip":"81621","city":"Basalt","state":"CO","lat":39.3535,"long":-106.9988},{"zip":"81631","city":"Eagle","state":"CO","lat":39.6341,"long":-106.7588},{"zip":"81632","city":"Edwards","state":"CO","lat":39.6382,"long":-106.6206},{"zip":"81637","city":"Gypsum","state":"CO","lat":39.6618,"long":-106.9671},{"zip":"81645","city":"Minturn","state":"CO","lat":39.5805,"long":-106.4176},{"zip":"81649","city":"Red Cliff","state":"CO","lat":39.5122,"long":-106.3681},{"zip":"81655","city":"Wolcott","state":"CO","lat":39.7907,"long":-106.6964},{"zip":"81657","city":"Vail","state":"CO","lat":39.6512,"long":-106.3234},{"zip":"81658","city":"Vail","state":"CO","lat":39.6242,"long":-106.4973},{"zip":"80101","city":"Agate","state":"CO","lat":39.4203,"long":-103.9846},{"zip":"80106","city":"Elbert","state":"CO","lat":39.0969,"long":-104.5746},{"zip":"80107","city":"Elizabeth","state":"CO","lat":39.3836,"long":-104.592},{"zip":"80117","city":"Kiowa","state":"CO","lat":39.324,"long":-104.4523},{"zip":"80830","city":"Matheson","state":"CO","lat":39.132,"long":-103.9132},{"zip":"80835","city":"Simla","state":"CO","lat":39.2087,"long":-104.0702},{"zip":"80132","city":"Monument","state":"CO","lat":39.1007,"long":-104.8542},{"zip":"80133","city":"Palmer Lake","state":"CO","lat":39.1205,"long":-104.9148},{"zip":"80808","city":"Calhan","state":"CO","lat":38.9648,"long":-104.3553},{"zip":"80809","city":"Cascade","state":"CO","lat":38.8967,"long":-104.9722},{"zip":"80817","city":"Fountain","state":"CO","lat":38.6996,"long":-104.7005},{"zip":"80819","city":"Green Mountain Falls","state":"CO","lat":38.9389,"long":-105.0094},{"zip":"80829","city":"Manitou Springs","state":"CO","lat":38.855,"long":-104.9058},{"zip":"80831","city":"Peyton","state":"CO","lat":38.9541,"long":-104.5472},{"zip":"80832","city":"Ramah","state":"CO","lat":39.0736,"long":-104.1247},{"zip":"80833","city":"Rush","state":"CO","lat":38.7642,"long":-104.0241},{"zip":"80840","city":"Usaf Academy","state":"CO","lat":39.0896,"long":-103.8188},{"zip":"80841","city":"Usaf Academy","state":"CO","lat":39.0896,"long":-103.8188},{"zip":"80864","city":"Yoder","state":"CO","lat":38.7753,"long":-104.2184},{"zip":"80901","city":"Colorado Springs","state":"CO","lat":38.8339,"long":-104.8214},{"zip":"80902","city":"Colorado Springs","state":"CO","lat":38.7536,"long":-104.8063},{"zip":"80903","city":"Colorado Springs","state":"CO","lat":38.8388,"long":-104.8145},{"zip":"80904","city":"Colorado Springs","state":"CO","lat":38.8533,"long":-104.8595},{"zip":"80905","city":"Colorado Springs","state":"CO","lat":38.8377,"long":-104.837},{"zip":"80906","city":"Colorado Springs","state":"CO","lat":38.7902,"long":-104.8199},{"zip":"80907","city":"Colorado Springs","state":"CO","lat":38.876,"long":-104.817},{"zip":"80908","city":"Colorado Springs","state":"CO","lat":39.0237,"long":-104.6933},{"zip":"80909","city":"Colorado Springs","state":"CO","lat":38.852,"long":-104.7735},{"zip":"80910","city":"Colorado Springs","state":"CO","lat":38.8152,"long":-104.7703},{"zip":"80911","city":"Colorado Springs","state":"CO","lat":38.7457,"long":-104.7223},{"zip":"80912","city":"Colorado Springs","state":"CO","lat":38.8339,"long":-104.8214},{"zip":"80913","city":"Colorado Springs","state":"CO","lat":38.73,"long":-104.7536},{"zip":"80914","city":"Colorado Springs","state":"CO","lat":38.8192,"long":-104.7012},{"zip":"80915","city":"Colorado Springs","state":"CO","lat":38.8558,"long":-104.7134},{"zip":"80916","city":"Colorado Springs","state":"CO","lat":38.8076,"long":-104.7403},{"zip":"80917","city":"Colorado Springs","state":"CO","lat":38.886,"long":-104.7399},{"zip":"80918","city":"Colorado Springs","state":"CO","lat":38.9129,"long":-104.7734},{"zip":"80919","city":"Colorado Springs","state":"CO","lat":38.9268,"long":-104.8464},{"zip":"80920","city":"Colorado Springs","state":"CO","lat":38.9497,"long":-104.767},{"zip":"80921","city":"Colorado Springs","state":"CO","lat":39.0487,"long":-104.814},{"zip":"80922","city":"Colorado Springs","state":"CO","lat":38.905,"long":-104.6982},{"zip":"80923","city":"Colorado Springs","state":"CO","lat":38.9189,"long":-104.7045},{"zip":"80924","city":"Colorado Springs","state":"CO","lat":38.9676,"long":-104.7211},{"zip":"80925","city":"Colorado Springs","state":"CO","lat":38.7378,"long":-104.6459},{"zip":"80926","city":"Colorado Springs","state":"CO","lat":38.6981,"long":-104.8505},{"zip":"80927","city":"Colorado Springs","state":"CO","lat":38.9286,"long":-104.6583},{"zip":"80928","city":"Colorado Springs","state":"CO","lat":38.6233,"long":-104.457},{"zip":"80929","city":"Colorado Springs","state":"CO","lat":38.7968,"long":-104.6079},{"zip":"80930","city":"Colorado Springs","state":"CO","lat":38.8289,"long":-104.5269},{"zip":"80931","city":"Colorado Springs","state":"CO","lat":38.8339,"long":-104.8214},{"zip":"80932","city":"Colorado Springs","state":"CO","lat":38.8339,"long":-104.8214},{"zip":"80933","city":"Colorado Springs","state":"CO","lat":38.8339,"long":-104.8214},{"zip":"80934","city":"Colorado Springs","state":"CO","lat":38.8339,"long":-104.8214},{"zip":"80935","city":"Colorado Springs","state":"CO","lat":38.8339,"long":-104.8214},{"zip":"80936","city":"Colorado Springs","state":"CO","lat":38.8339,"long":-104.8214},{"zip":"80937","city":"Colorado Springs","state":"CO","lat":38.8339,"long":-104.8214},{"zip":"80938","city":"Colorado Springs","state":"CO","lat":38.9047,"long":-104.6634},{"zip":"80939","city":"Colorado Springs","state":"CO","lat":38.8776,"long":-104.6774},{"zip":"80941","city":"Colorado Springs","state":"CO","lat":38.8339,"long":-104.8214},{"zip":"80942","city":"Colorado Springs","state":"CO","lat":38.8339,"long":-104.8214},{"zip":"80944","city":"Colorado Springs","state":"CO","lat":38.8339,"long":-104.8214},{"zip":"80946","city":"Colorado Springs","state":"CO","lat":38.8339,"long":-104.8214},{"zip":"80947","city":"Colorado Springs","state":"CO","lat":38.8339,"long":-104.8214},{"zip":"80949","city":"Colorado Springs","state":"CO","lat":38.8339,"long":-104.8214},{"zip":"80950","city":"Colorado Springs","state":"CO","lat":38.8339,"long":-104.8214},{"zip":"80951","city":"Colorado Springs","state":"CO","lat":38.8881,"long":-104.6556},{"zip":"80960","city":"Colorado Springs","state":"CO","lat":38.8339,"long":-104.8214},{"zip":"80962","city":"Colorado Springs","state":"CO","lat":38.8339,"long":-104.8214},{"zip":"80970","city":"Colorado Springs","state":"CO","lat":38.8339,"long":-104.8214},{"zip":"80977","city":"Colorado Springs","state":"CO","lat":38.8339,"long":-104.8214},{"zip":"80995","city":"Colorado Springs","state":"CO","lat":38.8339,"long":-104.8214},{"zip":"80997","city":"Colorado Springs","state":"CO","lat":38.8339,"long":-104.8214},{"zip":"81212","city":"Canon City","state":"CO","lat":38.4451,"long":-105.2178},{"zip":"81215","city":"Canon City","state":"CO","lat":38.4776,"long":-105.4766},{"zip":"81221","city":"Coal Creek","state":"CO","lat":38.3611,"long":-105.1483},{"zip":"81222","city":"Coaldale","state":"CO","lat":38.3824,"long":-105.7843},{"zip":"81223","city":"Cotopaxi","state":"CO","lat":38.3703,"long":-105.6881},{"zip":"81226","city":"Florence","state":"CO","lat":38.385,"long":-105.1232},{"zip":"81232","city":"Hillside","state":"CO","lat":38.2653,"long":-105.6117},{"zip":"81233","city":"Howard","state":"CO","lat":38.41,"long":-105.7698},{"zip":"81240","city":"Penrose","state":"CO","lat":38.4336,"long":-105.0113},{"zip":"81244","city":"Rockvale","state":"CO","lat":38.3697,"long":-105.1639},{"zip":"81290","city":"Florence","state":"CO","lat":38.3903,"long":-105.1186},{"zip":"81601","city":"Glenwood Springs","state":"CO","lat":39.5296,"long":-107.3252},{"zip":"81602","city":"Glenwood Springs","state":"CO","lat":39.5505,"long":-107.3248},{"zip":"81623","city":"Carbondale","state":"CO","lat":39.2511,"long":-107.2044},{"zip":"81635","city":"Parachute","state":"CO","lat":39.4519,"long":-108.0529},{"zip":"81636","city":"Battlement Mesa","state":"CO","lat":39.4305,"long":-108.0239},{"zip":"81647","city":"New Castle","state":"CO","lat":39.5709,"long":-107.5428},{"zip":"81650","city":"Rifle","state":"CO","lat":39.5491,"long":-107.7898},{"zip":"81652","city":"Silt","state":"CO","lat":39.5028,"long":-107.6657},{"zip":"80422","city":"Black Hawk","state":"CO","lat":39.816,"long":-105.4753},{"zip":"80427","city":"Central City","state":"CO","lat":39.8019,"long":-105.5142},{"zip":"80474","city":"Rollinsville","state":"CO","lat":39.9172,"long":-105.5011},{"zip":"80442","city":"Fraser","state":"CO","lat":39.945,"long":-105.8172},{"zip":"80446","city":"Granby","state":"CO","lat":40.0739,"long":-105.9285},{"zip":"80447","city":"Grand Lake","state":"CO","lat":40.2289,"long":-105.8605},{"zip":"80451","city":"Hot Sulphur Springs","state":"CO","lat":40.0712,"long":-106.0693},{"zip":"80459","city":"Kremmling","state":"CO","lat":40.0632,"long":-106.3955},{"zip":"80468","city":"Parshall","state":"CO","lat":39.9539,"long":-106.093},{"zip":"80478","city":"Tabernash","state":"CO","lat":39.9797,"long":-105.8615},{"zip":"80482","city":"Winter Park","state":"CO","lat":39.8939,"long":-105.7845},{"zip":"81210","city":"Almont","state":"CO","lat":38.82,"long":-106.6603},{"zip":"81224","city":"Crested Butte","state":"CO","lat":38.8691,"long":-106.9619},{"zip":"81225","city":"Crested Butte","state":"CO","lat":38.9006,"long":-106.9631},{"zip":"81230","city":"Gunnison","state":"CO","lat":38.5511,"long":-106.931},{"zip":"81231","city":"Gunnison","state":"CO","lat":38.7023,"long":-106.9402},{"zip":"81237","city":"Ohio City","state":"CO","lat":38.5908,"long":-106.6028},{"zip":"81239","city":"Parlin","state":"CO","lat":38.5371,"long":-106.6352},{"zip":"81241","city":"Pitkin","state":"CO","lat":38.6179,"long":-106.5146},{"zip":"81243","city":"Powderhorn","state":"CO","lat":38.2822,"long":-107.1084},{"zip":"81434","city":"Somerset","state":"CO","lat":38.9468,"long":-107.3781},{"zip":"81235","city":"Lake City","state":"CO","lat":37.9868,"long":-107.302},{"zip":"81040","city":"Gardner","state":"CO","lat":37.7878,"long":-105.1849},{"zip":"81055","city":"La Veta","state":"CO","lat":37.5117,"long":-105.0575},{"zip":"81089","city":"Walsenburg","state":"CO","lat":37.6465,"long":-104.7798},{"zip":"80430","city":"Coalmont","state":"CO","lat":40.5383,"long":-106.5321},{"zip":"80434","city":"Cowdrey","state":"CO","lat":40.8597,"long":-106.3131},{"zip":"80473","city":"Rand","state":"CO","lat":40.4667,"long":-106.1857},{"zip":"80480","city":"Walden","state":"CO","lat":40.71,"long":-106.2767},{"zip":"80001","city":"Arvada","state":"CO","lat":39.8028,"long":-105.0875},{"zip":"80002","city":"Arvada","state":"CO","lat":39.7945,"long":-105.0984},{"zip":"80003","city":"Arvada","state":"CO","lat":39.8286,"long":-105.0655},{"zip":"80004","city":"Arvada","state":"CO","lat":39.8141,"long":-105.1177},{"zip":"80005","city":"Arvada","state":"CO","lat":39.8422,"long":-105.1097},{"zip":"80006","city":"Arvada","state":"CO","lat":39.8028,"long":-105.0875},{"zip":"80007","city":"Arvada","state":"CO","lat":39.8634,"long":-105.1724},{"zip":"80021","city":"Broomfield","state":"CO","lat":39.8854,"long":-105.1139},{"zip":"80033","city":"Wheat Ridge","state":"CO","lat":39.774,"long":-105.0962},{"zip":"80034","city":"Wheat Ridge","state":"CO","lat":39.7661,"long":-105.0772},{"zip":"80123","city":"Littleton","state":"CO","lat":39.6206,"long":-105.0901},{"zip":"80127","city":"Littleton","state":"CO","lat":39.592,"long":-105.1328},{"zip":"80128","city":"Littleton","state":"CO","lat":39.5918,"long":-105.0832},{"zip":"80162","city":"Littleton","state":"CO","lat":39.522,"long":-105.2239},{"zip":"80214","city":"Denver","state":"CO","lat":39.7436,"long":-105.0643},{"zip":"80215","city":"Denver","state":"CO","lat":39.7435,"long":-105.1009},{"zip":"80225","city":"Denver","state":"CO","lat":39.6971,"long":-105.1204},{"zip":"80226","city":"Denver","state":"CO","lat":39.7123,"long":-105.0918},{"zip":"80228","city":"Denver","state":"CO","lat":39.6888,"long":-105.156},{"zip":"80232","city":"Denver","state":"CO","lat":39.6895,"long":-105.0908},{"zip":"80401","city":"Golden","state":"CO","lat":39.7305,"long":-105.1915},{"zip":"80402","city":"Golden","state":"CO","lat":39.7555,"long":-105.2211},{"zip":"80403","city":"Golden","state":"CO","lat":39.8232,"long":-105.2825},{"zip":"80419","city":"Golden","state":"CO","lat":39.522,"long":-105.2239},{"zip":"80425","city":"Buffalo Creek","state":"CO","lat":39.3867,"long":-105.2703},{"zip":"80433","city":"Conifer","state":"CO","lat":39.5197,"long":-105.3169},{"zip":"80437","city":"Evergreen","state":"CO","lat":39.522,"long":-105.2239},{"zip":"80439","city":"Evergreen","state":"CO","lat":39.6374,"long":-105.3402},{"zip":"80453","city":"Idledale","state":"CO","lat":39.6684,"long":-105.2442},{"zip":"80454","city":"Indian Hills","state":"CO","lat":39.6296,"long":-105.2514},{"zip":"80457","city":"Kittredge","state":"CO","lat":39.6481,"long":-105.2782},{"zip":"80465","city":"Morrison","state":"CO","lat":39.6125,"long":-105.1746},{"zip":"80470","city":"Pine","state":"CO","lat":39.4667,"long":-105.3741},{"zip":"81021","city":"Arlington","state":"CO","lat":38.4068,"long":-103.3697},{"zip":"81036","city":"Eads","state":"CO","lat":38.4408,"long":-102.5549},{"zip":"81045","city":"Haswell","state":"CO","lat":38.4474,"long":-103.1505},{"zip":"81071","city":"Sheridan Lake","state":"CO","lat":38.4667,"long":-102.2921},{"zip":"80805","city":"Bethune","state":"CO","lat":39.3448,"long":-102.4281},{"zip":"80807","city":"Burlington","state":"CO","lat":39.3106,"long":-102.2583},{"zip":"80815","city":"Flagler","state":"CO","lat":39.3127,"long":-103.0624},{"zip":"80834","city":"Seibert","state":"CO","lat":39.3183,"long":-102.8822},{"zip":"80836","city":"Stratton","state":"CO","lat":39.3087,"long":-102.5979},{"zip":"80861","city":"Vona","state":"CO","lat":39.3236,"long":-102.7393},{"zip":"80429","city":"Climax","state":"CO","lat":39.2258,"long":-106.3117},{"zip":"80461","city":"Leadville","state":"CO","lat":39.2497,"long":-106.3015},{"zip":"81251","city":"Twin Lakes","state":"CO","lat":39.1011,"long":-106.4416},{"zip":"81122","city":"Bayfield","state":"CO","lat":37.2603,"long":-107.6137},{"zip":"81137","city":"Ignacio","state":"CO","lat":37.1264,"long":-107.6395},{"zip":"81301","city":"Durango","state":"CO","lat":37.2874,"long":-107.8617},{"zip":"81302","city":"Durango","state":"CO","lat":37.2753,"long":-107.8801},{"zip":"81303","city":"Durango","state":"CO","lat":37.1156,"long":-107.8909},{"zip":"81326","city":"Hesperus","state":"CO","lat":37.1654,"long":-108.1219},{"zip":"81329","city":"Marvel","state":"CO","lat":37.0926,"long":-108.1252},{"zip":"80511","city":"Estes Park","state":"CO","lat":40.6281,"long":-105.5692},{"zip":"80512","city":"Bellvue","state":"CO","lat":40.6265,"long":-105.261},{"zip":"80513","city":"Berthoud","state":"CO","lat":40.2993,"long":-105.1055},{"zip":"80515","city":"Drake","state":"CO","lat":40.4275,"long":-105.3831},{"zip":"80517","city":"Estes Park","state":"CO","lat":40.3658,"long":-105.5142},{"zip":"80521","city":"Fort Collins","state":"CO","lat":40.5813,"long":-105.1039},{"zip":"80522","city":"Fort Collins","state":"CO","lat":40.6429,"long":-105.057},{"zip":"80523","city":"Fort Collins","state":"CO","lat":40.5853,"long":-105.0844},{"zip":"80524","city":"Fort Collins","state":"CO","lat":40.5986,"long":-105.0581},{"zip":"80525","city":"Fort Collins","state":"CO","lat":40.5384,"long":-105.0547},{"zip":"80526","city":"Fort Collins","state":"CO","lat":40.5473,"long":-105.1076},{"zip":"80527","city":"Fort Collins","state":"CO","lat":40.5853,"long":-105.0844},{"zip":"80528","city":"Fort Collins","state":"CO","lat":40.4961,"long":-105.0002},{"zip":"80532","city":"Glen Haven","state":"CO","lat":40.4578,"long":-105.447},{"zip":"80535","city":"Laporte","state":"CO","lat":40.6347,"long":-105.1488},{"zip":"80536","city":"Livermore","state":"CO","lat":40.8701,"long":-105.3766},{"zip":"80537","city":"Loveland","state":"CO","lat":40.3849,"long":-105.0916},{"zip":"80538","city":"Loveland","state":"CO","lat":40.4262,"long":-105.09},{"zip":"80539","city":"Loveland","state":"CO","lat":40.3978,"long":-105.075},{"zip":"80541","city":"Masonville","state":"CO","lat":40.4875,"long":-105.2108},{"zip":"80545","city":"Red Feather Lakes","state":"CO","lat":40.8659,"long":-105.6893},{"zip":"80547","city":"Timnath","state":"CO","lat":40.5291,"long":-104.9853},{"zip":"80549","city":"Wellington","state":"CO","lat":40.7255,"long":-105.0318},{"zip":"80553","city":"Fort Collins","state":"CO","lat":40.5853,"long":-105.0844},{"zip":"81020","city":"Aguilar","state":"CO","lat":37.3933,"long":-104.6769},{"zip":"81024","city":"Boncarbo","state":"CO","lat":37.2081,"long":-104.7198},{"zip":"81027","city":"Branson","state":"CO","lat":37.0518,"long":-103.8741},{"zip":"81046","city":"Hoehne","state":"CO","lat":37.2796,"long":-104.3584},{"zip":"81049","city":"Kim","state":"CO","lat":37.3328,"long":-103.3736},{"zip":"81059","city":"Model","state":"CO","lat":37.5192,"long":-104.223},{"zip":"81081","city":"Trinchera","state":"CO","lat":37.0757,"long":-104.1184},{"zip":"81082","city":"Trinidad","state":"CO","lat":37.2691,"long":-104.5038},{"zip":"81091","city":"Weston","state":"CO","lat":37.1702,"long":-104.8247},{"zip":"80804","city":"Arriba","state":"CO","lat":39.3025,"long":-103.271},{"zip":"80818","city":"Genoa","state":"CO","lat":39.3383,"long":-103.4607},{"zip":"80821","city":"Hugo","state":"CO","lat":39.0843,"long":-103.499},{"zip":"80823","city":"Karval","state":"CO","lat":38.7119,"long":-103.5006},{"zip":"80826","city":"Limon","state":"CO","lat":39.2639,"long":-103.6922},{"zip":"80828","city":"Limon","state":"CO","lat":39.2713,"long":-103.6856},{"zip":"80722","city":"Atwood","state":"CO","lat":40.5082,"long":-103.2749},{"zip":"80726","city":"Crook","state":"CO","lat":40.8747,"long":-102.8472},{"zip":"80728","city":"Fleming","state":"CO","lat":40.637,"long":-102.8688},{"zip":"80736","city":"Iliff","state":"CO","lat":40.7692,"long":-103.0968},{"zip":"80741","city":"Merino","state":"CO","lat":40.5708,"long":-103.4719},{"zip":"80745","city":"Padroni","state":"CO","lat":40.8842,"long":-103.3728},{"zip":"80747","city":"Peetz","state":"CO","lat":40.9519,"long":-103.1166},{"zip":"80751","city":"Sterling","state":"CO","lat":40.6306,"long":-103.2212},{"zip":"81501","city":"Grand Junction","state":"CO","lat":39.0783,"long":-108.5457},{"zip":"81502","city":"Grand Junction","state":"CO","lat":39.0179,"long":-108.4814},{"zip":"81503","city":"Grand Junction","state":"CO","lat":39.0307,"long":-108.4361},{"zip":"81504","city":"Grand Junction","state":"CO","lat":39.0791,"long":-108.4916},{"zip":"81505","city":"Grand Junction","state":"CO","lat":39.1071,"long":-108.5968},{"zip":"81506","city":"Grand Junction","state":"CO","lat":39.1032,"long":-108.5491},{"zip":"81507","city":"Grand Junction","state":"CO","lat":39.0157,"long":-108.6129},{"zip":"81520","city":"Clifton","state":"CO","lat":39.0805,"long":-108.4496},{"zip":"81521","city":"Fruita","state":"CO","lat":39.1637,"long":-108.7218},{"zip":"81522","city":"Gateway","state":"CO","lat":38.6784,"long":-108.9719},{"zip":"81523","city":"Glade Park","state":"CO","lat":38.9894,"long":-108.781},{"zip":"81524","city":"Loma","state":"CO","lat":39.2279,"long":-108.8149},{"zip":"81525","city":"Mack","state":"CO","lat":39.2554,"long":-108.9296},{"zip":"81526","city":"Palisade","state":"CO","lat":39.1032,"long":-108.368},{"zip":"81527","city":"Whitewater","state":"CO","lat":38.9744,"long":-108.399},{"zip":"81624","city":"Collbran","state":"CO","lat":39.2453,"long":-107.9249},{"zip":"81630","city":"De Beque","state":"CO","lat":39.3118,"long":-108.2304},{"zip":"81643","city":"Mesa","state":"CO","lat":39.1612,"long":-108.1044},{"zip":"81646","city":"Molina","state":"CO","lat":39.1891,"long":-108.0604},{"zip":"81130","city":"Creede","state":"CO","lat":37.8164,"long":-106.9277},{"zip":"81610","city":"Dinosaur","state":"CO","lat":40.2566,"long":-108.9652},{"zip":"81625","city":"Craig","state":"CO","lat":40.5224,"long":-107.5615},{"zip":"81626","city":"Craig","state":"CO","lat":40.5152,"long":-107.5465},{"zip":"81633","city":"Dinosaur","state":"CO","lat":40.377,"long":-108.399},{"zip":"81638","city":"Hamilton","state":"CO","lat":40.325,"long":-107.5841},{"zip":"81640","city":"Maybell","state":"CO","lat":40.6738,"long":-108.3699},{"zip":"81653","city":"Slater","state":"CO","lat":40.9979,"long":-107.3388},{"zip":"81321","city":"Cortez","state":"CO","lat":37.3549,"long":-108.5837},{"zip":"81323","city":"Dolores","state":"CO","lat":37.4666,"long":-108.4717},{"zip":"81327","city":"Lewis","state":"CO","lat":37.5177,"long":-108.6546},{"zip":"81328","city":"Mancos","state":"CO","lat":37.3471,"long":-108.2982},{"zip":"81330","city":"Mesa Verde National Park","state":"CO","lat":37.2313,"long":-108.4825},{"zip":"81331","city":"Pleasant View","state":"CO","lat":37.5888,"long":-108.8095},{"zip":"81334","city":"Towaoc","state":"CO","lat":37.2084,"long":-108.72},{"zip":"81335","city":"Yellow Jacket","state":"CO","lat":37.5344,"long":-108.7173},{"zip":"81220","city":"Cimarron","state":"CO","lat":38.3876,"long":-107.4824},{"zip":"81401","city":"Montrose","state":"CO","lat":38.4678,"long":-107.8752},{"zip":"81402","city":"Montrose","state":"CO","lat":38.4851,"long":-107.886},{"zip":"81403","city":"Montrose","state":"CO","lat":38.3602,"long":-107.9381},{"zip":"81411","city":"Bedrock","state":"CO","lat":38.2509,"long":-108.9799},{"zip":"81422","city":"Naturita","state":"CO","lat":38.2183,"long":-108.5687},{"zip":"81424","city":"Nucla","state":"CO","lat":38.2682,"long":-108.5476},{"zip":"81425","city":"Olathe","state":"CO","lat":38.5976,"long":-107.9921},{"zip":"81429","city":"Paradox","state":"CO","lat":38.3711,"long":-108.9698},{"zip":"81431","city":"Redvale","state":"CO","lat":38.1865,"long":-108.3895},{"zip":"80649","city":"Orchard","state":"CO","lat":40.3639,"long":-104.0973},{"zip":"80653","city":"Weldona","state":"CO","lat":40.3681,"long":-103.9678},{"zip":"80654","city":"Wiggins","state":"CO","lat":40.1598,"long":-104.0468},{"zip":"80701","city":"Fort Morgan","state":"CO","lat":40.2541,"long":-103.8031},{"zip":"80705","city":"Log Lane Village","state":"CO","lat":40.2707,"long":-103.8338},{"zip":"80723","city":"Brush","state":"CO","lat":40.2603,"long":-103.6279},{"zip":"80733","city":"Hillrose","state":"CO","lat":40.3459,"long":-103.5057},{"zip":"80750","city":"Snyder","state":"CO","lat":40.3307,"long":-103.5971},{"zip":"81030","city":"Cheraw","state":"CO","lat":38.107,"long":-103.5102},{"zip":"81039","city":"Fowler","state":"CO","lat":38.1231,"long":-104.0299},{"zip":"81050","city":"La Junta","state":"CO","lat":37.9546,"long":-103.6644},{"zip":"81058","city":"Manzanola","state":"CO","lat":38.1109,"long":-103.8766},{"zip":"81067","city":"Rocky Ford","state":"CO","lat":38.049,"long":-103.7251},{"zip":"81077","city":"Swink","state":"CO","lat":38.0145,"long":-103.6283},{"zip":"81427","city":"Ouray","state":"CO","lat":38.0258,"long":-107.6726},{"zip":"81432","city":"Ridgway","state":"CO","lat":38.1381,"long":-107.7533},{"zip":"80420","city":"Alma","state":"CO","lat":39.2839,"long":-106.0628},{"zip":"80421","city":"Bailey","state":"CO","lat":39.4482,"long":-105.4693},{"zip":"80432","city":"Como","state":"CO","lat":39.1587,"long":-105.817},{"zip":"80440","city":"Fairplay","state":"CO","lat":39.2256,"long":-105.9994},{"zip":"80448","city":"Grant","state":"CO","lat":39.4612,"long":-105.6583},{"zip":"80449","city":"Hartsel","state":"CO","lat":38.9673,"long":-105.8788},{"zip":"80456","city":"Jefferson","state":"CO","lat":39.2759,"long":-105.6865},{"zip":"80475","city":"Shawnee","state":"CO","lat":39.4211,"long":-105.5542},{"zip":"80820","city":"Guffey","state":"CO","lat":38.8146,"long":-105.5784},{"zip":"80827","city":"Lake George","state":"CO","lat":39.0342,"long":-105.4347},{"zip":"80721","city":"Amherst","state":"CO","lat":40.6824,"long":-102.1706},{"zip":"80731","city":"Haxtun","state":"CO","lat":40.6406,"long":-102.6052},{"zip":"80734","city":"Holyoke","state":"CO","lat":40.5825,"long":-102.2825},{"zip":"80746","city":"Paoli","state":"CO","lat":40.6106,"long":-102.4722},{"zip":"81611","city":"Aspen","state":"CO","lat":39.1951,"long":-106.8236},{"zip":"81612","city":"Aspen","state":"CO","lat":39.2234,"long":-106.8828},{"zip":"81615","city":"Snowmass Village","state":"CO","lat":39.2212,"long":-106.932},{"zip":"81642","city":"Meredith","state":"CO","lat":39.3199,"long":-106.6596},{"zip":"81654","city":"Snowmass","state":"CO","lat":39.2258,"long":-107.0303},{"zip":"81656","city":"Woody Creek","state":"CO","lat":39.2831,"long":-106.8985},{"zip":"81041","city":"Granada","state":"CO","lat":38.0545,"long":-102.3271},{"zip":"81043","city":"Hartman","state":"CO","lat":38.1195,"long":-102.2168},{"zip":"81047","city":"Holly","state":"CO","lat":38.0205,"long":-102.1415},{"zip":"81052","city":"Lamar","state":"CO","lat":38.0841,"long":-102.6192},{"zip":"81092","city":"Wiley","state":"CO","lat":38.159,"long":-102.7147},{"zip":"81001","city":"Pueblo","state":"CO","lat":38.2879,"long":-104.5848},{"zip":"81002","city":"Pueblo","state":"CO","lat":38.2544,"long":-104.6091},{"zip":"81003","city":"Pueblo","state":"CO","lat":38.2843,"long":-104.6234},{"zip":"81004","city":"Pueblo","state":"CO","lat":38.2441,"long":-104.6278},{"zip":"81005","city":"Pueblo","state":"CO","lat":38.2352,"long":-104.66},{"zip":"81006","city":"Pueblo","state":"CO","lat":38.2447,"long":-104.5318},{"zip":"81007","city":"Pueblo","state":"CO","lat":38.387,"long":-104.7792},{"zip":"81008","city":"Pueblo","state":"CO","lat":38.3133,"long":-104.6284},{"zip":"81009","city":"Pueblo","state":"CO","lat":38.1286,"long":-104.5523},{"zip":"81010","city":"Pueblo","state":"CO","lat":38.1286,"long":-104.5523},{"zip":"81011","city":"Pueblo","state":"CO","lat":38.1286,"long":-104.5523},{"zip":"81012","city":"Pueblo","state":"CO","lat":38.1286,"long":-104.5523},{"zip":"81019","city":"Colorado City","state":"CO","lat":37.9441,"long":-104.8412},{"zip":"81022","city":"Avondale","state":"CO","lat":38.1025,"long":-104.5298},{"zip":"81023","city":"Beulah","state":"CO","lat":38.0837,"long":-104.9724},{"zip":"81025","city":"Boone","state":"CO","lat":38.2646,"long":-104.2585},{"zip":"81069","city":"Rye","state":"CO","lat":37.9236,"long":-104.9303},{"zip":"81641","city":"Meeker","state":"CO","lat":40.0387,"long":-107.8925},{"zip":"81648","city":"Rangely","state":"CO","lat":40.0828,"long":-108.7991},{"zip":"81132","city":"Del Norte","state":"CO","lat":37.6447,"long":-106.4073},{"zip":"81135","city":"Homelake","state":"CO","lat":37.5756,"long":-106.097},{"zip":"81144","city":"Monte Vista","state":"CO","lat":37.5731,"long":-106.1408},{"zip":"81154","city":"South Fork","state":"CO","lat":37.6725,"long":-106.6125},{"zip":"80428","city":"Clark","state":"CO","lat":40.7268,"long":-106.9215},{"zip":"80467","city":"Oak Creek","state":"CO","lat":40.2567,"long":-106.9296},{"zip":"80469","city":"Phippsburg","state":"CO","lat":40.1907,"long":-106.9735},{"zip":"80477","city":"Steamboat Springs","state":"CO","lat":40.3482,"long":-106.9269},{"zip":"80479","city":"Toponas","state":"CO","lat":40.0603,"long":-106.8081},{"zip":"80483","city":"Yampa","state":"CO","lat":40.1304,"long":-106.9116},{"zip":"80487","city":"Steamboat Springs","state":"CO","lat":40.6327,"long":-106.9318},{"zip":"80488","city":"Steamboat Springs","state":"CO","lat":40.6197,"long":-106.8607},{"zip":"81639","city":"Hayden","state":"CO","lat":40.4945,"long":-107.2571},{"zip":"81125","city":"Center","state":"CO","lat":37.7343,"long":-106.0906},{"zip":"81131","city":"Crestone","state":"CO","lat":37.953,"long":-105.6879},{"zip":"81143","city":"Moffat","state":"CO","lat":38.0452,"long":-105.8411},{"zip":"81149","city":"Saguache","state":"CO","lat":38.0977,"long":-106.1876},{"zip":"81155","city":"Villa Grove","state":"CO","lat":38.2952,"long":-106.1102},{"zip":"81248","city":"Sargents","state":"CO","lat":38.4033,"long":-106.4161},{"zip":"81433","city":"Silverton","state":"CO","lat":37.809,"long":-107.6667},{"zip":"81325","city":"Egnar","state":"CO","lat":37.9344,"long":-108.9299},{"zip":"81423","city":"Norwood","state":"CO","lat":38.1104,"long":-108.2845},{"zip":"81426","city":"Ophir","state":"CO","lat":37.8569,"long":-107.8326},{"zip":"81430","city":"Placerville","state":"CO","lat":38.0167,"long":-108.0534},{"zip":"81435","city":"Telluride","state":"CO","lat":37.94,"long":-107.8214},{"zip":"80737","city":"Julesburg","state":"CO","lat":40.9708,"long":-102.2575},{"zip":"80744","city":"Ovid","state":"CO","lat":40.9459,"long":-102.3874},{"zip":"80749","city":"Sedgwick","state":"CO","lat":40.9103,"long":-102.5291},{"zip":"80424","city":"Breckenridge","state":"CO","lat":39.4753,"long":-106.0225},{"zip":"80435","city":"Dillon","state":"CO","lat":39.5952,"long":-105.9741},{"zip":"80443","city":"Frisco","state":"CO","lat":39.5589,"long":-106.1332},{"zip":"80497","city":"Silverthorne","state":"CO","lat":39.6411,"long":-106.108},{"zip":"80498","city":"Silverthorne","state":"CO","lat":39.7647,"long":-106.2211},{"zip":"80813","city":"Cripple Creek","state":"CO","lat":38.8261,"long":-105.1499},{"zip":"80814","city":"Divide","state":"CO","lat":38.9576,"long":-105.1994},{"zip":"80816","city":"Florissant","state":"CO","lat":38.8546,"long":-105.3121},{"zip":"80860","city":"Victor","state":"CO","lat":38.731,"long":-105.1321},{"zip":"80863","city":"Woodland Park","state":"CO","lat":38.9969,"long":-105.0623},{"zip":"80866","city":"Woodland Park","state":"CO","lat":38.9939,"long":-105.0569},{"zip":"80720","city":"Akron","state":"CO","lat":40.1803,"long":-103.2259},{"zip":"80740","city":"Lindon","state":"CO","lat":39.7909,"long":-103.4142},{"zip":"80743","city":"Otis","state":"CO","lat":40.203,"long":-102.9392},{"zip":"80757","city":"Woodrow","state":"CO","lat":39.805,"long":-103.5752},{"zip":"80801","city":"Anton","state":"CO","lat":39.6909,"long":-103.1373},{"zip":"80812","city":"Cope","state":"CO","lat":39.6848,"long":-102.9904},{"zip":"80504","city":"Longmont","state":"CO","lat":40.1306,"long":-104.9504},{"zip":"80514","city":"Dacono","state":"CO","lat":40.0836,"long":-104.9297},{"zip":"80516","city":"Erie","state":"CO","lat":40.0597,"long":-105.0686},{"zip":"80520","city":"Firestone","state":"CO","lat":40.1125,"long":-104.9366},{"zip":"80530","city":"Frederick","state":"CO","lat":40.0978,"long":-104.9293},{"zip":"80534","city":"Johnstown","state":"CO","lat":40.3355,"long":-104.9236},{"zip":"80542","city":"Mead","state":"CO","lat":40.2347,"long":-104.9994},{"zip":"80543","city":"Milliken","state":"CO","lat":40.3294,"long":-104.8552},{"zip":"80546","city":"Severance","state":"CO","lat":40.525,"long":-104.8505},{"zip":"80550","city":"Windsor","state":"CO","lat":40.4837,"long":-104.8994},{"zip":"80551","city":"Windsor","state":"CO","lat":40.4775,"long":-104.9014},{"zip":"80610","city":"Ault","state":"CO","lat":40.5938,"long":-104.7356},{"zip":"80611","city":"Briggsdale","state":"CO","lat":40.6392,"long":-104.2871},{"zip":"80612","city":"Carr","state":"CO","lat":40.8666,"long":-104.8859},{"zip":"80615","city":"Eaton","state":"CO","lat":40.5273,"long":-104.7146},{"zip":"80620","city":"Evans","state":"CO","lat":40.3803,"long":-104.6971},{"zip":"80621","city":"Fort Lupton","state":"CO","lat":40.108,"long":-104.8013},{"zip":"80622","city":"Galeton","state":"CO","lat":40.5378,"long":-104.4585},{"zip":"80623","city":"Gilcrest","state":"CO","lat":40.2854,"long":-104.7825},{"zip":"80624","city":"Gill","state":"CO","lat":40.4696,"long":-104.5},{"zip":"80631","city":"Greeley","state":"CO","lat":40.385,"long":-104.6806},{"zip":"80632","city":"Greeley","state":"CO","lat":40.3766,"long":-104.7629},{"zip":"80633","city":"Greeley","state":"CO","lat":40.4233,"long":-104.7091},{"zip":"80634","city":"Greeley","state":"CO","lat":40.4109,"long":-104.7541},{"zip":"80638","city":"Greeley","state":"CO","lat":40.4233,"long":-104.7091},{"zip":"80639","city":"Greeley","state":"CO","lat":40.3993,"long":-104.7017},{"zip":"80642","city":"Hudson","state":"CO","lat":40.0606,"long":-104.6532},{"zip":"80643","city":"Keenesburg","state":"CO","lat":40.0958,"long":-104.4464},{"zip":"80644","city":"Kersey","state":"CO","lat":40.3963,"long":-104.5288},{"zip":"80645","city":"La Salle","state":"CO","lat":40.3211,"long":-104.7268},{"zip":"80646","city":"Lucerne","state":"CO","lat":40.4824,"long":-104.7054},{"zip":"80648","city":"Nunn","state":"CO","lat":40.7265,"long":-104.785},{"zip":"80650","city":"Pierce","state":"CO","lat":40.6359,"long":-104.7638},{"zip":"80651","city":"Platteville","state":"CO","lat":40.2131,"long":-104.8028},{"zip":"80652","city":"Roggen","state":"CO","lat":40.0878,"long":-104.282},{"zip":"80729","city":"Grover","state":"CO","lat":40.8716,"long":-104.2346},{"zip":"80732","city":"Hereford","state":"CO","lat":40.9751,"long":-104.3053},{"zip":"80742","city":"New Raymer","state":"CO","lat":40.6851,"long":-103.839},{"zip":"80754","city":"Stoneham","state":"CO","lat":40.687,"long":-103.6387},{"zip":"80727","city":"Eckley","state":"CO","lat":40.1138,"long":-102.4828},{"zip":"80735","city":"Idalia","state":"CO","lat":39.8167,"long":-102.4262},{"zip":"80755","city":"Vernon","state":"CO","lat":39.9331,"long":-102.3193},{"zip":"80758","city":"Wray","state":"CO","lat":40.0685,"long":-102.393},{"zip":"80759","city":"Yuma","state":"CO","lat":40.1301,"long":-102.7072},{"zip":"80822","city":"Joes","state":"CO","lat":39.6564,"long":-102.6788},{"zip":"80824","city":"Kirk","state":"CO","lat":39.6171,"long":-102.4776},{"zip":"83616","city":"Eagle","state":"ID","lat":43.7069,"long":-116.362},{"zip":"83634","city":"Kuna","state":"ID","lat":43.487,"long":-116.3819},{"zip":"83642","city":"Meridian","state":"ID","lat":43.615,"long":-116.3975},{"zip":"83669","city":"Star","state":"ID","lat":43.7013,"long":-116.4967},{"zip":"83680","city":"Meridian","state":"ID","lat":43.6121,"long":-116.3915},{"zip":"83701","city":"Boise","state":"ID","lat":43.6038,"long":-116.2729},{"zip":"83702","city":"Boise","state":"ID","lat":43.6322,"long":-116.2052},{"zip":"83703","city":"Boise","state":"ID","lat":43.6601,"long":-116.2524},{"zip":"83704","city":"Boise","state":"ID","lat":43.633,"long":-116.2951},{"zip":"83705","city":"Boise","state":"ID","lat":43.5851,"long":-116.2191},{"zip":"83706","city":"Boise","state":"ID","lat":43.5885,"long":-116.191},{"zip":"83707","city":"Boise","state":"ID","lat":43.6135,"long":-116.2035},{"zip":"83708","city":"Boise","state":"ID","lat":43.4599,"long":-116.244},{"zip":"83709","city":"Boise","state":"ID","lat":43.5741,"long":-116.2941},{"zip":"83711","city":"Boise","state":"ID","lat":43.4599,"long":-116.244},{"zip":"83712","city":"Boise","state":"ID","lat":43.6023,"long":-116.1649},{"zip":"83713","city":"Boise","state":"ID","lat":43.634,"long":-116.3419},{"zip":"83714","city":"Garden City","state":"ID","lat":43.7318,"long":-116.2797},{"zip":"83715","city":"Boise","state":"ID","lat":43.4599,"long":-116.244},{"zip":"83716","city":"Boise","state":"ID","lat":43.5345,"long":-115.9711},{"zip":"83717","city":"Boise","state":"ID","lat":43.4599,"long":-116.244},{"zip":"83719","city":"Boise","state":"ID","lat":43.4599,"long":-116.244},{"zip":"83720","city":"Boise","state":"ID","lat":43.4599,"long":-116.244},{"zip":"83722","city":"Boise","state":"ID","lat":43.4599,"long":-116.244},{"zip":"83724","city":"Boise","state":"ID","lat":43.6195,"long":-116.1952},{"zip":"83725","city":"Boise","state":"ID","lat":43.4599,"long":-116.244},{"zip":"83726","city":"Boise","state":"ID","lat":43.4599,"long":-116.244},{"zip":"83728","city":"Boise","state":"ID","lat":43.6135,"long":-116.2035},{"zip":"83729","city":"Boise","state":"ID","lat":43.4599,"long":-116.244},{"zip":"83731","city":"Boise","state":"ID","lat":43.4599,"long":-116.244},{"zip":"83732","city":"Boise","state":"ID","lat":43.4599,"long":-116.244},{"zip":"83735","city":"Boise","state":"ID","lat":43.6135,"long":-116.2035},{"zip":"83756","city":"Boise","state":"ID","lat":43.4599,"long":-116.244},{"zip":"83799","city":"Boise","state":"ID","lat":43.6135,"long":-116.2035},{"zip":"83612","city":"Council","state":"ID","lat":44.7628,"long":-116.4518},{"zip":"83632","city":"Indian Valley","state":"ID","lat":44.5491,"long":-116.443},{"zip":"83643","city":"Mesa","state":"ID","lat":44.6255,"long":-116.4493},{"zip":"83654","city":"New Meadows","state":"ID","lat":44.994,"long":-116.2874},{"zip":"83201","city":"Pocatello","state":"ID","lat":42.8876,"long":-112.4381},{"zip":"83202","city":"Pocatello","state":"ID","lat":42.9357,"long":-112.4679},{"zip":"83204","city":"Pocatello","state":"ID","lat":42.8465,"long":-112.4434},{"zip":"83205","city":"Pocatello","state":"ID","lat":42.8062,"long":-112.4103},{"zip":"83206","city":"Pocatello","state":"ID","lat":42.8713,"long":-112.4455},{"zip":"83209","city":"Pocatello","state":"ID","lat":42.6395,"long":-112.3138},{"zip":"83214","city":"Arimo","state":"ID","lat":42.56,"long":-112.1746},{"zip":"83234","city":"Downey","state":"ID","lat":42.4181,"long":-112.109},{"zip":"83245","city":"Inkom","state":"ID","lat":42.7964,"long":-112.2465},{"zip":"83246","city":"Lava Hot Springs","state":"ID","lat":42.6185,"long":-112.0176},{"zip":"83250","city":"McCammon","state":"ID","lat":42.6336,"long":-112.1758},{"zip":"83281","city":"Swanlake","state":"ID","lat":42.3195,"long":-111.9781},{"zip":"83220","city":"Bern","state":"ID","lat":42.3191,"long":-111.3926},{"zip":"83223","city":"Bloomington","state":"ID","lat":42.184,"long":-111.4086},{"zip":"83233","city":"Dingle","state":"ID","lat":42.1774,"long":-111.2174},{"zip":"83238","city":"Geneva","state":"ID","lat":42.3136,"long":-111.0722},{"zip":"83239","city":"Georgetown","state":"ID","lat":42.4821,"long":-111.3708},{"zip":"83254","city":"Montpelier","state":"ID","lat":42.352,"long":-111.3195},{"zip":"83261","city":"Paris","state":"ID","lat":42.2242,"long":-111.4208},{"zip":"83272","city":"Saint Charles","state":"ID","lat":42.1128,"long":-111.3897},{"zip":"83287","city":"Fish Haven","state":"ID","lat":42.0459,"long":-111.4633},{"zip":"83824","city":"Desmet","state":"ID","lat":47.126,"long":-116.8937},{"zip":"83830","city":"Fernwood","state":"ID","lat":47.116,"long":-116.3831},{"zip":"83851","city":"Plummer","state":"ID","lat":47.3278,"long":-116.8662},{"zip":"83861","city":"Saint Maries","state":"ID","lat":47.2977,"long":-116.5681},{"zip":"83866","city":"Santa","state":"ID","lat":47.1544,"long":-116.431},{"zip":"83870","city":"Tensed","state":"ID","lat":47.1707,"long":-116.9027},{"zip":"83203","city":"Fort Hall","state":"ID","lat":43.0331,"long":-112.4285},{"zip":"83210","city":"Aberdeen","state":"ID","lat":43.0049,"long":-112.84},{"zip":"83215","city":"Atomic City","state":"ID","lat":43.4449,"long":-112.8128},{"zip":"83218","city":"Basalt","state":"ID","lat":43.3155,"long":-112.1644},{"zip":"83221","city":"Blackfoot","state":"ID","lat":43.1943,"long":-112.3615},{"zip":"83236","city":"Firth","state":"ID","lat":43.3021,"long":-112.1588},{"zip":"83256","city":"Moreland","state":"ID","lat":43.2226,"long":-112.4423},{"zip":"83262","city":"Pingree","state":"ID","lat":43.1336,"long":-112.6295},{"zip":"83274","city":"Shelley","state":"ID","lat":43.3769,"long":-112.1075},{"zip":"83277","city":"Springfield","state":"ID","lat":43.0803,"long":-112.673},{"zip":"83313","city":"Bellevue","state":"ID","lat":43.4397,"long":-114.2498},{"zip":"83320","city":"Carey","state":"ID","lat":43.2744,"long":-113.8926},{"zip":"83333","city":"Hailey","state":"ID","lat":43.5239,"long":-114.3064},{"zip":"83340","city":"Ketchum","state":"ID","lat":43.6692,"long":-114.4858},{"zip":"83348","city":"Picabo","state":"ID","lat":43.3101,"long":-114.0861},{"zip":"83353","city":"Sun Valley","state":"ID","lat":43.6853,"long":-114.3313},{"zip":"83354","city":"Sun Valley","state":"ID","lat":43.5946,"long":-114.3226},{"zip":"83602","city":"Banks","state":"ID","lat":44.0804,"long":-116.124},{"zip":"83622","city":"Garden Valley","state":"ID","lat":44.0909,"long":-115.8243},{"zip":"83629","city":"Horseshoe Bend","state":"ID","lat":43.9229,"long":-116.1809},{"zip":"83631","city":"Idaho City","state":"ID","lat":43.8834,"long":-115.708},{"zip":"83637","city":"Lowman","state":"ID","lat":44.1106,"long":-115.5285},{"zip":"83646","city":"Meridian","state":"ID","lat":43.6498,"long":-116.4306},{"zip":"83666","city":"Placerville","state":"ID","lat":43.9633,"long":-115.9759},{"zip":"83804","city":"Blanchard","state":"ID","lat":48.0223,"long":-116.9909},{"zip":"83809","city":"Careywood","state":"ID","lat":48.0482,"long":-116.5939},{"zip":"83811","city":"Clark Fork","state":"ID","lat":48.1405,"long":-116.1699},{"zip":"83813","city":"Cocolalla","state":"ID","lat":48.1248,"long":-116.6571},{"zip":"83821","city":"Coolin","state":"ID","lat":48.5228,"long":-116.8408},{"zip":"83822","city":"Oldtown","state":"ID","lat":48.1552,"long":-116.9781},{"zip":"83825","city":"Dover","state":"ID","lat":48.2516,"long":-116.611},{"zip":"83836","city":"Hope","state":"ID","lat":48.2444,"long":-116.2795},{"zip":"83840","city":"Kootenai","state":"ID","lat":48.3102,"long":-116.5135},{"zip":"83841","city":"Laclede","state":"ID","lat":48.1791,"long":-116.8246},{"zip":"83848","city":"Nordman","state":"ID","lat":48.6339,"long":-116.9473},{"zip":"83852","city":"Ponderay","state":"ID","lat":48.3055,"long":-116.5338},{"zip":"83856","city":"Priest River","state":"ID","lat":48.1664,"long":-116.9066},{"zip":"83860","city":"Sagle","state":"ID","lat":48.2035,"long":-116.5455},{"zip":"83864","city":"Sandpoint","state":"ID","lat":48.312,"long":-116.5332},{"zip":"83865","city":"Colburn","state":"ID","lat":48.3633,"long":-116.6256},{"zip":"83401","city":"Idaho Falls","state":"ID","lat":43.5518,"long":-111.8919},{"zip":"83402","city":"Idaho Falls","state":"ID","lat":43.4934,"long":-112.0578},{"zip":"83403","city":"Idaho Falls","state":"ID","lat":43.4666,"long":-112.0341},{"zip":"83404","city":"Idaho Falls","state":"ID","lat":43.475,"long":-112.0124},{"zip":"83405","city":"Idaho Falls","state":"ID","lat":43.4666,"long":-112.0341},{"zip":"83406","city":"Idaho Falls","state":"ID","lat":43.4732,"long":-111.9661},{"zip":"83415","city":"Idaho Falls","state":"ID","lat":43.4666,"long":-112.0341},{"zip":"83427","city":"Iona","state":"ID","lat":43.5263,"long":-111.933},{"zip":"83428","city":"Irwin","state":"ID","lat":43.3861,"long":-111.2527},{"zip":"83449","city":"Swan Valley","state":"ID","lat":43.456,"long":-111.3416},{"zip":"83454","city":"Ucon","state":"ID","lat":43.5936,"long":-111.9573},