[{"zip":"80423","city":"Bond","state":"CO","lat":39.8691,"long":-106.6763},{"zip":"80426","city":"Burns","state":"CO","lat":39.8739,"long":-106.8856},{"zip":"80422","city":"Black Hawk","state":"CO","lat":39.816,"long":-105.4753},{"zip":"80427","city":"Central City","state":"CO","lat":39.8019,"long":-105.5142},{"zip":"80425","city":"Buffalo Creek","state":"CO","lat":39.3867,"long":-105.2703},{"zip":"80429","city":"Climax","state":"CO","lat":39.2258,"long":-106.3117},{"zip":"80420","city":"Alma","state":"CO","lat":39.2839,"long":-106.0628},{"zip":"80421","city":"Bailey","state":"CO","lat":39.4482,"long":-105.4693},{"zip":"80428","city":"Clark","state":"CO","lat":40.7268,"long":-106.9215},{"zip":"80424","city":"Breckenridge","state":"CO","lat":39.4753,"long":-106.0225}]
