[{"zip":"80455","city":"Jamestown","state":"CO","lat":40.1155,"long":-105.3886},{"zip":"80452","city":"Idaho Springs","state":"CO","lat":39.7402,"long":-105.5983},{"zip":"80451","city":"Hot Sulphur Springs","state":"CO","lat":40.0712,"long":-106.0693},{"zip":"80459","city":"Kremmling","state":"CO","lat":40.0632,"long":-106.3955},{"zip":"80453","city":"Idledale","state":"CO","lat":39.6684,"long":-105.2442},{"zip":"80454","city":"Indian Hills","state":"CO","lat":39.6296,"long":-105.2514},{"zip":"80457","city":"Kittredge","state":"CO","lat":39.6481,"long":-105.2782},{"zip":"80456","city":"Jefferson","state":"CO","lat":39.2759,"long":-105.6865}]
