[{"zip":"80481","city":"Ward","state":"CO","lat":40.0726,"long":-105.508},{"zip":"80482","city":"Winter Park","state":"CO","lat":39.8939,"long":-105.7845},{"zip":"80480","city":"Walden","state":"CO","lat":40.71,"long":-106.2767},{"zip":"80483","city":"Yampa","state":"CO","lat":40.1304,"long":-106.9116},{"zip":"80487","city":"Steamboat Springs","state":"CO","lat":40.6327,"long":-106.9318},{"zip":"80488","city":"Steamboat Springs","state":"CO","lat":40.6197,"long":-106.8607}]
