[{"zip":"80540","city":"Lyons","state":"CO","lat":40.2357,"long":-105.3231},{"zip":"80544","city":"Niwot","state":"CO","lat":40.1039,"long":-105.1708},{"zip":"80541","city":"Masonville","state":"CO","lat":40.4875,"long":-105.2108},{"zip":"80545","city":"Red Feather Lakes","state":"CO","lat":40.8659,"long":-105.6893},{"zip":"80547","city":"Timnath","state":"CO","lat":40.5291,"long":-104.9853},{"zip":"80549","city":"Wellington","state":"CO","lat":40.7255,"long":-105.0318},{"zip":"80542","city":"Mead","state":"CO","lat":40.2347,"long":-104.9994},{"zip":"80543","city":"Milliken","state":"CO","lat":40.3294,"long":-104.8552},{"zip":"80546","city":"Severance","state":"CO","lat":40.525,"long":-104.8505}]
