[{"zip":"80640","city":"Henderson","state":"CO","lat":39.8983,"long":-104.8718},{"zip":"80649","city":"Orchard","state":"CO","lat":40.3639,"long":-104.0973},{"zip":"80642","city":"Hudson","state":"CO","lat":40.0606,"long":-104.6532},{"zip":"80643","city":"Keenesburg","state":"CO","lat":40.0958,"long":-104.4464},{"zip":"80644","city":"Kersey","state":"CO","lat":40.3963,"long":-104.5288},{"zip":"80645","city":"La Salle","state":"CO","lat":40.3211,"long":-104.7268},{"zip":"80646","city":"Lucerne","state":"CO","lat":40.4824,"long":-104.7054},{"zip":"80648","city":"Nunn","state":"CO","lat":40.7265,"long":-104.785}]
