[{"zip":"80653","city":"Weldona","state":"CO","lat":40.3681,"long":-103.9678},{"zip":"80654","city":"Wiggins","state":"CO","lat":40.1598,"long":-104.0468},{"zip":"80650","city":"Pierce","state":"CO","lat":40.6359,"long":-104.7638},{"zip":"80651","city":"Platteville","state":"CO","lat":40.2131,"long":-104.8028},{"zip":"80652","city":"Roggen","state":"CO","lat":40.0878,"long":-104.282}]
