[{"zip":"80736","city":"Iliff","state":"CO","lat":40.7692,"long":-103.0968},{"zip":"80733","city":"Hillrose","state":"CO","lat":40.3459,"long":-103.5057},{"zip":"80731","city":"Haxtun","state":"CO","lat":40.6406,"long":-102.6052},{"zip":"80734","city":"Holyoke","state":"CO","lat":40.5825,"long":-102.2825},{"zip":"80737","city":"Julesburg","state":"CO","lat":40.9708,"long":-102.2575},{"zip":"80732","city":"Hereford","state":"CO","lat":40.9751,"long":-104.3053},{"zip":"80735","city":"Idalia","state":"CO","lat":39.8167,"long":-102.4262}]
