[{"zip":"81157","city":"Pagosa Springs","state":"CO","lat":37.2694,"long":-107.0098},{"zip":"81151","city":"Sanford","state":"CO","lat":37.2583,"long":-105.9047},{"zip":"81152","city":"San Luis","state":"CO","lat":37.1066,"long":-105.4781},{"zip":"81154","city":"South Fork","state":"CO","lat":37.6725,"long":-106.6125},{"zip":"81155","city":"Villa Grove","state":"CO","lat":38.2952,"long":-106.1102}]
