[{"zip":"81332","city":"Rico","state":"CO","lat":37.6905,"long":-108.0324},{"zip":"81330","city":"Mesa Verde National Park","state":"CO","lat":37.2313,"long":-108.4825},{"zip":"81331","city":"Pleasant View","state":"CO","lat":37.5888,"long":-108.8095},{"zip":"81334","city":"Towaoc","state":"CO","lat":37.2084,"long":-108.72},{"zip":"81335","city":"Yellow Jacket","state":"CO","lat":37.5344,"long":-108.7173}]
