[{"zip":"81620","city":"Avon","state":"CO","lat":39.6313,"long":-106.5108},{"zip":"81621","city":"Basalt","state":"CO","lat":39.3535,"long":-106.9988},{"zip":"81623","city":"Carbondale","state":"CO","lat":39.2511,"long":-107.2044},{"zip":"81624","city":"Collbran","state":"CO","lat":39.2453,"long":-107.9249},{"zip":"81625","city":"Craig","state":"CO","lat":40.5224,"long":-107.5615},{"zip":"81626","city":"Craig","state":"CO","lat":40.5152,"long":-107.5465}]
