[{"zip":"82212","city":"Fort Laramie","state":"WY","lat":42.2133,"long":-104.5226},{"zip":"82217","city":"Hawk Springs","state":"WY","lat":41.7861,"long":-104.2647},{"zip":"82218","city":"Huntley","state":"WY","lat":41.9327,"long":-104.1461},{"zip":"82219","city":"Jay Em","state":"WY","lat":42.4987,"long":-104.5134},{"zip":"82210","city":"Chugwater","state":"WY","lat":41.7487,"long":-104.8179},{"zip":"82213","city":"Glendo","state":"WY","lat":42.5004,"long":-105},{"zip":"82214","city":"Guernsey","state":"WY","lat":42.2655,"long":-104.7512},{"zip":"82215","city":"Hartville","state":"WY","lat":42.3334,"long":-104.7296}]
