[{"zip":"82725","city":"Recluse","state":"WY","lat":44.7861,"long":-105.776},{"zip":"82727","city":"Rozet","state":"WY","lat":44.3058,"long":-105.2459},{"zip":"82720","city":"Hulett","state":"WY","lat":44.7352,"long":-104.6174},{"zip":"82721","city":"Moorcroft","state":"WY","lat":44.4154,"long":-104.8389},{"zip":"82729","city":"Sundance","state":"WY","lat":44.4058,"long":-104.3837},{"zip":"82723","city":"Osage","state":"WY","lat":43.999,"long":-104.4226}]
