[{"zip":"82932","city":"Farson","state":"WY","lat":42.0834,"long":-109.4184},{"zip":"82934","city":"Granger","state":"WY","lat":41.5936,"long":-109.9688},{"zip":"82935","city":"Green River","state":"WY","lat":41.5196,"long":-109.4714},{"zip":"82938","city":"Mc Kinnon","state":"WY","lat":41.0409,"long":-109.8745},{"zip":"82930","city":"Evanston","state":"WY","lat":41.2609,"long":-110.9631},{"zip":"82931","city":"Evanston","state":"WY","lat":41.2619,"long":-110.92},{"zip":"82933","city":"Fort Bridger","state":"WY","lat":41.3166,"long":-110.3843},{"zip":"82936","city":"Lonetree","state":"WY","lat":41.0552,"long":-110.1603},{"zip":"82937","city":"Lyman","state":"WY","lat":41.3291,"long":-110.2926},{"zip":"82939","city":"Mountain View","state":"WY","lat":41.2335,"long":-110.3372}]
