[{"zip":"82941","city":"Pinedale","state":"WY","lat":42.8543,"long":-109.8561},{"zip":"82942","city":"Point Of Rocks","state":"WY","lat":41.6802,"long":-108.7857},{"zip":"82943","city":"Reliance","state":"WY","lat":41.6698,"long":-109.1919},{"zip":"82945","city":"Superior","state":"WY","lat":41.7643,"long":-108.9681},{"zip":"82944","city":"Robertson","state":"WY","lat":41.0993,"long":-110.5007}]
