[{"zip":"83214","city":"Arimo","state":"ID","lat":42.56,"long":-112.1746},{"zip":"83210","city":"Aberdeen","state":"ID","lat":43.0049,"long":-112.84},{"zip":"83215","city":"Atomic City","state":"ID","lat":43.4449,"long":-112.8128},{"zip":"83218","city":"Basalt","state":"ID","lat":43.3155,"long":-112.1644},{"zip":"83213","city":"Arco","state":"ID","lat":43.6355,"long":-113.3176},{"zip":"83217","city":"Bancroft","state":"ID","lat":42.7205,"long":-111.8429},{"zip":"83211","city":"American Falls","state":"ID","lat":42.6352,"long":-112.9458},{"zip":"83212","city":"Arbon","state":"ID","lat":42.5026,"long":-112.5585}]
