[{"zip":"83272","city":"Saint Charles","state":"ID","lat":42.1128,"long":-111.3897},{"zip":"83274","city":"Shelley","state":"ID","lat":43.3769,"long":-112.1075},{"zip":"83277","city":"Springfield","state":"ID","lat":43.0803,"long":-112.673},{"zip":"83276","city":"Soda Springs","state":"ID","lat":42.6718,"long":-111.5699},{"zip":"83278","city":"Stanley","state":"ID","lat":44.3714,"long":-114.8561},{"zip":"83271","city":"Rockland","state":"ID","lat":42.5556,"long":-112.854}]
