[{"zip":"83313","city":"Bellevue","state":"ID","lat":43.4397,"long":-114.2498},{"zip":"83311","city":"Albion","state":"ID","lat":42.3896,"long":-113.5567},{"zip":"83312","city":"Almo","state":"ID","lat":42.0846,"long":-113.6283},{"zip":"83318","city":"Burley","state":"ID","lat":42.5244,"long":-113.7931},{"zip":"83314","city":"Bliss","state":"ID","lat":42.9449,"long":-114.9104},{"zip":"83316","city":"Buhl","state":"ID","lat":42.6008,"long":-114.7825}]
