[{"zip":"83462","city":"Carmen","state":"ID","lat":45.255,"long":-113.8573},{"zip":"83463","city":"Gibbonsville","state":"ID","lat":45.5704,"long":-113.9913},{"zip":"83464","city":"Leadore","state":"ID","lat":44.7389,"long":-113.4926},{"zip":"83465","city":"Lemhi","state":"ID","lat":44.8516,"long":-113.6198},{"zip":"83466","city":"North Fork","state":"ID","lat":45.4242,"long":-114.0419},{"zip":"83467","city":"Salmon","state":"ID","lat":45.1571,"long":-113.8784},{"zip":"83468","city":"Tendoy","state":"ID","lat":44.9681,"long":-113.8167},{"zip":"83469","city":"Shoup","state":"ID","lat":45.1851,"long":-114.406},{"zip":"83460","city":"Rexburg","state":"ID","lat":43.7761,"long":-111.691}]
