[{"zip":"83634","city":"Kuna","state":"ID","lat":43.487,"long":-116.3819},{"zip":"83632","city":"Indian Valley","state":"ID","lat":44.5491,"long":-116.443},{"zip":"83631","city":"Idaho City","state":"ID","lat":43.8834,"long":-115.708},{"zip":"83637","city":"Lowman","state":"ID","lat":44.1106,"long":-115.5285},{"zip":"83630","city":"Huston","state":"ID","lat":43.6027,"long":-116.7903},{"zip":"83633","city":"King Hill","state":"ID","lat":42.9799,"long":-115.1899},{"zip":"83636","city":"Letha","state":"ID","lat":43.8963,"long":-116.6462},{"zip":"83639","city":"Marsing","state":"ID","lat":43.5399,"long":-116.824},{"zip":"83635","city":"Lake Fork","state":"ID","lat":44.8327,"long":-116.0848},{"zip":"83638","city":"McCall","state":"ID","lat":44.8918,"long":-116.0789}]
