[{"zip":"83840","city":"Kootenai","state":"ID","lat":48.3102,"long":-116.5135},{"zip":"83841","city":"Laclede","state":"ID","lat":48.1791,"long":-116.8246},{"zip":"83848","city":"Nordman","state":"ID","lat":48.6339,"long":-116.9473},{"zip":"83845","city":"Moyie Springs","state":"ID","lat":48.7464,"long":-116.1796},{"zip":"83847","city":"Naples","state":"ID","lat":48.6049,"long":-116.3196},{"zip":"83842","city":"Medimont","state":"ID","lat":47.4625,"long":-116.5683},{"zip":"83843","city":"Moscow","state":"ID","lat":46.7309,"long":-116.9897},{"zip":"83844","city":"Moscow","state":"ID","lat":46.7324,"long":-117.0002},{"zip":"83846","city":"Mullan","state":"ID","lat":47.4709,"long":-115.7926},{"zip":"83849","city":"Osburn","state":"ID","lat":47.5211,"long":-116.021}]
