[{"zip":"83851","city":"Plummer","state":"ID","lat":47.3278,"long":-116.8662},{"zip":"83852","city":"Ponderay","state":"ID","lat":48.3055,"long":-116.5338},{"zip":"83856","city":"Priest River","state":"ID","lat":48.1664,"long":-116.9066},{"zip":"83853","city":"Porthill","state":"ID","lat":48.992,"long":-116.4775},{"zip":"83854","city":"Post Falls","state":"ID","lat":47.7205,"long":-116.9353},{"zip":"83858","city":"Rathdrum","state":"ID","lat":47.8241,"long":-116.8873},{"zip":"83855","city":"Potlatch","state":"ID","lat":46.9448,"long":-116.9141},{"zip":"83857","city":"Princeton","state":"ID","lat":46.8996,"long":-116.8287},{"zip":"83850","city":"Pinehurst","state":"ID","lat":47.5018,"long":-116.2647}]
