[{"zip":"84010","city":"Bountiful","state":"UT","lat":40.8775,"long":-111.8727},{"zip":"84011","city":"Bountiful","state":"UT","lat":40.8894,"long":-111.8808},{"zip":"84014","city":"Centerville","state":"UT","lat":40.9268,"long":-111.877},{"zip":"84015","city":"Clearfield","state":"UT","lat":41.1294,"long":-112.0482},{"zip":"84016","city":"Clearfield","state":"UT","lat":41.1108,"long":-112.0261},{"zip":"84018","city":"Croydon","state":"UT","lat":41.0689,"long":-111.5231},{"zip":"84017","city":"Coalville","state":"UT","lat":40.8405,"long":-111.3228},{"zip":"84013","city":"Cedar Valley","state":"UT","lat":40.2959,"long":-112.0923}]
