[{"zip":"84324","city":"Mantua","state":"UT","lat":41.4975,"long":-111.9416},{"zip":"84329","city":"Park Valley","state":"UT","lat":41.8551,"long":-113.3478},{"zip":"84320","city":"Lewiston","state":"UT","lat":41.9701,"long":-111.8768},{"zip":"84321","city":"Logan","state":"UT","lat":41.747,"long":-111.8226},{"zip":"84322","city":"Logan","state":"UT","lat":41.6412,"long":-111.8966},{"zip":"84323","city":"Logan","state":"UT","lat":41.7355,"long":-111.8344},{"zip":"84325","city":"Mendon","state":"UT","lat":41.71,"long":-111.9817},{"zip":"84326","city":"Millville","state":"UT","lat":41.6759,"long":-111.8185},{"zip":"84327","city":"Newton","state":"UT","lat":41.8627,"long":-111.9908},{"zip":"84328","city":"Paradise","state":"UT","lat":41.56,"long":-111.8297}]
