[{"zip":"84764","city":"Bryce","state":"UT","lat":37.6184,"long":-112.1735},{"zip":"84760","city":"Paragonah","state":"UT","lat":37.8917,"long":-112.774},{"zip":"84761","city":"Parowan","state":"UT","lat":37.8449,"long":-112.8323},{"zip":"84762","city":"Duck Creek Village","state":"UT","lat":37.5169,"long":-112.6636},{"zip":"84766","city":"Sevier","state":"UT","lat":38.5785,"long":-112.3108},{"zip":"84763","city":"Rockville","state":"UT","lat":37.1601,"long":-113.0425},{"zip":"84765","city":"Santa Clara","state":"UT","lat":37.1282,"long":-113.676},{"zip":"84767","city":"Springdale","state":"UT","lat":37.1862,"long":-113.0139}]
