[{"zip":"85344","city":"Parker","state":"AZ","lat":34.15,"long":-114.2891},{"zip":"85346","city":"Quartzsite","state":"AZ","lat":33.7292,"long":-114.1925},{"zip":"85348","city":"Salome","state":"AZ","lat":33.7481,"long":-113.5715},{"zip":"85340","city":"Litchfield Park","state":"AZ","lat":33.5098,"long":-112.4135},{"zip":"85342","city":"Morristown","state":"AZ","lat":33.8567,"long":-112.6232},{"zip":"85343","city":"Palo Verde","state":"AZ","lat":33.3481,"long":-112.6774},{"zip":"85345","city":"Peoria","state":"AZ","lat":33.5761,"long":-112.2344},{"zip":"85341","city":"Lukeville","state":"AZ","lat":31.8737,"long":-112.7845},{"zip":"85347","city":"Roll","state":"AZ","lat":32.7517,"long":-113.9891},{"zip":"85349","city":"San Luis","state":"AZ","lat":32.487,"long":-114.7822}]
