[{"zip":"85620","city":"Naco","state":"AZ","lat":31.3373,"long":-109.9413},{"zip":"85625","city":"Pearce","state":"AZ","lat":31.8885,"long":-109.6119},{"zip":"85626","city":"Pirtleville","state":"AZ","lat":31.3572,"long":-109.5635},{"zip":"85627","city":"Pomerene","state":"AZ","lat":31.9995,"long":-110.2862},{"zip":"85622","city":"Green Valley","state":"AZ","lat":31.8269,"long":-111.0755},{"zip":"85629","city":"Sahuarita","state":"AZ","lat":31.9452,"long":-111.0002},{"zip":"85623","city":"Oracle","state":"AZ","lat":32.6005,"long":-110.7961},{"zip":"85621","city":"Nogales","state":"AZ","lat":31.377,"long":-110.9435},{"zip":"85624","city":"Patagonia","state":"AZ","lat":31.5353,"long":-110.6968},{"zip":"85628","city":"Nogales","state":"AZ","lat":31.532,"long":-110.9093}]
