[{"zip":"85650","city":"Sierra Vista","state":"AZ","lat":31.4892,"long":-110.2153},{"zip":"85655","city":"Douglas","state":"AZ","lat":31.3447,"long":-109.5468},{"zip":"85652","city":"Cortaro","state":"AZ","lat":32.4201,"long":-111.1132},{"zip":"85653","city":"Marana","state":"AZ","lat":32.4047,"long":-111.2736},{"zip":"85654","city":"Rillito","state":"AZ","lat":32.4148,"long":-111.1562},{"zip":"85658","city":"Marana","state":"AZ","lat":32.4305,"long":-111.1459}]
