[{"zip":"86336","city":"Sedona","state":"AZ","lat":34.8266,"long":-111.7506},{"zip":"86339","city":"Sedona","state":"AZ","lat":34.8697,"long":-111.761},{"zip":"86331","city":"Jerome","state":"AZ","lat":34.7486,"long":-112.1086},{"zip":"86332","city":"Kirkland","state":"AZ","lat":34.4541,"long":-112.8966},{"zip":"86333","city":"Mayer","state":"AZ","lat":34.3655,"long":-112.1296},{"zip":"86334","city":"Paulden","state":"AZ","lat":35.0313,"long":-112.5441},{"zip":"86335","city":"Rimrock","state":"AZ","lat":34.638,"long":-111.7842},{"zip":"86337","city":"Seligman","state":"AZ","lat":35.3212,"long":-112.9548},{"zip":"86338","city":"Skull Valley","state":"AZ","lat":34.5053,"long":-112.6855}]
