[{"zip":"87008","city":"Cedar Crest","state":"NM","lat":35.1285,"long":-106.3617},{"zip":"87022","city":"Isleta","state":"NM","lat":34.9073,"long":-106.6892},{"zip":"87047","city":"Sandia Park","state":"NM","lat":35.1683,"long":-106.3238},{"zip":"87059","city":"Tijeras","state":"NM","lat":35.0446,"long":-106.3062},{"zip":"87101","city":"Albuquerque","state":"NM","lat":35.1996,"long":-106.6448},{"zip":"87102","city":"Albuquerque","state":"NM","lat":35.0818,"long":-106.6482},{"zip":"87103","city":"Albuquerque","state":"NM","lat":35.0443,"long":-106.6729},{"zip":"87104","city":"Albuquerque","state":"NM","lat":35.1038,"long":-106.6712},{"zip":"87105","city":"Albuquerque","state":"NM","lat":35.0448,"long":-106.6893},{"zip":"87106","city":"Albuquerque","state":"NM","lat":35.079,"long":-106.6169},{"zip":"87107","city":"Albuquerque","state":"NM","lat":35.1347,"long":-106.6427},{"zip":"87108","city":"Albuquerque","state":"NM","lat":35.0726,"long":-106.5749},{"zip":"87109","city":"Albuquerque","state":"NM","lat":35.1506,"long":-106.569},{"zip":"87110","city":"Albuquerque","state":"NM","lat":35.1104,"long":-106.5781},{"zip":"87111","city":"Albuquerque","state":"NM","lat":35.1347,"long":-106.5222},{"zip":"87112","city":"Albuquerque","state":"NM","lat":35.101,"long":-106.5183},{"zip":"87113","city":"Albuquerque","state":"NM","lat":35.1759,"long":-106.6015},{"zip":"87114","city":"Albuquerque","state":"NM","lat":35.1868,"long":-106.6652},{"zip":"87115","city":"Albuquerque","state":"NM","lat":35.0549,"long":-106.5461},{"zip":"87116","city":"Albuquerque","state":"NM","lat":35.0561,"long":-106.5506},{"zip":"87117","city":"Kirtland Afb","state":"NM","lat":35.0203,"long":-106.5503},{"zip":"87119","city":"Albuquerque","state":"NM","lat":35.0443,"long":-106.6729},{"zip":"87120","city":"Albuquerque","state":"NM","lat":35.1421,"long":-106.7041},{"zip":"87121","city":"Albuquerque","state":"NM","lat":35.0512,"long":-106.7269},{"zip":"87122","city":"Albuquerque","state":"NM","lat":35.1787,"long":-106.5102},{"zip":"87123","city":"Albuquerque","state":"NM","lat":35.0717,"long":-106.509},{"zip":"87125","city":"Albuquerque","state":"NM","lat":35.0443,"long":-106.6729},{"zip":"87131","city":"Albuquerque","state":"NM","lat":35.0443,"long":-106.6729},{"zip":"87153","city":"Albuquerque","state":"NM","lat":35.0443,"long":-106.6729},{"zip":"87154","city":"Albuquerque","state":"NM","lat":35.0443,"long":-106.6729},{"zip":"87158","city":"Albuquerque","state":"NM","lat":35.0845,"long":-106.6511},{"zip":"87174","city":"Rio Rancho","state":"NM","lat":35.0443,"long":-106.6729},{"zip":"87176","city":"Albuquerque","state":"NM","lat":35.0443,"long":-106.6729},{"zip":"87181","city":"Albuquerque","state":"NM","lat":35.0443,"long":-106.6729},{"zip":"87184","city":"Albuquerque","state":"NM","lat":35.0443,"long":-106.6729},{"zip":"87185","city":"Albuquerque","state":"NM","lat":35.0443,"long":-106.6729},{"zip":"87187","city":"Albuquerque","state":"NM","lat":35.0443,"long":-106.6729},{"zip":"87190","city":"Albuquerque","state":"NM","lat":35.0443,"long":-106.6729},{"zip":"87191","city":"Albuquerque","state":"NM","lat":35.0443,"long":-106.6729},{"zip":"87192","city":"Albuquerque","state":"NM","lat":35.0443,"long":-106.6729},{"zip":"87193","city":"Albuquerque","state":"NM","lat":35.0443,"long":-106.6729},{"zip":"87194","city":"Albuquerque","state":"NM","lat":35.0443,"long":-106.6729},{"zip":"87195","city":"Albuquerque","state":"NM","lat":35.0443,"long":-106.6729},{"zip":"87196","city":"Albuquerque","state":"NM","lat":35.0443,"long":-106.6729},{"zip":"87197","city":"Albuquerque","state":"NM","lat":35.0845,"long":-106.6511},{"zip":"87198","city":"Albuquerque","state":"NM","lat":35.0845,"long":-106.6511},{"zip":"87199","city":"Albuquerque","state":"NM","lat":35.0443,"long":-106.6729},{"zip":"87820","city":"Aragon","state":"NM","lat":33.8859,"long":-108.5466},{"zip":"87821","city":"Datil","state":"NM","lat":34.0427,"long":-108.0183},{"zip":"87824","city":"Luna","state":"NM","lat":33.8189,"long":-108.9545},{"zip":"87827","city":"Pie Town","state":"NM","lat":34.3243,"long":-108.3682},{"zip":"87829","city":"Quemado","state":"NM","lat":34.2652,"long":-108.7578},{"zip":"87830","city":"Reserve","state":"NM","lat":33.7131,"long":-108.7578},{"zip":"87005","city":"Bluewater","state":"NM","lat":35.255,"long":-107.9856},{"zip":"87007","city":"Casa Blanca","state":"NM","lat":35.0456,"long":-107.4714},{"zip":"87014","city":"Cubero","state":"NM","lat":35.0859,"long":-107.5181},{"zip":"87020","city":"Grants","state":"NM","lat":35.1476,"long":-107.8526},{"zip":"87021","city":"Milan","state":"NM","lat":35.1698,"long":-107.8909},{"zip":"87026","city":"Laguna","state":"NM","lat":34.9625,"long":-107.2325},{"zip":"87038","city":"New Laguna","state":"NM","lat":35.0409,"long":-107.422},{"zip":"87040","city":"Paguate","state":"NM","lat":35.1387,"long":-107.3789},{"zip":"87049","city":"San Fidel","state":"NM","lat":35.0823,"long":-107.5992},{"zip":"87051","city":"San Rafael","state":"NM","lat":35.1125,"long":-107.8826},{"zip":"87315","city":"Fence Lake","state":"NM","lat":34.7344,"long":-108.6934},{"zip":"87357","city":"Pinehill","state":"NM","lat":34.9992,"long":-108.4112},{"zip":"87710","city":"Angel Fire","state":"NM","lat":36.3849,"long":-105.2439},{"zip":"87714","city":"Cimarron","state":"NM","lat":36.4574,"long":-105.0697},{"zip":"87718","city":"Eagle Nest","state":"NM","lat":36.5326,"long":-105.2756},{"zip":"87728","city":"Maxwell","state":"NM","lat":36.5434,"long":-104.564},{"zip":"87729","city":"Miami","state":"NM","lat":36.35,"long":-104.7931},{"zip":"87740","city":"Raton","state":"NM","lat":36.8952,"long":-104.4349},{"zip":"87747","city":"Springer","state":"NM","lat":36.3767,"long":-104.5927},{"zip":"87749","city":"Ute Park","state":"NM","lat":36.5581,"long":-105.115},{"zip":"87936","city":"Garfield","state":"NM","lat":32.7557,"long":-107.2704},{"zip":"87937","city":"Hatch","state":"NM","lat":32.6583,"long":-107.159},{"zip":"87940","city":"Rincon","state":"NM","lat":32.6597,"long":-107.0643},{"zip":"87941","city":"Salem","state":"NM","lat":32.7093,"long":-107.2157},{"zip":"87711","city":"Anton Chico","state":"NM","lat":35.2001,"long":-105.1422},{"zip":"87724","city":"La Loma","state":"NM","lat":35.1734,"long":-105.0775},{"zip":"87730","city":"Mills","state":"NM","lat":36.1281,"long":-104.2277},{"zip":"87733","city":"Mosquero","state":"NM","lat":35.8041,"long":-103.9021},{"zip":"87743","city":"Roy","state":"NM","lat":35.9522,"long":-104.1497},{"zip":"87746","city":"Solano","state":"NM","lat":35.8484,"long":-104.0675},{"zip":"87544","city":"Los Alamos","state":"NM","lat":35.8663,"long":-106.2676},{"zip":"87545","city":"Los Alamos","state":"NM","lat":35.8639,"long":-106.2953},{"zip":"87547","city":"White Rock","state":"NM","lat":35.8275,"long":-106.2039},{"zip":"87045","city":"Prewitt","state":"NM","lat":35.3547,"long":-108.1038},{"zip":"87301","city":"Gallup","state":"NM","lat":35.5065,"long":-108.7414},{"zip":"87302","city":"Gallup","state":"NM","lat":35.5281,"long":-108.7426},{"zip":"87305","city":"Gallup","state":"NM","lat":35.4499,"long":-108.7705},{"zip":"87310","city":"Brimhall","state":"NM","lat":35.8005,"long":-108.5815},{"zip":"87311","city":"Church Rock","state":"NM","lat":35.5339,"long":-108.5998},{"zip":"87312","city":"Continental Divide","state":"NM","lat":35.4226,"long":-108.323},{"zip":"87313","city":"Crownpoint","state":"NM","lat":35.7206,"long":-108.0271},{"zip":"87316","city":"Fort Wingate","state":"NM","lat":35.5191,"long":-108.4864},{"zip":"87317","city":"Gamerco","state":"NM","lat":35.5763,"long":-108.7626},{"zip":"87319","city":"Mentmore","state":"NM","lat":35.5042,"long":-108.8317},{"zip":"87320","city":"Mexican Springs","state":"NM","lat":35.7837,"long":-108.819},{"zip":"87321","city":"Ramah","state":"NM","lat":35.1324,"long":-108.492},{"zip":"87322","city":"Rehoboth","state":"NM","lat":35.5289,"long":-108.6548},{"zip":"87323","city":"Thoreau","state":"NM","lat":35.3976,"long":-108.1604},{"zip":"87325","city":"Tohatchi","state":"NM","lat":36.0021,"long":-108.6229},{"zip":"87326","city":"Vanderwagen","state":"NM","lat":35.3509,"long":-108.6985},{"zip":"87327","city":"Zuni","state":"NM","lat":35.0684,"long":-108.8336},{"zip":"87328","city":"Navajo","state":"NM","lat":35.8942,"long":-109.0226},{"zip":"87347","city":"Jamestown","state":"NM","lat":35.4809,"long":-108.1767},{"zip":"87365","city":"Smith Lake","state":"NM","lat":35.4809,"long":-108.1767},{"zip":"87375","city":"Yatahey","state":"NM","lat":35.4809,"long":-108.1767},{"zip":"87712","city":"Buena Vista","state":"NM","lat":35.9136,"long":-105.2492},{"zip":"87713","city":"Chacon","state":"NM","lat":36.1388,"long":-105.3854},{"zip":"87715","city":"Cleveland","state":"NM","lat":35.9898,"long":-105.4326},{"zip":"87722","city":"Guadalupita","state":"NM","lat":36.1375,"long":-105.2386},{"zip":"87723","city":"Holman","state":"NM","lat":36.0384,"long":-105.3836},{"zip":"87732","city":"Mora","state":"NM","lat":35.9742,"long":-105.33},{"zip":"87734","city":"Ocate","state":"NM","lat":36.1037,"long":-105.066},{"zip":"87735","city":"Ojo Feliz","state":"NM","lat":36.0578,"long":-105.1183},{"zip":"87736","city":"Rainsville","state":"NM","lat":35.9786,"long":-105.2092},{"zip":"87750","city":"Valmora","state":"NM","lat":35.8164,"long":-104.9231},{"zip":"87752","city":"Wagon Mound","state":"NM","lat":35.9814,"long":-104.691},{"zip":"87753","city":"Watrous","state":"NM","lat":35.7906,"long":-104.9817},{"zip":"87012","city":"Coyote","state":"NM","lat":36.1018,"long":-106.6692},{"zip":"87017","city":"Gallina","state":"NM","lat":36.3202,"long":-106.7687},{"zip":"87029","city":"Lindrith","state":"NM","lat":36.3249,"long":-107.0495},{"zip":"87064","city":"Youngsville","state":"NM","lat":36.1875,"long":-106.5564},{"zip":"87510","city":"Abiquiu","state":"NM","lat":36.1769,"long":-106.2449},{"zip":"87511","city":"Alcalde","state":"NM","lat":36.0889,"long":-106.0536},{"zip":"87515","city":"Canjilon","state":"NM","lat":36.4795,"long":-106.4378},{"zip":"87516","city":"Canones","state":"NM","lat":36.1814,"long":-106.4376},{"zip":"87518","city":"Cebolla","state":"NM","lat":36.4654,"long":-106.5785},{"zip":"87520","city":"Chama","state":"NM","lat":36.8962,"long":-106.5829},{"zip":"87522","city":"Chimayo","state":"NM","lat":36.0039,"long":-105.947},{"zip":"87523","city":"Cordova","state":"NM","lat":36.0072,"long":-105.8606},{"zip":"87527","city":"Dixon","state":"NM","lat":36.179,"long":-105.8615},{"zip":"87528","city":"Dulce","state":"NM","lat":36.8598,"long":-107.0602},{"zip":"87530","city":"El Rito","state":"NM","lat":36.3647,"long":-106.2192},{"zip":"87531","city":"Embudo","state":"NM","lat":36.2153,"long":-105.8901},{"zip":"87532","city":"Espanola","state":"NM","lat":35.9872,"long":-106.0717},{"zip":"87533","city":"Espanola","state":"NM","lat":35.9866,"long":-106.0654},{"zip":"87537","city":"Hernandez","state":"NM","lat":36.0738,"long":-106.1396},{"zip":"87539","city":"La Madera","state":"NM","lat":36.4654,"long":-106.5785},{"zip":"87548","city":"Medanales","state":"NM","lat":36.1756,"long":-106.1834},{"zip":"87551","city":"Los Ojos","state":"NM","lat":36.7292,"long":-106.57},{"zip":"87554","city":"Petaca","state":"NM","lat":36.5084,"long":-106.0106},{"zip":"87566","city":"Ohkay Owingeh","state":"NM","lat":36.0508,"long":-106.069},{"zip":"87575","city":"Tierra Amarilla","state":"NM","lat":36.6805,"long":-106.557},{"zip":"87578","city":"Truchas","state":"NM","lat":36.0444,"long":-105.8129},{"zip":"87581","city":"Vallecitos","state":"NM","lat":36.5286,"long":-106.1448},{"zip":"87582","city":"Velarde","state":"NM","lat":36.1589,"long":-105.9747},{"zip":"87001","city":"Algodones","state":"NM","lat":35.389,"long":-106.3517},{"zip":"87004","city":"Bernalillo","state":"NM","lat":35.3285,"long":-106.5309},{"zip":"87013","city":"Cuba","state":"NM","lat":36.0482,"long":-107.1885},{"zip":"87018","city":"Counselor","state":"NM","lat":36.2092,"long":-107.4578},{"zip":"87024","city":"Jemez Pueblo","state":"NM","lat":35.6243,"long":-106.7219},{"zip":"87025","city":"Jemez Springs","state":"NM","lat":35.8927,"long":-106.7714},{"zip":"87027","city":"La Jara","state":"NM","lat":36.1194,"long":-106.9923},{"zip":"87041","city":"Pena Blanca","state":"NM","lat":35.598,"long":-106.3492},{"zip":"87043","city":"Placitas","state":"NM","lat":35.3092,"long":-106.5293},{"zip":"87044","city":"Ponderosa","state":"NM","lat":35.66,"long":-106.6675},{"zip":"87046","city":"Regina","state":"NM","lat":36.1842,"long":-106.9567},{"zip":"87048","city":"Corrales","state":"NM","lat":35.2339,"long":-106.62},{"zip":"87052","city":"Santo Domingo Pueblo","state":"NM","lat":35.5269,"long":-106.3445},{"zip":"87053","city":"San Ysidro","state":"NM","lat":35.5634,"long":-106.7706},{"zip":"87072","city":"Cochiti Pueblo","state":"NM","lat":35.6089,"long":-106.3518},{"zip":"87083","city":"Cochiti Lake","state":"NM","lat":35.6485,"long":-106.3428},{"zip":"87124","city":"Rio Rancho","state":"NM","lat":35.2493,"long":-106.6818},{"zip":"87144","city":"Rio Rancho","state":"NM","lat":35.324,"long":-106.7099},{"zip":"87037","city":"Nageezi","state":"NM","lat":36.1598,"long":-107.7664},{"zip":"87364","city":"Sheep Springs","state":"NM","lat":36.142,"long":-108.7064},{"zip":"87401","city":"Farmington","state":"NM","lat":36.7412,"long":-108.1797},{"zip":"87402","city":"Farmington","state":"NM","lat":36.7685,"long":-108.1478},{"zip":"87410","city":"Aztec","state":"NM","lat":36.8205,"long":-108.011},{"zip":"87412","city":"Blanco","state":"NM","lat":36.7242,"long":-107.8253},{"zip":"87413","city":"Bloomfield","state":"NM","lat":36.6955,"long":-107.9784},{"zip":"87415","city":"Flora Vista","state":"NM","lat":36.8028,"long":-108.0827},{"zip":"87416","city":"Fruitland","state":"NM","lat":36.6933,"long":-108.4218},{"zip":"87417","city":"Kirtland","state":"NM","lat":36.741,"long":-108.351},{"zip":"87418","city":"La Plata","state":"NM","lat":36.9576,"long":-108.1792},{"zip":"87419","city":"Navajo Dam","state":"NM","lat":36.8689,"long":-107.6528},{"zip":"87420","city":"Shiprock","state":"NM","lat":36.656,"long":-108.7355},{"zip":"87421","city":"Waterflow","state":"NM","lat":36.7637,"long":-108.5186},{"zip":"87455","city":"Newcomb","state":"NM","lat":36.2847,"long":-108.7059},{"zip":"87461","city":"Sanostee","state":"NM","lat":36.4247,"long":-108.8743},{"zip":"87499","city":"Farmington","state":"NM","lat":36.7745,"long":-108.0692},{"zip":"87538","city":"Ilfeld","state":"NM","lat":35.4212,"long":-105.5589},{"zip":"87552","city":"Pecos","state":"NM","lat":35.571,"long":-105.6701},{"zip":"87560","city":"Ribera","state":"NM","lat":35.3344,"long":-105.4652},{"zip":"87562","city":"Rowe","state":"NM","lat":35.4917,"long":-105.6753},{"zip":"87565","city":"San Jose","state":"NM","lat":35.4569,"long":-105.4383},{"zip":"87569","city":"Serafina","state":"NM","lat":35.3975,"long":-105.3236},{"zip":"87573","city":"Tererro","state":"NM","lat":35.7727,"long":-105.6713},{"zip":"87583","city":"Villanueva","state":"NM","lat":35.2667,"long":-105.3608},{"zip":"87701","city":"Las Vegas","state":"NM","lat":35.5949,"long":-105.2272},{"zip":"87731","city":"Montezuma","state":"NM","lat":35.6523,"long":-105.2764},{"zip":"87742","city":"Rociada","state":"NM","lat":35.8226,"long":-105.3147},{"zip":"87745","city":"Sapello","state":"NM","lat":35.762,"long":-105.1077},{"zip":"87010","city":"Cerrillos","state":"NM","lat":35.423,"long":-106.1317},{"zip":"87015","city":"Edgewood","state":"NM","lat":35.0776,"long":-106.1872},{"zip":"87056","city":"Stanley","state":"NM","lat":35.1295,"long":-106.0283},{"zip":"87501","city":"Santa Fe","state":"NM","lat":35.6975,"long":-105.9821},{"zip":"87502","city":"Santa Fe","state":"NM","lat":35.687,"long":-105.9378},{"zip":"87503","city":"Santa Fe","state":"NM","lat":35.687,"long":-105.9378},{"zip":"87504","city":"Santa Fe","state":"NM","lat":35.687,"long":-105.9378},{"zip":"87505","city":"Santa Fe","state":"NM","lat":35.6219,"long":-105.8688},{"zip":"87506","city":"Santa Fe","state":"NM","lat":35.8195,"long":-105.9886},{"zip":"87507","city":"Santa Fe","state":"NM","lat":35.6567,"long":-106.0152},{"zip":"87508","city":"Santa Fe","state":"NM","lat":35.5335,"long":-105.926},{"zip":"87509","city":"Santa Fe","state":"NM","lat":35.5212,"long":-105.9818},{"zip":"87535","city":"Glorieta","state":"NM","lat":35.5288,"long":-105.7477},{"zip":"87540","city":"Lamy","state":"NM","lat":35.4311,"long":-105.9409},{"zip":"87567","city":"Santa Cruz","state":"NM","lat":35.986,"long":-106.0318},{"zip":"87574","city":"Tesuque","state":"NM","lat":35.7874,"long":-105.9157},{"zip":"87592","city":"Santa Fe","state":"NM","lat":35.5212,"long":-105.9818},{"zip":"87594","city":"Santa Fe","state":"NM","lat":35.5212,"long":-105.9818},{"zip":"87901","city":"Truth Or Consequences","state":"NM","lat":33.1606,"long":-107.2669},{"zip":"87930","city":"Arrey","state":"NM","lat":32.8487,"long":-107.3192},{"zip":"87931","city":"Caballo","state":"NM","lat":32.9641,"long":-107.4102},{"zip":"87933","city":"Derry","state":"NM","lat":32.7881,"long":-107.2822},{"zip":"87935","city":"Elephant Butte","state":"NM","lat":33.209,"long":-107.2212},{"zip":"87939","city":"Monticello","state":"NM","lat":33.397,"long":-107.4509},{"zip":"87942","city":"Williamsburg","state":"NM","lat":33.1171,"long":-107.2915},{"zip":"87943","city":"Winston","state":"NM","lat":33.3061,"long":-107.6675},{"zip":"87011","city":"Claunch","state":"NM","lat":34.0646,"long":-105.9496},{"zip":"87028","city":"La Joya","state":"NM","lat":34.3813,"long":-106.815},{"zip":"87062","city":"Veguita","state":"NM","lat":34.485,"long":-106.7591},{"zip":"87801","city":"Socorro","state":"NM","lat":34.0479,"long":-106.8907},{"zip":"87823","city":"Lemitar","state":"NM","lat":34.156,"long":-106.9044},{"zip":"87825","city":"Magdalena","state":"NM","lat":34.1114,"long":-107.2409},{"zip":"87828","city":"Polvadera","state":"NM","lat":34.2059,"long":-106.9167},{"zip":"87831","city":"San Acacia","state":"NM","lat":34.2283,"long":-106.9049},{"zip":"87832","city":"San Antonio","state":"NM","lat":33.819,"long":-106.8285},{"zip":"87512","city":"Amalia","state":"NM","lat":36.942,"long":-105.4545},{"zip":"87513","city":"Arroyo Hondo","state":"NM","lat":36.5796,"long":-105.6873},{"zip":"87514","city":"Arroyo Seco","state":"NM","lat":36.52,"long":-105.534},{"zip":"87517","city":"Carson","state":"NM","lat":36.3645,"long":-105.7653},{"zip":"87519","city":"Cerro","state":"NM","lat":36.7539,"long":-105.6128},{"zip":"87521","city":"Chamisal","state":"NM","lat":36.1311,"long":-105.7385},{"zip":"87524","city":"Costilla","state":"NM","lat":36.9324,"long":-105.6723},{"zip":"87525","city":"Taos Ski Valley","state":"NM","lat":36.596,"long":-105.4545},{"zip":"87529","city":"El Prado","state":"NM","lat":36.3492,"long":-105.6244},{"zip":"87543","city":"Llano","state":"NM","lat":36.14,"long":-105.6817},{"zip":"87549","city":"Ojo Caliente","state":"NM","lat":36.3313,"long":-106.0028},{"zip":"87553","city":"Penasco","state":"NM","lat":36.1763,"long":-105.7105},{"zip":"87556","city":"Questa","state":"NM","lat":36.7039,"long":-105.595},{"zip":"87557","city":"Ranchos De Taos","state":"NM","lat":36.3357,"long":-105.6086},{"zip":"87558","city":"Red River","state":"NM","lat":36.6659,"long":-105.4694},{"zip":"87564","city":"San Cristobal","state":"NM","lat":36.6116,"long":-105.636},{"zip":"87571","city":"Taos","state":"NM","lat":36.3953,"long":-105.5847},{"zip":"87576","city":"Trampas","state":"NM","lat":36.1311,"long":-105.7589},{"zip":"87577","city":"Tres Piedras","state":"NM","lat":36.647,"long":-105.9672},{"zip":"87579","city":"Vadito","state":"NM","lat":36.1338,"long":-105.5712},{"zip":"87580","city":"Valdez","state":"NM","lat":36.5701,"long":-105.5658},{"zip":"87009","city":"Cedarvale","state":"NM","lat":34.3706,"long":-105.702},{"zip":"87016","city":"Estancia","state":"NM","lat":34.77,"long":-106.135},{"zip":"87032","city":"Mcintosh","state":"NM","lat":34.8648,"long":-106.0517},{"zip":"87035","city":"Moriarty","state":"NM","lat":34.9889,"long":-106.0609},{"zip":"87036","city":"Mountainair","state":"NM","lat":34.5158,"long":-106.2577},{"zip":"87061","city":"Torreon","state":"NM","lat":34.6948,"long":-106.3247},{"zip":"87063","city":"Willard","state":"NM","lat":34.5754,"long":-106.0307},{"zip":"87070","city":"Clines Corners","state":"NM","lat":35.0095,"long":-105.6692},{"zip":"87002","city":"Belen","state":"NM","lat":34.6511,"long":-106.6952},{"zip":"87006","city":"Bosque","state":"NM","lat":34.4996,"long":-106.8038},{"zip":"87023","city":"Jarales","state":"NM","lat":34.592,"long":-106.7611},{"zip":"87031","city":"Los Lunas","state":"NM","lat":34.7806,"long":-106.7115},{"zip":"87034","city":"Pueblo Of Acoma","state":"NM","lat":34.8964,"long":-107.5817},{"zip":"87042","city":"Peralta","state":"NM","lat":34.8332,"long":-106.6872},{"zip":"87060","city":"Tome","state":"NM","lat":34.7426,"long":-106.7328},{"zip":"87068","city":"Bosque Farms","state":"NM","lat":34.8764,"long":-106.6975}]
