[{"zip":"87059","city":"Tijeras","state":"NM","lat":35.0446,"long":-106.3062},{"zip":"87051","city":"San Rafael","state":"NM","lat":35.1125,"long":-107.8826},{"zip":"87052","city":"Santo Domingo Pueblo","state":"NM","lat":35.5269,"long":-106.3445},{"zip":"87053","city":"San Ysidro","state":"NM","lat":35.5634,"long":-106.7706},{"zip":"87056","city":"Stanley","state":"NM","lat":35.1295,"long":-106.0283}]
