[{"zip":"87315","city":"Fence Lake","state":"NM","lat":34.7344,"long":-108.6934},{"zip":"87310","city":"Brimhall","state":"NM","lat":35.8005,"long":-108.5815},{"zip":"87311","city":"Church Rock","state":"NM","lat":35.5339,"long":-108.5998},{"zip":"87312","city":"Continental Divide","state":"NM","lat":35.4226,"long":-108.323},{"zip":"87313","city":"Crownpoint","state":"NM","lat":35.7206,"long":-108.0271},{"zip":"87316","city":"Fort Wingate","state":"NM","lat":35.5191,"long":-108.4864},{"zip":"87317","city":"Gamerco","state":"NM","lat":35.5763,"long":-108.7626},{"zip":"87319","city":"Mentmore","state":"NM","lat":35.5042,"long":-108.8317}]
