[{"zip":"87320","city":"Mexican Springs","state":"NM","lat":35.7837,"long":-108.819},{"zip":"87321","city":"Ramah","state":"NM","lat":35.1324,"long":-108.492},{"zip":"87322","city":"Rehoboth","state":"NM","lat":35.5289,"long":-108.6548},{"zip":"87323","city":"Thoreau","state":"NM","lat":35.3976,"long":-108.1604},{"zip":"87325","city":"Tohatchi","state":"NM","lat":36.0021,"long":-108.6229},{"zip":"87326","city":"Vanderwagen","state":"NM","lat":35.3509,"long":-108.6985},{"zip":"87327","city":"Zuni","state":"NM","lat":35.0684,"long":-108.8336},{"zip":"87328","city":"Navajo","state":"NM","lat":35.8942,"long":-109.0226}]
