[{"zip":"87566","city":"Ohkay Owingeh","state":"NM","lat":36.0508,"long":-106.069},{"zip":"87560","city":"Ribera","state":"NM","lat":35.3344,"long":-105.4652},{"zip":"87562","city":"Rowe","state":"NM","lat":35.4917,"long":-105.6753},{"zip":"87565","city":"San Jose","state":"NM","lat":35.4569,"long":-105.4383},{"zip":"87569","city":"Serafina","state":"NM","lat":35.3975,"long":-105.3236},{"zip":"87567","city":"Santa Cruz","state":"NM","lat":35.986,"long":-106.0318},{"zip":"87564","city":"San Cristobal","state":"NM","lat":36.6116,"long":-105.636}]
