[{"zip":"87710","city":"Angel Fire","state":"NM","lat":36.3849,"long":-105.2439},{"zip":"87714","city":"Cimarron","state":"NM","lat":36.4574,"long":-105.0697},{"zip":"87718","city":"Eagle Nest","state":"NM","lat":36.5326,"long":-105.2756},{"zip":"87711","city":"Anton Chico","state":"NM","lat":35.2001,"long":-105.1422},{"zip":"87712","city":"Buena Vista","state":"NM","lat":35.9136,"long":-105.2492},{"zip":"87713","city":"Chacon","state":"NM","lat":36.1388,"long":-105.3854},{"zip":"87715","city":"Cleveland","state":"NM","lat":35.9898,"long":-105.4326}]
