[{"zip":"87820","city":"Aragon","state":"NM","lat":33.8859,"long":-108.5466},{"zip":"87821","city":"Datil","state":"NM","lat":34.0427,"long":-108.0183},{"zip":"87824","city":"Luna","state":"NM","lat":33.8189,"long":-108.9545},{"zip":"87827","city":"Pie Town","state":"NM","lat":34.3243,"long":-108.3682},{"zip":"87829","city":"Quemado","state":"NM","lat":34.2652,"long":-108.7578},{"zip":"87830","city":"Reserve","state":"NM","lat":33.7131,"long":-108.7578},{"zip":"87801","city":"Socorro","state":"NM","lat":34.0479,"long":-106.8907},{"zip":"87823","city":"Lemitar","state":"NM","lat":34.156,"long":-106.9044},{"zip":"87825","city":"Magdalena","state":"NM","lat":34.1114,"long":-107.2409},{"zip":"87828","city":"Polvadera","state":"NM","lat":34.2059,"long":-106.9167},{"zip":"87831","city":"San Acacia","state":"NM","lat":34.2283,"long":-106.9049},{"zip":"87832","city":"San Antonio","state":"NM","lat":33.819,"long":-106.8285}]
