[{"zip":"88052","city":"Organ","state":"NM","lat":32.4259,"long":-106.6136},{"zip":"88054","city":"Radium Springs","state":"NM","lat":32.4888,"long":-106.9146},{"zip":"88058","city":"San Miguel","state":"NM","lat":32.1554,"long":-106.735},{"zip":"88051","city":"Mule Creek","state":"NM","lat":33.1071,"long":-108.9032},{"zip":"88053","city":"Pinos Altos","state":"NM","lat":32.8614,"long":-108.2192},{"zip":"88055","city":"Redrock","state":"NM","lat":32.6862,"long":-108.7381},{"zip":"88056","city":"Rodeo","state":"NM","lat":31.8358,"long":-109.0322}]
