[{"zip":"88133","city":"Saint Vrain","state":"NM","lat":34.4756,"long":-103.4669},{"zip":"88135","city":"Texico","state":"NM","lat":34.3958,"long":-103.0615},{"zip":"88134","city":"Taiban","state":"NM","lat":34.3271,"long":-104.0159},{"zip":"88136","city":"Yeso","state":"NM","lat":34.455,"long":-104.7452},{"zip":"88130","city":"Portales","state":"NM","lat":34.1799,"long":-103.3363},{"zip":"88132","city":"Rogers","state":"NM","lat":33.9216,"long":-103.1898}]
