[{"zip":"88263","city":"Malaga","state":"NM","lat":32.1813,"long":-104.0668},{"zip":"88268","city":"Whites City","state":"NM","lat":32.1757,"long":-104.3766},{"zip":"88260","city":"Lovington","state":"NM","lat":32.9512,"long":-103.3488},{"zip":"88262","city":"Mcdonald","state":"NM","lat":33.1407,"long":-103.3174},{"zip":"88264","city":"Maljamar","state":"NM","lat":32.8562,"long":-103.7627},{"zip":"88265","city":"Monument","state":"NM","lat":32.5874,"long":-103.2703},{"zip":"88267","city":"Tatum","state":"NM","lat":33.26,"long":-103.314}]
