[{"zip":"89423","city":"Minden","state":"NV","lat":39.0218,"long":-119.7314},{"zip":"89421","city":"Mc Dermitt","state":"NV","lat":41.9708,"long":-117.6737},{"zip":"89425","city":"Orovada","state":"NV","lat":41.6654,"long":-117.9083},{"zip":"89426","city":"Paradise Valley","state":"NV","lat":41.5057,"long":-117.5728},{"zip":"89428","city":"Silver City","state":"NV","lat":39.2652,"long":-119.6388},{"zip":"89429","city":"Silver Springs","state":"NV","lat":39.38,"long":-119.2705},{"zip":"89420","city":"Luning","state":"NV","lat":38.5063,"long":-118.1815},{"zip":"89422","city":"Mina","state":"NV","lat":38.387,"long":-118.1096},{"zip":"89427","city":"Schurz","state":"NV","lat":38.9575,"long":-118.7756},{"zip":"89424","city":"Nixon","state":"NV","lat":39.8272,"long":-119.3605}]
