[{"zip":"91340","city":"San Fernando","state":"CA","lat":34.2875,"long":-118.4352},{"zip":"91341","city":"San Fernando","state":"CA","lat":34.2819,"long":-118.439},{"zip":"91342","city":"Sylmar","state":"CA","lat":34.3054,"long":-118.4322},{"zip":"91343","city":"North Hills","state":"CA","lat":34.2366,"long":-118.4758},{"zip":"91344","city":"Granada Hills","state":"CA","lat":34.2771,"long":-118.4992},{"zip":"91345","city":"Mission Hills","state":"CA","lat":34.2619,"long":-118.4587},{"zip":"91346","city":"Mission Hills","state":"CA","lat":34.2572,"long":-118.467}]
