[{"zip":"91350","city":"Santa Clarita","state":"CA","lat":34.4336,"long":-118.5007},{"zip":"91351","city":"Canyon Country","state":"CA","lat":34.4262,"long":-118.449},{"zip":"91352","city":"Sun Valley","state":"CA","lat":34.2209,"long":-118.3699},{"zip":"91353","city":"Sun Valley","state":"CA","lat":34.2175,"long":-118.3704},{"zip":"91354","city":"Valencia","state":"CA","lat":34.4466,"long":-118.5374},{"zip":"91355","city":"Valencia","state":"CA","lat":34.3985,"long":-118.5535},{"zip":"91356","city":"Tarzana","state":"CA","lat":34.1671,"long":-118.5414},{"zip":"91357","city":"Tarzana","state":"CA","lat":34.1733,"long":-118.554},{"zip":"91358","city":"Thousand Oaks","state":"CA","lat":34.1706,"long":-118.8376},{"zip":"91359","city":"Westlake Village","state":"CA","lat":34.1458,"long":-118.8056}]
