[{"zip":"91390","city":"Santa Clarita","state":"CA","lat":34.4684,"long":-118.5261},{"zip":"91392","city":"Sylmar","state":"CA","lat":34.3078,"long":-118.4492},{"zip":"91393","city":"North Hills","state":"CA","lat":34.2364,"long":-118.4847},{"zip":"91394","city":"Granada Hills","state":"CA","lat":34.2647,"long":-118.5231},{"zip":"91395","city":"Mission Hills","state":"CA","lat":34.2572,"long":-118.467},{"zip":"91396","city":"Winnetka","state":"CA","lat":34.2133,"long":-118.572}]
