[{"zip":"92250","city":"Holtville","state":"CA","lat":32.8104,"long":-115.3775},{"zip":"92251","city":"Imperial","state":"CA","lat":32.847,"long":-115.573},{"zip":"92257","city":"Niland","state":"CA","lat":33.3784,"long":-115.6965},{"zip":"92259","city":"Ocotillo","state":"CA","lat":32.7387,"long":-115.9942},{"zip":"92253","city":"La Quinta","state":"CA","lat":33.6685,"long":-116.3081},{"zip":"92254","city":"Mecca","state":"CA","lat":33.545,"long":-116.0187},{"zip":"92255","city":"Palm Desert","state":"CA","lat":33.7225,"long":-116.377},{"zip":"92258","city":"North Palm Springs","state":"CA","lat":33.9228,"long":-116.5431},{"zip":"92252","city":"Joshua Tree","state":"CA","lat":34.1502,"long":-116.3038},{"zip":"92256","city":"Morongo Valley","state":"CA","lat":34.0606,"long":-116.5656}]
