[{"zip":"92301","city":"Adelanto","state":"CA","lat":34.5841,"long":-117.4242},{"zip":"92304","city":"Amboy","state":"CA","lat":34.5578,"long":-115.7444},{"zip":"92305","city":"Angelus Oaks","state":"CA","lat":34.1531,"long":-116.9485},{"zip":"92307","city":"Apple Valley","state":"CA","lat":34.5291,"long":-117.2132},{"zip":"92308","city":"Apple Valley","state":"CA","lat":34.4698,"long":-117.1927},{"zip":"92309","city":"Baker","state":"CA","lat":35.3606,"long":-116.0638}]
