[{"zip":"93242","city":"Laton","state":"CA","lat":36.4378,"long":-119.7156},{"zip":"93240","city":"Lake Isabella","state":"CA","lat":35.669,"long":-118.457},{"zip":"93241","city":"Lamont","state":"CA","lat":35.2571,"long":-118.9124},{"zip":"93243","city":"Lebec","state":"CA","lat":34.8818,"long":-118.8566},{"zip":"93249","city":"Lost Hills","state":"CA","lat":35.6163,"long":-119.6943},{"zip":"93245","city":"Lemoore","state":"CA","lat":36.2682,"long":-119.8173},{"zip":"93246","city":"Lemoore","state":"CA","lat":36.1389,"long":-119.8947},{"zip":"93244","city":"Lemon Cove","state":"CA","lat":36.4969,"long":-118.9941},{"zip":"93247","city":"Lindsay","state":"CA","lat":36.2096,"long":-119.0884}]
