[{"zip":"93442","city":"Morro Bay","state":"CA","lat":35.3795,"long":-120.8447},{"zip":"93443","city":"Morro Bay","state":"CA","lat":35.3658,"long":-120.8499},{"zip":"93444","city":"Nipomo","state":"CA","lat":35.0298,"long":-120.4894},{"zip":"93445","city":"Oceano","state":"CA","lat":35.1019,"long":-120.608},{"zip":"93446","city":"Paso Robles","state":"CA","lat":35.6406,"long":-120.7003},{"zip":"93447","city":"Paso Robles","state":"CA","lat":35.7562,"long":-120.6935},{"zip":"93448","city":"Pismo Beach","state":"CA","lat":35.1428,"long":-120.6413},{"zip":"93449","city":"Pismo Beach","state":"CA","lat":35.1578,"long":-120.6522},{"zip":"93440","city":"Los Alamos","state":"CA","lat":34.7457,"long":-120.2049},{"zip":"93441","city":"Los Olivos","state":"CA","lat":34.6678,"long":-120.1149}]
