[{"zip":"93450","city":"San Ardo","state":"CA","lat":35.9857,"long":-120.8612},{"zip":"93451","city":"San Miguel","state":"CA","lat":35.9004,"long":-120.5929},{"zip":"93452","city":"San Simeon","state":"CA","lat":35.6668,"long":-121.144},{"zip":"93453","city":"Santa Margarita","state":"CA","lat":35.3584,"long":-120.2596},{"zip":"93454","city":"Santa Maria","state":"CA","lat":34.9545,"long":-120.4325},{"zip":"93455","city":"Santa Maria","state":"CA","lat":34.8286,"long":-120.4268},{"zip":"93456","city":"Santa Maria","state":"CA","lat":34.953,"long":-120.4357},{"zip":"93457","city":"Santa Maria","state":"CA","lat":34.953,"long":-120.4357},{"zip":"93458","city":"Santa Maria","state":"CA","lat":34.9535,"long":-120.4957}]
