[{"zip":"93602","city":"Auberry","state":"CA","lat":37.0726,"long":-119.4572},{"zip":"93605","city":"Big Creek","state":"CA","lat":37.2032,"long":-119.2492},{"zip":"93606","city":"Biola","state":"CA","lat":36.8032,"long":-120.0185},{"zip":"93607","city":"Burrel","state":"CA","lat":36.5898,"long":-119.8994},{"zip":"93608","city":"Cantua Creek","state":"CA","lat":36.4921,"long":-120.3353},{"zip":"93609","city":"Caruthers","state":"CA","lat":36.5358,"long":-119.8446},{"zip":"93601","city":"Ahwahnee","state":"CA","lat":37.4076,"long":-119.7233},{"zip":"93604","city":"Bass Lake","state":"CA","lat":37.3244,"long":-119.5568},{"zip":"93603","city":"Badger","state":"CA","lat":36.6313,"long":-119.0132}]
