[{"zip":"93920","city":"Big Sur","state":"CA","lat":36.2458,"long":-121.7009},{"zip":"93921","city":"Carmel By The Sea","state":"CA","lat":36.5552,"long":-121.9233},{"zip":"93922","city":"Carmel","state":"CA","lat":36.5433,"long":-121.9263},{"zip":"93923","city":"Carmel","state":"CA","lat":36.5457,"long":-121.8949},{"zip":"93924","city":"Carmel Valley","state":"CA","lat":36.4787,"long":-121.7244},{"zip":"93925","city":"Chualar","state":"CA","lat":36.595,"long":-121.432},{"zip":"93926","city":"Gonzales","state":"CA","lat":36.49,"long":-121.4103},{"zip":"93927","city":"Greenfield","state":"CA","lat":36.3202,"long":-121.2451},{"zip":"93928","city":"Jolon","state":"CA","lat":36.0235,"long":-121.2138}]
