[{"zip":"94536","city":"Fremont","state":"CA","lat":37.5605,"long":-121.9999},{"zip":"94537","city":"Fremont","state":"CA","lat":37.6802,"long":-121.9215},{"zip":"94538","city":"Fremont","state":"CA","lat":37.5308,"long":-121.9712},{"zip":"94539","city":"Fremont","state":"CA","lat":37.5176,"long":-121.9287},{"zip":"94530","city":"El Cerrito","state":"CA","lat":37.9156,"long":-122.2985},{"zip":"94531","city":"Antioch","state":"CA","lat":37.9658,"long":-121.7758},{"zip":"94533","city":"Fairfield","state":"CA","lat":38.2671,"long":-122.0357},{"zip":"94534","city":"Fairfield","state":"CA","lat":38.2423,"long":-122.1314},{"zip":"94535","city":"Travis Afb","state":"CA","lat":38.2743,"long":-121.9463}]
