[{"zip":"95004","city":"Aromas","state":"CA","lat":36.8769,"long":-121.6324},{"zip":"95002","city":"Alviso","state":"CA","lat":37.426,"long":-121.9736},{"zip":"95008","city":"Campbell","state":"CA","lat":37.2803,"long":-121.9539},{"zip":"95009","city":"Campbell","state":"CA","lat":37.2872,"long":-121.9488},{"zip":"95001","city":"Aptos","state":"CA","lat":36.979,"long":-121.898},{"zip":"95003","city":"Aptos","state":"CA","lat":36.9797,"long":-121.8902},{"zip":"95005","city":"Ben Lomond","state":"CA","lat":37.0882,"long":-122.0887},{"zip":"95006","city":"Boulder Creek","state":"CA","lat":37.1547,"long":-122.1365},{"zip":"95007","city":"Brookdale","state":"CA","lat":37.1063,"long":-122.105}]
