[{"zip":"95012","city":"Castroville","state":"CA","lat":36.7658,"long":-121.758},{"zip":"95011","city":"Campbell","state":"CA","lat":37.294,"long":-121.9571},{"zip":"95013","city":"Coyote","state":"CA","lat":37.2123,"long":-121.7416},{"zip":"95014","city":"Cupertino","state":"CA","lat":37.318,"long":-122.0449},{"zip":"95015","city":"Cupertino","state":"CA","lat":37.323,"long":-122.0527},{"zip":"95010","city":"Capitola","state":"CA","lat":36.9767,"long":-121.9555},{"zip":"95017","city":"Davenport","state":"CA","lat":37.0423,"long":-122.2137},{"zip":"95018","city":"Felton","state":"CA","lat":37.0662,"long":-122.0618},{"zip":"95019","city":"Freedom","state":"CA","lat":36.9356,"long":-121.7767}]
