[{"zip":"95311","city":"Coulterville","state":"CA","lat":37.7197,"long":-120.1197},{"zip":"95318","city":"El Portal","state":"CA","lat":37.6747,"long":-119.7841},{"zip":"95312","city":"Cressey","state":"CA","lat":37.4197,"long":-120.6663},{"zip":"95315","city":"Delhi","state":"CA","lat":37.4273,"long":-120.7752},{"zip":"95317","city":"El Nido","state":"CA","lat":37.1391,"long":-120.5251},{"zip":"95313","city":"Crows Landing","state":"CA","lat":37.4218,"long":-121.0411},{"zip":"95316","city":"Denair","state":"CA","lat":37.539,"long":-120.7758},{"zip":"95319","city":"Empire","state":"CA","lat":37.6382,"long":-120.9005},{"zip":"95310","city":"Columbia","state":"CA","lat":38.044,"long":-120.3971}]
