[{"zip":"95422","city":"Clearlake","state":"CA","lat":38.9576,"long":-122.636},{"zip":"95423","city":"Clearlake Oaks","state":"CA","lat":39.0664,"long":-122.6558},{"zip":"95424","city":"Clearlake Park","state":"CA","lat":38.9666,"long":-122.65},{"zip":"95426","city":"Cobb","state":"CA","lat":38.8155,"long":-122.7132},{"zip":"95420","city":"Caspar","state":"CA","lat":39.3629,"long":-123.7944},{"zip":"95427","city":"Comptche","state":"CA","lat":39.2767,"long":-123.5873},{"zip":"95428","city":"Covelo","state":"CA","lat":39.82,"long":-123.0585},{"zip":"95429","city":"Dos Rios","state":"CA","lat":39.7168,"long":-123.3533},{"zip":"95421","city":"Cazadero","state":"CA","lat":38.5918,"long":-123.1965},{"zip":"95425","city":"Cloverdale","state":"CA","lat":38.7931,"long":-123.0074}]
