[{"zip":"95435","city":"Finley","state":"CA","lat":38.9639,"long":-122.9009},{"zip":"95432","city":"Elk","state":"CA","lat":39.1593,"long":-123.7219},{"zip":"95437","city":"Fort Bragg","state":"CA","lat":39.4402,"long":-123.7703},{"zip":"95430","city":"Duncans Mills","state":"CA","lat":38.3929,"long":-123.0057},{"zip":"95431","city":"Eldridge","state":"CA","lat":38.3348,"long":-122.5055},{"zip":"95433","city":"El Verano","state":"CA","lat":38.2993,"long":-122.4867},{"zip":"95436","city":"Forestville","state":"CA","lat":38.4923,"long":-122.9042},{"zip":"95439","city":"Fulton","state":"CA","lat":38.4947,"long":-122.7761}]
