[{"zip":"95451","city":"Kelseyville","state":"CA","lat":38.9421,"long":-122.7777},{"zip":"95453","city":"Lakeport","state":"CA","lat":39.047,"long":-122.9328},{"zip":"95457","city":"Lower Lake","state":"CA","lat":38.8915,"long":-122.5914},{"zip":"95458","city":"Lucerne","state":"CA","lat":39.0783,"long":-122.7846},{"zip":"95454","city":"Laytonville","state":"CA","lat":39.6627,"long":-123.4929},{"zip":"95456","city":"Little River","state":"CA","lat":39.2707,"long":-123.7883},{"zip":"95459","city":"Manchester","state":"CA","lat":39.0097,"long":-123.6523},{"zip":"95450","city":"Jenner","state":"CA","lat":38.4987,"long":-123.1974},{"zip":"95452","city":"Kenwood","state":"CA","lat":38.4168,"long":-122.5547}]
