[{"zip":"95461","city":"Middletown","state":"CA","lat":38.7824,"long":-122.6487},{"zip":"95464","city":"Nice","state":"CA","lat":39.1194,"long":-122.8315},{"zip":"95467","city":"Hidden Valley Lake","state":"CA","lat":38.8036,"long":-122.5407},{"zip":"95460","city":"Mendocino","state":"CA","lat":39.3173,"long":-123.7739},{"zip":"95463","city":"Navarro","state":"CA","lat":39.185,"long":-123.5268},{"zip":"95466","city":"Philo","state":"CA","lat":39.0657,"long":-123.445},{"zip":"95468","city":"Point Arena","state":"CA","lat":38.9152,"long":-123.6},{"zip":"95469","city":"Potter Valley","state":"CA","lat":39.3932,"long":-123.0647},{"zip":"95462","city":"Monte Rio","state":"CA","lat":38.4706,"long":-123.0172},{"zip":"95465","city":"Occidental","state":"CA","lat":38.4087,"long":-122.9954}]
