[{"zip":"95493","city":"Witter Springs","state":"CA","lat":39.1821,"long":-122.9711},{"zip":"95490","city":"Willits","state":"CA","lat":39.4493,"long":-123.3679},{"zip":"95494","city":"Yorkville","state":"CA","lat":38.9235,"long":-123.2973},{"zip":"95492","city":"Windsor","state":"CA","lat":38.5443,"long":-122.8073},{"zip":"95497","city":"The Sea Ranch","state":"CA","lat":38.7256,"long":-123.4675}]
