[{"zip":"95521","city":"Arcata","state":"CA","lat":40.8742,"long":-124.0765},{"zip":"95524","city":"Bayside","state":"CA","lat":40.8266,"long":-124.0552},{"zip":"95525","city":"Blue Lake","state":"CA","lat":40.9374,"long":-123.8913},{"zip":"95526","city":"Bridgeville","state":"CA","lat":40.4693,"long":-123.7998},{"zip":"95528","city":"Carlotta","state":"CA","lat":40.507,"long":-123.9743},{"zip":"95527","city":"Burnt Ranch","state":"CA","lat":40.7897,"long":-123.4113}]
