[{"zip":"95543","city":"Gasquet","state":"CA","lat":41.9056,"long":-123.831},{"zip":"95548","city":"Klamath","state":"CA","lat":41.5804,"long":-124.0387},{"zip":"95540","city":"Fortuna","state":"CA","lat":40.5835,"long":-124.1473},{"zip":"95542","city":"Garberville","state":"CA","lat":40.0864,"long":-123.7991},{"zip":"95545","city":"Honeydew","state":"CA","lat":40.2421,"long":-124.0972},{"zip":"95546","city":"Hoopa","state":"CA","lat":41.0504,"long":-123.6742},{"zip":"95547","city":"Hydesville","state":"CA","lat":40.5485,"long":-124.0847},{"zip":"95549","city":"Kneeland","state":"CA","lat":40.6405,"long":-123.8826}]
