[{"zip":"95654","city":"Martell","state":"CA","lat":38.3515,"long":-120.7752},{"zip":"95651","city":"Lotus","state":"CA","lat":38.8278,"long":-120.9238},{"zip":"95656","city":"Mount Aukum","state":"CA","lat":38.55,"long":-120.7304},{"zip":"95650","city":"Loomis","state":"CA","lat":38.8071,"long":-121.1698},{"zip":"95658","city":"Newcastle","state":"CA","lat":38.8763,"long":-121.143},{"zip":"95652","city":"Mcclellan","state":"CA","lat":38.6621,"long":-121.3955},{"zip":"95655","city":"Mather","state":"CA","lat":38.5579,"long":-121.291},{"zip":"95659","city":"Nicolaus","state":"CA","lat":38.8657,"long":-121.557},{"zip":"95653","city":"Madison","state":"CA","lat":38.6802,"long":-121.9721}]
