[{"zip":"95665","city":"Pine Grove","state":"CA","lat":38.4049,"long":-120.6544},{"zip":"95666","city":"Pioneer","state":"CA","lat":38.4319,"long":-120.5719},{"zip":"95669","city":"Plymouth","state":"CA","lat":38.4916,"long":-120.8819},{"zip":"95664","city":"Pilot Hill","state":"CA","lat":38.8135,"long":-121.0308},{"zip":"95667","city":"Placerville","state":"CA","lat":38.7195,"long":-120.8046},{"zip":"95661","city":"Roseville","state":"CA","lat":38.7346,"long":-121.234},{"zip":"95663","city":"Penryn","state":"CA","lat":38.8567,"long":-121.1791},{"zip":"95660","city":"North Highlands","state":"CA","lat":38.6707,"long":-121.3781},{"zip":"95662","city":"Orangevale","state":"CA","lat":38.6845,"long":-121.2256},{"zip":"95668","city":"Pleasant Grove","state":"CA","lat":38.8115,"long":-121.4982}]
