[{"zip":"95926","city":"Chico","state":"CA","lat":39.7458,"long":-121.8444},{"zip":"95927","city":"Chico","state":"CA","lat":39.8117,"long":-121.9398},{"zip":"95928","city":"Chico","state":"CA","lat":39.7224,"long":-121.8113},{"zip":"95929","city":"Chico","state":"CA","lat":39.7301,"long":-121.8414},{"zip":"95920","city":"Butte City","state":"CA","lat":39.4568,"long":-121.9515},{"zip":"95924","city":"Cedar Ridge","state":"CA","lat":39.1988,"long":-121.02},{"zip":"95923","city":"Canyon Dam","state":"CA","lat":39.5645,"long":-121.5751},{"zip":"95922","city":"Camptonville","state":"CA","lat":39.4518,"long":-121.0486},{"zip":"95925","city":"Challenge","state":"CA","lat":39.4685,"long":-121.1936}]
