[{"zip":"95930","city":"Clipper Mills","state":"CA","lat":39.5302,"long":-121.1675},{"zip":"95938","city":"Durham","state":"CA","lat":39.633,"long":-121.7886},{"zip":"95932","city":"Colusa","state":"CA","lat":39.2345,"long":-122.0277},{"zip":"95939","city":"Elk Creek","state":"CA","lat":39.5306,"long":-122.6124},{"zip":"95934","city":"Crescent Mills","state":"CA","lat":40.0673,"long":-120.9248},{"zip":"95936","city":"Downieville","state":"CA","lat":39.569,"long":-120.8344},{"zip":"95937","city":"Dunnigan","state":"CA","lat":38.887,"long":-121.9992},{"zip":"95935","city":"Dobbins","state":"CA","lat":39.3662,"long":-121.2256}]
