[{"zip":"95973","city":"Chico","state":"CA","lat":39.8032,"long":-121.8673},{"zip":"95974","city":"Richvale","state":"CA","lat":39.4959,"long":-121.748},{"zip":"95976","city":"Chico","state":"CA","lat":39.7346,"long":-121.8331},{"zip":"95978","city":"Stirling City","state":"CA","lat":39.9077,"long":-121.5269},{"zip":"95970","city":"Princeton","state":"CA","lat":39.4168,"long":-122.0519},{"zip":"95979","city":"Stonyford","state":"CA","lat":39.3176,"long":-122.5393},{"zip":"95975","city":"Rough And Ready","state":"CA","lat":39.2286,"long":-121.1509},{"zip":"95977","city":"Smartsville","state":"CA","lat":39.3019,"long":-120.7657},{"zip":"95971","city":"Quincy","state":"CA","lat":39.9284,"long":-120.9698},{"zip":"95972","city":"Rackerby","state":"CA","lat":39.4256,"long":-121.3252}]
