[{"zip":"95987","city":"Williams","state":"CA","lat":39.1337,"long":-122.2162},{"zip":"95988","city":"Willows","state":"CA","lat":39.5353,"long":-122.2597},{"zip":"95986","city":"Washington","state":"CA","lat":39.3569,"long":-120.8},{"zip":"95980","city":"Storrie","state":"CA","lat":39.9175,"long":-121.3222},{"zip":"95983","city":"Taylorsville","state":"CA","lat":40.0357,"long":-120.7353},{"zip":"95984","city":"Twain","state":"CA","lat":40.0509,"long":-121.1268},{"zip":"95982","city":"Sutter","state":"CA","lat":39.1779,"long":-121.7758},{"zip":"95981","city":"Strawberry Valley","state":"CA","lat":39.687,"long":-121.045}]
