[{"zip":"96009","city":"Bieber","state":"CA","lat":41.1315,"long":-121.1286},{"zip":"96006","city":"Adin","state":"CA","lat":41.2175,"long":-120.9432},{"zip":"96001","city":"Redding","state":"CA","lat":40.5605,"long":-122.4116},{"zip":"96002","city":"Redding","state":"CA","lat":40.5486,"long":-122.3339},{"zip":"96003","city":"Redding","state":"CA","lat":40.6278,"long":-122.353},{"zip":"96007","city":"Anderson","state":"CA","lat":40.4574,"long":-122.3282},{"zip":"96008","city":"Bella Vista","state":"CA","lat":40.7409,"long":-122.0725}]
