[{"zip":"96054","city":"Lookout","state":"CA","lat":41.2347,"long":-121.2156},{"zip":"96051","city":"Lakehead","state":"CA","lat":40.9105,"long":-122.4106},{"zip":"96056","city":"Mcarthur","state":"CA","lat":41.0502,"long":-121.3991},{"zip":"96050","city":"Klamath River","state":"CA","lat":41.8637,"long":-122.8197},{"zip":"96057","city":"Mccloud","state":"CA","lat":41.2475,"long":-122.1128},{"zip":"96058","city":"Macdoel","state":"CA","lat":41.883,"long":-121.9445},{"zip":"96055","city":"Los Molinos","state":"CA","lat":40.0497,"long":-122.0992},{"zip":"96059","city":"Manton","state":"CA","lat":40.4331,"long":-121.8365},{"zip":"96052","city":"Lewiston","state":"CA","lat":40.746,"long":-122.8426}]
