[{"zip":"96142","city":"Tahoma","state":"CA","lat":39.0644,"long":-120.1357},{"zip":"96140","city":"Carnelian Bay","state":"CA","lat":39.2319,"long":-120.0753},{"zip":"96141","city":"Homewood","state":"CA","lat":39.0786,"long":-120.1734},{"zip":"96143","city":"Kings Beach","state":"CA","lat":39.2401,"long":-120.0233},{"zip":"96145","city":"Tahoe City","state":"CA","lat":39.1806,"long":-120.1445},{"zip":"96146","city":"Olympic Valley","state":"CA","lat":39.1752,"long":-120.1954},{"zip":"96148","city":"Tahoe Vista","state":"CA","lat":39.2448,"long":-120.0521}]
