[{"zip":"96760","city":"Kurtistown","state":"HI","lat":19.5693,"long":-155.0349},{"zip":"96764","city":"Laupahoehoe","state":"HI","lat":19.9802,"long":-155.2323},{"zip":"96762","city":"Laie","state":"HI","lat":21.6253,"long":-157.941},{"zip":"96765","city":"Lawai","state":"HI","lat":21.9309,"long":-159.4993},{"zip":"96766","city":"Lihue","state":"HI","lat":21.9816,"long":-159.3683},{"zip":"96769","city":"Makaweli","state":"HI","lat":21.9454,"long":-159.9214},{"zip":"96761","city":"Lahaina","state":"HI","lat":20.9174,"long":-156.6772},{"zip":"96763","city":"Lanai City","state":"HI","lat":20.8293,"long":-156.921},{"zip":"96767","city":"Lahaina","state":"HI","lat":20.8666,"long":-156.6467},{"zip":"96768","city":"Makawao","state":"HI","lat":20.8469,"long":-156.3327}]
