[{"zip":"96780","city":"Papaaloa","state":"HI","lat":19.9751,"long":-155.2203},{"zip":"96781","city":"Papaikou","state":"HI","lat":19.7916,"long":-155.0984},{"zip":"96783","city":"Pepeekeo","state":"HI","lat":19.8353,"long":-155.113},{"zip":"96785","city":"Volcano","state":"HI","lat":19.4801,"long":-155.1974},{"zip":"96782","city":"Pearl City","state":"HI","lat":21.4084,"long":-157.9652},{"zip":"96786","city":"Wahiawa","state":"HI","lat":21.5006,"long":-158.0435},{"zip":"96789","city":"Mililani","state":"HI","lat":21.4531,"long":-158.0174},{"zip":"96784","city":"Puunene","state":"HI","lat":20.8666,"long":-156.6467},{"zip":"96788","city":"Pukalani","state":"HI","lat":20.8559,"long":-156.3259}]
