[{"zip":"96850","city":"Honolulu","state":"HI","lat":21.3095,"long":-157.863},{"zip":"96853","city":"Jbphh","state":"HI","lat":21.4061,"long":-157.9609},{"zip":"96854","city":"Wheeler Army Airfield","state":"HI","lat":21.4877,"long":-158.0351},{"zip":"96857","city":"Schofield Barracks","state":"HI","lat":21.4963,"long":-158.0646},{"zip":"96858","city":"Fort Shafter","state":"HI","lat":21.3416,"long":-157.8918},{"zip":"96859","city":"Tripler Army Medical Center","state":"HI","lat":21.4061,"long":-157.9609}]
