[{"zip":"97102","city":"Arch Cape","state":"OR","lat":45.8109,"long":-123.963},{"zip":"97103","city":"Astoria","state":"OR","lat":46.1558,"long":-123.798},{"zip":"97107","city":"Bay City","state":"OR","lat":45.5197,"long":-123.8761},{"zip":"97108","city":"Beaver","state":"OR","lat":45.2767,"long":-123.8234},{"zip":"97106","city":"Banks","state":"OR","lat":45.6535,"long":-123.121},{"zip":"97109","city":"Buxton","state":"OR","lat":45.737,"long":-123.2146},{"zip":"97101","city":"Amity","state":"OR","lat":45.1157,"long":-123.1744}]
