[{"zip":"97145","city":"Tolovana Park","state":"OR","lat":45.8663,"long":-123.9595},{"zip":"97146","city":"Warrenton","state":"OR","lat":46.145,"long":-123.9254},{"zip":"97141","city":"Tillamook","state":"OR","lat":45.4492,"long":-123.8189},{"zip":"97143","city":"Netarts","state":"OR","lat":45.434,"long":-123.9458},{"zip":"97147","city":"Wheeler","state":"OR","lat":45.6888,"long":-123.8816},{"zip":"97149","city":"Neskowin","state":"OR","lat":45.097,"long":-123.9434},{"zip":"97140","city":"Sherwood","state":"OR","lat":45.3514,"long":-122.8567},{"zip":"97144","city":"Timber","state":"OR","lat":45.727,"long":-123.3119},{"zip":"97148","city":"Yamhill","state":"OR","lat":45.335,"long":-123.2036}]
