[{"zip":"97390","city":"Tidewater","state":"OR","lat":44.4055,"long":-123.9149},{"zip":"97391","city":"Toledo","state":"OR","lat":44.6271,"long":-123.9301},{"zip":"97394","city":"Waldport","state":"OR","lat":44.4085,"long":-124.0351},{"zip":"97392","city":"Turner","state":"OR","lat":44.8476,"long":-122.9501},{"zip":"97396","city":"Willamina","state":"OR","lat":45.0826,"long":-123.5047}]
