[{"zip":"97449","city":"Lakeside","state":"OR","lat":43.5833,"long":-124.1624},{"zip":"97444","city":"Gold Beach","state":"OR","lat":42.4073,"long":-124.4218},{"zip":"97441","city":"Gardiner","state":"OR","lat":43.7301,"long":-124.1104},{"zip":"97442","city":"Glendale","state":"OR","lat":42.7518,"long":-123.3943},{"zip":"97443","city":"Glide","state":"OR","lat":43.3015,"long":-123.1012},{"zip":"97447","city":"Idleyld Park","state":"OR","lat":43.3237,"long":-123.024},{"zip":"97440","city":"Eugene","state":"OR","lat":44.0521,"long":-123.0868},{"zip":"97448","city":"Junction City","state":"OR","lat":44.1988,"long":-123.23},{"zip":"97446","city":"Harrisburg","state":"OR","lat":44.2717,"long":-123.1432}]
