[{"zip":"97456","city":"Monroe","state":"OR","lat":44.3245,"long":-123.3203},{"zip":"97458","city":"Myrtle Point","state":"OR","lat":43.0667,"long":-124.1213},{"zip":"97459","city":"North Bend","state":"OR","lat":43.4327,"long":-124.2131},{"zip":"97450","city":"Langlois","state":"OR","lat":42.9154,"long":-124.4413},{"zip":"97457","city":"Myrtle Creek","state":"OR","lat":43.0162,"long":-123.2851},{"zip":"97451","city":"Lorane","state":"OR","lat":43.829,"long":-123.2477},{"zip":"97452","city":"Lowell","state":"OR","lat":43.921,"long":-122.7806},{"zip":"97453","city":"Mapleton","state":"OR","lat":44.0312,"long":-123.8657},{"zip":"97454","city":"Marcola","state":"OR","lat":44.2064,"long":-122.8246},{"zip":"97455","city":"Pleasant Hill","state":"OR","lat":43.9458,"long":-122.9285}]
