[{"zip":"97739","city":"La Pine","state":"OR","lat":43.7091,"long":-121.5194},{"zip":"97732","city":"Crane","state":"OR","lat":43.4262,"long":-118.4642},{"zip":"97736","city":"Frenchglen","state":"OR","lat":42.7147,"long":-119.0058},{"zip":"97738","city":"Hines","state":"OR","lat":43.5558,"long":-119.0816},{"zip":"97730","city":"Camp Sherman","state":"OR","lat":44.4604,"long":-121.6412},{"zip":"97734","city":"Culver","state":"OR","lat":44.4818,"long":-121.2344},{"zip":"97731","city":"Chemult","state":"OR","lat":43.146,"long":-121.7974},{"zip":"97733","city":"Crescent","state":"OR","lat":43.4442,"long":-121.7109},{"zip":"97737","city":"Gilchrist","state":"OR","lat":43.3725,"long":-121.6583},{"zip":"97735","city":"Fort Rock","state":"OR","lat":43.3565,"long":-121.0539}]
