[{"zip":"97823","city":"Condon","state":"OR","lat":45.2306,"long":-120.1898},{"zip":"97820","city":"Canyon City","state":"OR","lat":44.3911,"long":-118.9465},{"zip":"97825","city":"Dayville","state":"OR","lat":44.4663,"long":-119.5312},{"zip":"97826","city":"Echo","state":"OR","lat":45.7411,"long":-119.1949},{"zip":"97824","city":"Cove","state":"OR","lat":45.3199,"long":-117.8147},{"zip":"97827","city":"Elgin","state":"OR","lat":45.5941,"long":-117.9112},{"zip":"97828","city":"Enterprise","state":"OR","lat":45.437,"long":-117.2888}]
