[{"zip":"97884","city":"Unity","state":"OR","lat":44.4374,"long":-118.1927},{"zip":"97880","city":"Ukiah","state":"OR","lat":45.0836,"long":-118.894},{"zip":"97882","city":"Umatilla","state":"OR","lat":45.8998,"long":-119.3553},{"zip":"97886","city":"Weston","state":"OR","lat":45.8074,"long":-118.3733},{"zip":"97883","city":"Union","state":"OR","lat":45.2019,"long":-117.8536},{"zip":"97885","city":"Wallowa","state":"OR","lat":45.5717,"long":-117.5357}]
