[{"zip":"97910","city":"Jordan Valley","state":"OR","lat":42.8801,"long":-117.281},{"zip":"97911","city":"Juntura","state":"OR","lat":43.8253,"long":-118.0921},{"zip":"97913","city":"Nyssa","state":"OR","lat":43.8604,"long":-117.0251},{"zip":"97914","city":"Ontario","state":"OR","lat":44.0416,"long":-116.9783},{"zip":"97917","city":"Riverside","state":"OR","lat":43.5099,"long":-118.0986},{"zip":"97918","city":"Vale","state":"OR","lat":44.0039,"long":-117.2674}]
