[{"zip":"98022","city":"Enumclaw","state":"WA","lat":47.2665,"long":-122.0314},{"zip":"98023","city":"Federal Way","state":"WA","lat":47.3104,"long":-122.3612},{"zip":"98024","city":"Fall City","state":"WA","lat":47.5682,"long":-121.8896},{"zip":"98025","city":"Hobart","state":"WA","lat":47.4218,"long":-121.9729},{"zip":"98027","city":"Issaquah","state":"WA","lat":47.4974,"long":-122.0107},{"zip":"98028","city":"Kenmore","state":"WA","lat":47.7542,"long":-122.2475},{"zip":"98029","city":"Issaquah","state":"WA","lat":47.5585,"long":-122.0055},{"zip":"98020","city":"Edmonds","state":"WA","lat":47.8061,"long":-122.3724},{"zip":"98021","city":"Bothell","state":"WA","lat":47.7918,"long":-122.2243},{"zip":"98026","city":"Edmonds","state":"WA","lat":47.8353,"long":-122.327}]
