[{"zip":"98324","city":"Carlsborg","state":"WA","lat":48.0906,"long":-123.1721},{"zip":"98326","city":"Clallam Bay","state":"WA","lat":48.2255,"long":-124.2015},{"zip":"98320","city":"Brinnon","state":"WA","lat":47.6776,"long":-122.9375},{"zip":"98325","city":"Chimacum","state":"WA","lat":47.9861,"long":-122.7883},{"zip":"98322","city":"Burley","state":"WA","lat":47.4179,"long":-122.631},{"zip":"98321","city":"Buckley","state":"WA","lat":47.1524,"long":-122.0621},{"zip":"98323","city":"Carbonado","state":"WA","lat":47.0802,"long":-122.0513},{"zip":"98327","city":"Dupont","state":"WA","lat":47.0968,"long":-122.6312},{"zip":"98328","city":"Eatonville","state":"WA","lat":46.8708,"long":-122.2696},{"zip":"98329","city":"Gig Harbor","state":"WA","lat":47.3786,"long":-122.7}]
