[{"zip":"98847","city":"Peshastin","state":"WA","lat":47.5458,"long":-120.5961},{"zip":"98843","city":"Orondo","state":"WA","lat":47.6969,"long":-120.1721},{"zip":"98845","city":"Palisades","state":"WA","lat":47.419,"long":-119.9145},{"zip":"98848","city":"Quincy","state":"WA","lat":47.1976,"long":-119.8459},{"zip":"98840","city":"Okanogan","state":"WA","lat":48.3513,"long":-119.6046},{"zip":"98841","city":"Omak","state":"WA","lat":48.4143,"long":-119.5272},{"zip":"98844","city":"Oroville","state":"WA","lat":48.9397,"long":-119.4032},{"zip":"98846","city":"Pateros","state":"WA","lat":48.034,"long":-119.9785},{"zip":"98849","city":"Riverside","state":"WA","lat":48.4876,"long":-119.5803}]
