[{"zip":"98852","city":"Stehekin","state":"WA","lat":48.3093,"long":-120.6565},{"zip":"98850","city":"Rock Island","state":"WA","lat":47.3706,"long":-120.1378},{"zip":"98858","city":"Waterville","state":"WA","lat":47.6295,"long":-119.9887},{"zip":"98851","city":"Soap Lake","state":"WA","lat":47.383,"long":-119.486},{"zip":"98853","city":"Stratford","state":"WA","lat":47.4043,"long":-119.313},{"zip":"98857","city":"Warden","state":"WA","lat":46.977,"long":-119.0539},{"zip":"98855","city":"Tonasket","state":"WA","lat":48.7194,"long":-119.3943},{"zip":"98856","city":"Twisp","state":"WA","lat":48.3632,"long":-120.135},{"zip":"98859","city":"Wauconda","state":"WA","lat":48.8224,"long":-118.9469}]
