[{"zip":"99011","city":"Fairchild Air Force Base","state":"WA","lat":47.6332,"long":-117.6546},{"zip":"99012","city":"Fairfield","state":"WA","lat":47.3987,"long":-117.1921},{"zip":"99014","city":"Four Lakes","state":"WA","lat":47.5599,"long":-117.5958},{"zip":"99016","city":"Greenacres","state":"WA","lat":47.6584,"long":-117.1568},{"zip":"99018","city":"Latah","state":"WA","lat":47.2999,"long":-117.1395},{"zip":"99019","city":"Liberty Lake","state":"WA","lat":47.6517,"long":-117.0838},{"zip":"99013","city":"Ford","state":"WA","lat":47.9169,"long":-117.8119},{"zip":"99017","city":"Lamont","state":"WA","lat":47.1887,"long":-117.8755}]
