[{"zip":"99118","city":"Curlew","state":"WA","lat":48.9108,"long":-118.6452},{"zip":"99115","city":"Coulee City","state":"WA","lat":47.5966,"long":-119.2758},{"zip":"99117","city":"Creston","state":"WA","lat":47.7977,"long":-118.5307},{"zip":"99116","city":"Coulee Dam","state":"WA","lat":48.0379,"long":-118.9419},{"zip":"99119","city":"Cusick","state":"WA","lat":48.3915,"long":-117.3295},{"zip":"99110","city":"Clayton","state":"WA","lat":48.0071,"long":-117.5579},{"zip":"99114","city":"Colville","state":"WA","lat":48.578,"long":-117.8645},{"zip":"99111","city":"Colfax","state":"WA","lat":46.88,"long":-117.367},{"zip":"99113","city":"Colton","state":"WA","lat":46.5901,"long":-117.1692}]
