[{"zip":"99121","city":"Danville","state":"WA","lat":48.9725,"long":-118.4884},{"zip":"99123","city":"Electric City","state":"WA","lat":47.9131,"long":-119.0426},{"zip":"99122","city":"Davenport","state":"WA","lat":47.6809,"long":-118.1667},{"zip":"99124","city":"Elmer City","state":"WA","lat":47.9979,"long":-118.9545},{"zip":"99126","city":"Evans","state":"WA","lat":48.7458,"long":-118.0001},{"zip":"99129","city":"Fruitland","state":"WA","lat":47.9797,"long":-118.2159},{"zip":"99125","city":"Endicott","state":"WA","lat":46.9364,"long":-117.723},{"zip":"99128","city":"Farmington","state":"WA","lat":47.0847,"long":-117.0763}]
