[{"zip":"99150","city":"Malo","state":"WA","lat":48.811,"long":-118.6044},{"zip":"99154","city":"Mohler","state":"WA","lat":47.3897,"long":-118.3659},{"zip":"99159","city":"Odessa","state":"WA","lat":47.3395,"long":-118.6983},{"zip":"99155","city":"Nespelem","state":"WA","lat":48.1434,"long":-119.0094},{"zip":"99152","city":"Metaline","state":"WA","lat":48.8496,"long":-117.3963},{"zip":"99153","city":"Metaline Falls","state":"WA","lat":48.8597,"long":-117.3633},{"zip":"99156","city":"Newport","state":"WA","lat":48.1695,"long":-117.1508},{"zip":"99151","city":"Marcus","state":"WA","lat":48.6632,"long":-118.0683},{"zip":"99157","city":"Northport","state":"WA","lat":48.9247,"long":-117.7931},{"zip":"99158","city":"Oakesdale","state":"WA","lat":47.1282,"long":-117.2427}]
