[{"zip":"99607","city":"Kalskag","state":"AK","lat":61.541,"long":-160.3261},{"zip":"99609","city":"Kasigluk","state":"AK","lat":60.8956,"long":-162.5181},{"zip":"99603","city":"Homer","state":"AK","lat":59.5374,"long":-151.2356},{"zip":"99605","city":"Hope","state":"AK","lat":60.8726,"long":-149.4683},{"zip":"99608","city":"Karluk","state":"AK","lat":57.5689,"long":-154.4551},{"zip":"99606","city":"Iliamna","state":"AK","lat":59.7525,"long":-154.8236},{"zip":"99604","city":"Hooper Bay","state":"AK","lat":61.527,"long":-166.1151},{"zip":"99602","city":"Holy Cross","state":"AK","lat":62.1926,"long":-159.8251}]
