[{"zip":"99612","city":"King Cove","state":"AK","lat":55.0628,"long":-162.3056},{"zip":"99614","city":"Kipnuk","state":"AK","lat":59.9232,"long":-164.101},{"zip":"99613","city":"King Salmon","state":"AK","lat":58.6883,"long":-156.6614},{"zip":"99610","city":"Kasilof","state":"AK","lat":60.3164,"long":-151.2896},{"zip":"99611","city":"Kenai","state":"AK","lat":60.6145,"long":-151.2546},{"zip":"99615","city":"Kodiak","state":"AK","lat":57.6036,"long":-153.3751},{"zip":"99619","city":"Kodiak","state":"AK","lat":57.79,"long":-152.4072}]
