[{"zip":"99638","city":"Nikolski","state":"AK","lat":52.9883,"long":-168.7884},{"zip":"99630","city":"Mekoryuk","state":"AK","lat":60.3657,"long":-166.2836},{"zip":"99634","city":"Napakiak","state":"AK","lat":60.6967,"long":-161.9519},{"zip":"99637","city":"Toksook Bay","state":"AK","lat":60.5338,"long":-165.1037},{"zip":"99633","city":"Naknek","state":"AK","lat":58.783,"long":-156.8992},{"zip":"99636","city":"New Stuyahok","state":"AK","lat":59.4882,"long":-157.2905},{"zip":"99631","city":"Moose Pass","state":"AK","lat":60.6148,"long":-149.4056},{"zip":"99635","city":"Nikiski","state":"AK","lat":60.7007,"long":-151.2766},{"zip":"99639","city":"Ninilchik","state":"AK","lat":60.0108,"long":-151.6396},{"zip":"99632","city":"Mountain Village","state":"AK","lat":62.1123,"long":-163.6644}]
