[{"zip":"99739","city":"Elim","state":"AK","lat":64.6217,"long":-162.2604},{"zip":"99734","city":"Prudhoe Bay","state":"AK","lat":70.2922,"long":-148.6694},{"zip":"99736","city":"Deering","state":"AK","lat":66.0737,"long":-162.714},{"zip":"99731","city":"Fort Greely","state":"AK","lat":63.952,"long":-146.451},{"zip":"99732","city":"Chicken","state":"AK","lat":64.0733,"long":-141.9361},{"zip":"99737","city":"Delta Junction","state":"AK","lat":64.0378,"long":-145.7322},{"zip":"99738","city":"Eagle","state":"AK","lat":64.7881,"long":-141.2},{"zip":"99730","city":"Central","state":"AK","lat":65.4681,"long":-144.7489},{"zip":"99733","city":"Circle","state":"AK","lat":65.8245,"long":-144.0826}]
