[{"zip":"99762","city":"Nome","state":"AK","lat":64.5011,"long":-165.4064},{"zip":"99769","city":"Savoonga","state":"AK","lat":63.6797,"long":-170.4709},{"zip":"99766","city":"Point Hope","state":"AK","lat":68.3486,"long":-166.7347},{"zip":"99761","city":"Noatak","state":"AK","lat":67.5711,"long":-162.9653},{"zip":"99763","city":"Noorvik","state":"AK","lat":66.8364,"long":-161.0441},{"zip":"99764","city":"Northway","state":"AK","lat":62.9617,"long":-141.9372},{"zip":"99760","city":"Nenana","state":"AK","lat":64.5577,"long":-149.0867},{"zip":"99765","city":"Nulato","state":"AK","lat":64.7194,"long":-158.1031},{"zip":"99767","city":"Rampart","state":"AK","lat":65.509,"long":-150.1619},{"zip":"99768","city":"Ruby","state":"AK","lat":64.7201,"long":-155.5039}]
