[{"zip":"99783","city":"Wales","state":"AK","lat":65.6092,"long":-168.0875},{"zip":"99784","city":"White Mountain","state":"AK","lat":64.7028,"long":-163.4219},{"zip":"99785","city":"Brevig Mission","state":"AK","lat":65.3342,"long":-166.4786},{"zip":"99782","city":"Wainwright","state":"AK","lat":70.6369,"long":-160.0383},{"zip":"99789","city":"Nuiqsut","state":"AK","lat":70.1927,"long":-150.9971},{"zip":"99786","city":"Ambler","state":"AK","lat":67.0861,"long":-157.8514},{"zip":"99780","city":"Tok","state":"AK","lat":63.3367,"long":-142.9856},{"zip":"99781","city":"Venetie","state":"AK","lat":67.0104,"long":-146.4137},{"zip":"99788","city":"Chalkyitsik","state":"AK","lat":66.6544,"long":-143.7222}]
